7,37,07,34,207,37,27,23,163,38*6F
$BDGSV,5,4,19,16,17,172,,05,16,254,,23,14,095,31,06,12,180,*63
$BDGSV,5,5,19,19,05,252,,09,03,188,,25,03,051,*53
$GNRMC,120902.000,A,3018.4342,N,12004.6793,E,0.00,159.03,270326,,,D*76
$GNVTG,159.03,T,,M,0.00,N,0.01,K,D*29
$GNGGA,120903.000,3018.4342,N,12004.6793,E,2,22,0.59,29.4,M,7.0,M,,*7B
$GNGLL,3018.4342,N,12004.6793,E,120903.000,A,D*4C
$GPGSA,A,3,20,13,05,21,11,18,195,30,29,194,24,,0.92,0.59,0.71*03
$BDGSA,A,3,29,08,20,04,01,27,23,13,07,30,03,,0.92,0.59,0.71*17
$GPGSV,4,1,13,20,76,009,42,13,72,036,44,15,67,270,39,195,64,127,42*47
$GPGSV,4,2,13,05,52,037,45,29,40,254,35,21,32,066,41,11,30,133,41*70
$GPGSV,4,3,13,18,24,319,37,24,20,181,36,30,18,051,36,194,10,166,36*47
$GPGSV,4,4,13,23,08,286,*4E
$BDGSV,5,1,19,30,64,228,43,03,54,199,38,08,50,333,33,01,47,137,36*6E
$BDGSV,5,2,19,13,46,316,34,20,46,277,31,02,38,236,23,10,37,221,*6F
$BDGSV,5,3,19,04,37,118,35,29,36,306,37,07,34,207,37,27,23,163,38*6D
$BDGSV,5,4,19,16,17,172,,05,16,254,,23,14,095,32,06,12,180,*60
$BDGSV,5,5,19,19,05,252,,09,03,188,,25,03,051,*53
$GNRMC,120903.000,A,3018.4342,N,12004.6793,E,0.01,159.03,270326,,,D*76
$GNVTG,159.03,T,,M,0.01,N,0.02,K,D*2B
$GNGGA,120904.000,3018.4342,N,12004.6794,E,2,22,0.59,29.4,M,7.0,M,,*7B
$GNGLL,3018.4342,N,12004.6794,E,120904.000,A,D*4C
$GPGSA,A,3,20,13,05,21,11,18,195,30,29,194,24,,0.92,0.59,0.71*03
$BDGSA,A,3,29,08,20,04,01,27,23,13,07,30,03,,0.92,0.59,0.71*17
$GPGSV,4,1,13,20,76,009,42,13,72,036,44,15,67,270,39,195,64,127,42*47
$GPGSV,4,2,13,05,52,037,45,29,40,254,35,21,32,066,42,11,30,133,41*73
$GPGSV,4,3,13,18,24,319,37,24,20,181,36,30,18,051,36,194,10,166,36*47
$GPGSV,4,4,13,23,08,286,*4E
$BDGSV,5,1,19,30,63,226,43,03,54,199,38,08,50,333,33,01,47,137,36*67
$BDGSV,5,2,19,13,46,316,34,20,46,277,31,02,38,236,,10,37,221,*6E
$BDGSV,5,3,19,04,37,118,35,29,36,306,37,07,34,207,37,27,23,163,38*6D
$BDGSV,5,4,19,16,17,172,,05,16,254,,23,14,095,31,06,12,180,*63
$BDGSV,5,5,19,19,05,252,,09,03,188,,25,03,051,*53
$GNRMC,120904.000,A,3018.4342,N,12004.6794,E,0.01,159.03,270326,,,D*76
$GNVTG,159.03,T,,M,0.01,N,0.02,K,D*2B
$GNGGA,120905.000,3018.4342,N,12004.6794,E,2,22,0.59,29.4,M,7.0,M,,*7A
$GNGLL,3018.4342,N,12004.6794,E,120905.000,A,D*4D
$GPGSA,A,3,20,13,05,21,11,18,195,30,29,194,24,,0.92,0.59,0.71*03
$BDGSA,A,3,29,08,20,04,01,27,23,13,07,30,03,,0.92,0.59,0.71*17
$GPGSV,4,1,13,20,76,009,43,13,72,036,44,15,67,270,30,195,64,127,42*4F
$GPGSV,4,2,13,05,52,037,45,29,40,254,33,21,32,066,41,11,30,133,39*79
$GPGSV,4,3,13,18,24,319,35,24,20,181,35,30,18,051,37,194,10,166,35*44
$GPGSV,4,4,13,23,08,286,*4E
$BDGSV,5,1,19,30,63,226,43,03,54,199,38,08,50,333,34,01,47,137,35*63
$BDGSV,5,2,19,13,46,316,33,20,46,277,31,02,38,236,,10,37,221,*69
$BDGSV,5,3,19,04,37,118,34,29,36,306,35,07,34,207,35,27,23,163,38*6C
$BDGSV,5,4,19,16,17,172,,05,16,254,,23,14,095,30,06,12,180,*62
$BDGSV,5,5,19,19,05,252,,09,03,188,,25,03,051,*53
$GNRMC,120905.000,A,3018.4342,N,12004.6794,E,0.05,159.03,270326,,,D*73
$GNVTG,159.03,T,,M,0.05,N,0.10,K,D*2C
$GNGGA,120906.000,3018.4342,N,12004.6794,E,2,22,0.59,29.4,M,7.0,M,,*79
$GNGLL,3018.4342,N,12004.6794,E,120906.000,A,D*4E
$GPGSA,A,3,20,13,05,21,11,18,195,30,29,194,24,,0.92,0.59,0.71*03
$BDGSA,A,3,29,08,20,04,01,27,23,13,07,30,03,,0.92,0.59,0.71*17
$GPGSV,4,1,13,20,76,009,43,13,72,036,44,15,67,270,32,195,64,127,43*4C
$GPGSV,4,2,13,05,52,037,44,29,40,254,33,21,32,066,40,11,30,133,39*79
$GPGSV,4,3,13,18,24,319,35,24,20,181,36,30,18,051,37,194,10,166,34*46
$GPGSV,4,4,13,23,08,286,*4E
$BDGSV,5,1,19,30,63,226,42,03,54,199,38,08,50,333,35,01,47,137,35*63
$BDGSV,5,2,19,13,46,316,34,20,46,277,30,02,38,236,,10,37,221,*6F
$BDGSV,5,3,19,04,37,118,35,29,36,306,34,07,34,207,33,27,23,163,37*65
$BDGSV,5,4,19,16,17,172,,05,16,254,,23,14,095,30,06,12,180,*62
$BDGSV,5,5,19,19,05,252,,09,03,188,,25,03,051,*53
$GNRMC,120906.000,A,3018.4342,N,12004.6794,E,0.04,159.03,270326,,,D*71
$GNVTG,159.03,T,,M,0.04,N,0.08,K,D*24
$GNGGA,120907.000,3018.4342,N,12004.6794,E,2,22,0.58,29.4,M,7.0,M,,*79
$GNGLL,3018.4342,N,12004.6794,E,120907.000,A,D*4F
$GPGSA,A,3,20,13,05,21,11,18,195,30,29,194,24,,0.92,0.58,0.72*01
$BDGSA,A,3,29,08,20,04,01,02,27,23,13,07,30,,0.92,0.58,0.72*14
$GPGSV,4,1,13,20,76,009,43,13,72,036,44,15,67,270,34,195,64,127,43*4A
$GPGSV,4,2,13,05,52,037,44,29,40,254,33,21,32,066,40,11,30,133,39*79
$GPGSV,4,3,13,18,24,319,35,24,20,181,36,30,18,051,37,194,10,166,34*46
$GPGSV,4,4,13,23,08,286,*4E
$BDGSV,5,1,19,30,63,226,42,03,54,199,38,08,50,333,35,01,47,137,35*63
$BDGSV,5,2,19,13,46,316,34,20,46,277,29,02,38,236,28,10,37,221,*6D
$BDGSV,5,3,19,04,37,118,35,29,36,306,33,07,34,207,31,27,23,163,37*60
$BDGSV,5,4,19,16,17,172,,05,16,254,,23,14,095,31,06,12,180,*63
$BDGSV,5,5,19,19,05,252,,09,03,188,,25,03,051,*53
$GNRMC,120907.000,A,3018.4342,N,12004.6794,E,0.03,159.03,270326,,,D*77
$GNVTG,159.03,T,,M,0.03,N,0.05,K,D*2E
$GNGGA,120908.000,3018.4342,N,12004.6794,E,2,22,0.59,29.4,M,7.0,M,,*77
$GNGLL,3018.4342,N,12004.6794,E,120908.000,A,D*40
$GPGSA,A,3,20,13,15,05,21,11,18,195,30,29,24,,0.94,0.59,0.73*3F
$BDGSA,A,3,29,08,20,04,01,02,27,23,13,07,03,,0.94,0.59,0.73*12
$GPGSV,4,1,13,20,76,009,43,13,72,036,44,15,67,270,35,195,64,127,43*4B
$GPGSV,4,2,13,05,52,037,44,29,40,254,33,21,32,066,40,11,30,133,39*79
$GPGSV,4,3,13,18,24,319,35,24,20,181,36,30,18,051,37,194,10,166,33*41
$GPGSV,4,4,13,23,08,286,*4E
$BDGSV,5,1,19,30,63,226,41,03,54,199,38,08,50,333,35,01,47,137,35*60
$BDGSV,5,2,19,13,46,316,35,20,46,277,28,02,38,236,30,10,37,221,*64
$BDGSV,5,3,19,04,37,118,35,29,36,306,33,07,34,207,29,27,23,163,37*69
$BDGSV,5,4,19,16,17,172,,05,16,254,,23,14,095,31,06,12,180,*63
$BDGSV,5,5,19,19,05,252,,09,03,188,,25,03,051,*53
$GNRMC,120908.000,A,3018.4342,N,12004.6794,E,0.01,159.03,270326,,,D*7A
$GNVTG,159.03,T,,M,0.01,N,0.01,K,D*28
$GNGGA,120909.000,3018.4342,N,12004.6794,E,2,22,0.59,29.4,M,7.0,M,,*76
$GNGLL,3018.4342,N,12004.6794,E,120909.000,A,D*41
$GPGSA,A,3,20,13,05,21,11,18,195,30,29,24,,,0.94,0.59,0.73*3B
$BDGSA,A,3,29,08,20,04,01,02,27,23,13,07,30,03,0.94,0.59,0.73*11
$GPGSV,4,1,13,20,76,009,43,13,72,036,43,15,67,270,36,195,64,127,43*4F
$GPGSV,4,2,13,05,52,039,44,29,40,254,33,21,32,066,40,11,30,133,39*77
$GPGSV,4,3,13,18,24,319,35,24,20,181,36,30,18,051,37,194,10,166,32*40
$GPGSV,4,4,13,23,08,286,*4E
$BDGSV,5,1,19,30,63,226,41,03,54,199,38,08,50,333,35,01,47,137,35*60
$BDGSV,5,2,19,13,46,316,35,20,46,277,28,02,38,236,30,10,37,221,*64
$BDGSV,5,3,19,04,37,118,35,29,36,306,33,07,34,207,28,27,23,163,37*68
$BDGSV,5,4,19,16,17,172,,05,16,254,,23,14,095,31,06,12,180,*63
$BDGSV,5,5,19,19,05,252,,09,03,188,,25,03,051,*53
$GNRMC,120909.000,A,3018.4342,N,12004.6794,E,0.03,159.03,270326,,,D*79
$GNVTG,159.03,T,,M,0.03,N,0.06,K,D*2D
$GNGGA,120910.000,3018.4342,N,12004.6794,E,2,22,0.59,29.4,M,7.0,M,,*7E
$GNGLL,3018.4342,N,12004.6794,E,120910.000,A,D*49
$GPGSA,A,3,20,13,15,05,21,11,18,195,30,29,24,,0.94,0.59,0.73*3F
$BDGSA,A,3,29,08,20,04,01,02,27,23,13,07,03,,0.94,0.59,0.73*12
$GPGSV,4,1,13,20,76,009,43,13,72,036,43,15,67,270,37,195,64,127,43*4E
$GPGSV,4,2,13,05,52,039,44,29,40,254,33,21,32,066,40,11,30,133,39*77
$GPGSV,4,3,13,18,24,319,35,24,20,181,36,30,18,051,37,194,10,166,32*40
$GPGSV,4,4,13,23,08,286,*4E
$BDGSV,5,1,19,30,63,226,41,03,54,199,38,08,50,333,36,01,47,137,35*63
$BDGSV,5,2,19,13,46,316,35,20,46,277,28,02,38,236,30,10,37,221,*64
$BDGSV,5,3,19,04,37,118,34,29,36,306,33,07,34,207,28,27,23,163,36*68
$BDGSV,5,4,19,16,17,172,,05,16,254,,23,14,095,31,06,12,180,*63
$BDGSV,5,5,19,19,05,252,,09,03,188,,25,03,051,*53
$GNRMC,120910.000,A,3018.4342,N,12004.6794,E,0.00,159.03,270326,,,D*72
$GNVTG,159.03,T,,M,0.00,N,0.00,K,D*28
$GNGGA,120911.000,3018.4342,N,12004.6794,E,2,22,0.58,29.4,M,7.0,M,,*7E
$GNGLL,3018.4342,N,12004.6794,E,120911.000,A,D*48
$GPGSA,A,3,20,13,05,21,11,18,195,30,29,194,24,,0.92,0.58,0.71*02
$BDGSA,A,3,29,08,04,01,02,27,23,13,07,30,03,,0.92,0.58,0.71*16
$GPGSV,4,1,13,20,76,009,43,13,72,036,43,15,67,270,37,195,64,127,43*4E
$GPGSV,4,2,13,05,52,039,44,29,40,254,33,21,32,066,40,11,30,133,39*77
$GPGSV,4,3,13,18,24,319,35,24,20,181,36,30,18,051,37,194,10,166,32*40
$GPGSV,4,4,13,23,08,286,*4E
$BDGSV,5,1,19,30,63,226,41,03,54,199,38,08,50,333,36,01,47,137,35*63
$BDGSV,5,2,19,13,46,316,35,20,46,277,20,02,38,236,30,10,37,221,*6C
$BDGSV,5,3,19,04,37,118,35,29,36,306,33,07,34,207,27,27,23,163,36*66
$BDGSV,5,4,19,16,17,172,,05,16,254,,23,14,095,30,06,12,180,*62
$BDGSV,5,5,19,19,05,252,,09,03,188,,25,03,051,*53
$GNRMC,120911.000,A,3018.4342,N,12004.6794,E,0.03,159.03,270326,,,D*70
$GNVTG,159.03,T,,M,0.03,N,0.06,K,D*2D
$GNGGA,120912.000,3018.4342,N,12004.6794,E,2,22,0.58,29.4,M,7.0,M,,*7D
$GNGLL,3018.4342,N,12004.6794,E,120912.000,A,D*4B
$GPGSA,A,3,20,13,05,21,11,18,195,30,29,194,24,,0.92,0.58,0.72*01
$BDGSA,A,3,29,08,20,04,01,02,27,23,13,07,30,,0.92,0.58,0.72*14
$GPGSV,4,1,13,20,76,009,43,13,72,036,43,15,67,270,36,195,64,127,43*4F
$GPGSV,4,2,13,05,52,039,44,29,40,254,32,21,32,066,41,11,30,133,39*77
$GPGSV,4,3,13,18,24,319,35,24,20,181,36,30,18,051,37,194,10,166,32*40
$GPGSV,4,4,13,23,08,286,*4E
$BDGSV,5,1,19,30,63,226,41,03,54,199,38,08,50,333,36,01,47,137,35*63
$BDGSV,5,2,19,13,46,316,35,20,46,277,22,02,38,236,30,10,37,221,*6E
$BDGSV,5,3,19,04,37,118,35,29,36,306,33,07,34,207,26,27,23,163,36*67
$BDGSV,5,4,19,16,17,172,,05,16,254,,23,14,095,30,06,12,180,*62
$BDGSV,5,5,19,19,05,252,,09,03,188,,25,03,051,*53
$GNRMC,120912.000,A,3018.4342,N,12004.6794,E,0.01,159.03,270326,,,D*71
$GNVTG,159.03,T,,M,0.01,N,0.02,K,D*2B
$GNGGA,120913.000,3018.4342,N,12004.6795,E,2,22,0.58,29.4,M,7.0,M,,*7D
$GNGLL,3018.4342,N,12004.6795,E,120913.000,A,D*4B
$GPGSA,A,3,20,13,05,21,11,18,195,30,29,194,24,,0.92,0.58,0.72*01
$BDGSA,A,3,29,08,20,04,01,02,27,23,13,07,30,,0.92,0.58,0.72*14
$GPGSV,4,1,13,20,76,009,43,13,72,036,43,15,67,270,36,195,64,127,43*4F
$GPGSV,4,2,13,05,52,039,44,29,40,254,32,21,32,066,41,11,30,133,40*79
$GPGSV,4,3,13,18,24,319,35,24,20,181,36,30,18,051,37,194,10,166,32*40
$GPGSV,4,4,13,23,08,286,*4E
$BDGSV,5,1,19,30,63,226,41,03,54,199,38,08,50,333,36,01,47,137,35*63
$BDGSV,5,2,19,13,46,316,35,20,46,277,23,02,38,236,30,10,37,221,*6F
$BDGSV,5,3,19,04,37,118,35,29,36,306,33,07,34,207,26,27,23,163,36*67
$BDGSV,5,4,19,16,17,172,,05,16,254,,23,14,095,30,06,12,180,*62
$BDGSV,5,5,19,19,05,252,,09,03,188,,25,03,051,*53
$GNRMC,120913.000,A,3018.4342,N,12004.6795,E,0.05,159.03,270326,,,D*75
$GNVTG,159.03,T,,M,0.05,N,0.09,K,D*24
$GNGGA,120914.000,3018.4342,N,12004.6795,E,2,22,0.58,29.4,M,7.0,M,,*7A
$GNGLL,3018.4342,N,12004.6795,E,120914.000,A,D*4C
$GPGSA,A,3,20,13,05,21,11,18,195,30,29,24,,,0.94,0.58,0.73*3A
$BDGSA,A,3,29,08,20,04,01,02,27,23,13,07,30,03,0.94,0.58,0.73*10
$GPGSV,4,1,13,20,76,009,43,13,72,036,43,15,67,270,36,195,64,127,43*4F
$GPGSV,4,2,13,05,52,039,44,29,40,254,32,21,32,066,41,11,30,133,40*79
$GPGSV,4,3,13,18,24,319,35,24,20,181,36,30,18,051,37,194,10,166,32*40
$GPGSV,4,4,13,23,08,286,*4E
$BDGSV,5,1,19,30,63,226,41,03,54,199,38,08,50,333,36,01,47,137,35*63
$BDGSV,5,2,19,13,46,316,35,20,46,277,23,02,38,236,30,10,37,221,*6F
$BDGSV,5,3,19,04,37,118,35,29,36,306,33,07,34,207,26,27,23,163,36*67
$BDGSV,5,4,19,16,17,172,,05,16,254,,23,14,095,30,06,12,180,*62
$BDGSV,5,5,19,19,05,252,,09,03,188,,25,03,051,*53
$GNRMC,120914.000,A,3018.4342,N,12004.6795,E,0.01,159.03,270326,,,D*76
$GNVTG,159.03,T,,M,0.01,N,0.02,K,D*2B
$GNGGA,120915.000,3018.4342,N,12004.6795,E,2,22,0.59,29.4,M,7.0,M,,*7A
$GNGLL,3018.4342,N,12004.6795,E,120915.000,A,D*4D
$GPGSA,A,3,20,13,15,05,21,11,18,195,30,29,194,24,0.92,0.59,0.71*07
$BDGSA,A,3,29,08,04,01,02,27,23,13,07,03,,,0.92,0.59,0.71*14
$GPGSV,4,1,13,20,76,009,43,13,72,036,43,15,67,270,36,195,64,127,44*48
$GPGSV,4,2,13,05,52,039,44,29,40,254,31,21,32,066,41,11,29,134,40*75
$GPGSV,4,3,13,18,24,319,35,24,20,181,36,30,18,051,37,194,10,166,32*40
$GPGSV,4,4,13,23,08,286,*4E
$BDGSV,5,1,19,30,63,226,41,03,54,199,38,08,50,333,36,01,47,137,35*63
$BDGSV,5,2,19,13,46,316,35,20,46,277,22,02,38,236,30,10,37,221,*6E
$BDGSV,5,3,19,04,37,118,35,29,36,306,33,07,34,207,26,27,23,163,36*67
$BDGSV,5,4,19,16,17,172,,05,16,254,,23,14,095,30,06,12,180,*62
$BDGSV,5,5,19,19,05,252,,09,03,188,,25,03,051,*53
$GNRMC,120915.000,A,3018.4342,N,12004.6795,E,0.01,159.03,270326,,,D*77
$GNVTG,159.03,T,,M,0.01,N,0.02,K,D*2B
$GNGGA,120916.000,3018.4342,N,12004.6795,E,2,22,0.58,29.4,M,7.0,M,,*78
$GNGLL,3018.4342,N,12004.6795,E,120916.000,A,D*4E
$GPGSA,A,3,20,13,05,21,11,18,195,30,29,194,24,,0.92,0.58,0.72*01
$BDGSA,A,3,29,08,20,04,01,02,27,23,13,07,03,,0.92,0.58,0.72*14
$GPGSV,4,1,13,20,76,009,43,13,72,036,44,15,67,270,37,195,64,127,44*4E
$GPGSV,4,2,13,05,52,039,43,29,40,254,32,21,32,066,41,11,29,134,40*71
$GPGSV,4,3,13,18,24,319,35,24,20,181,35,30,18,051,37,194,10,166,33*42
$GPGSV,4,4,13,23,08,286,*4E
$BDGSV,5,1,19,30,63,226,41,03,54,199,38,08,50,333,36,01,47,137,35*63
$BDGSV,5,2,19,13,46,316,35,20,46,277,32,02,38,236,30,10,37,221,*6F
$BDGSV,5,3,19,04,37,118,35,29,36,306,32,07,34,207,27,27,23,163,37*66
$BDGSV,5,4,19,16,17,172,,05,16,254,,23,14,095,30,06,12,180,*62
$BDGSV,5,5,19,19,05,252,,09,03,188,,25,03,051,*53
$GNRMC,120916.000,A,3018.4342,N,12004.6795,E,0.02,159.03,270326,,,D*77
$GNVTG,159.03,T,,M,0.02,N,0.03,K,D*29
$GNGGA,120917.000,3018.4342,N,12004.6795,E,2,22,0.59,29.4,M,7.0,M,,*78
$GNGLL,3018.4342,N,12004.6795,E,120917.000,A,D*4F
$GPGSA,A,3,20,13,15,05,21,11,18,195,30,29,24,,0.94,0.59,0.73*3F
$BDGSA,A,3,29,08,20,04,01,02,27,23,13,07,03,,0.94,0.59,0.73*12
$GPGSV,4,1,13,20,76,009,43,13,72,036,44,15,67,270,38,195,64,127,44*41
$GPGSV,4,2,13,05,52,039,42,29,40,254,33,21,32,066,41,11,29,134,40*71
$GPGSV,4,3,13,18,24,319,34,24,20,181,34,30,18,051,37,194,10,166,33*42
$GPGSV,4,4,13,23,08,286,*4E
$BDGSV,5,1,19,30,63,226,41,03,54,199,38,08,50,333,36,01,47,137,35*63
$BDGSV,5,2,19,13,46,316,35,20,46,277,32,02,38,236,30,10,37,221,*6F
$BDGSV,5,3,19,04,37,118,35,29,36,306,31,07,34,207,28,27,23,163,37*6A
$BDGSV,5,4,19,16,17,172,,05,16,254,,23,14,095,29,06,12,180,*6A
$BDGSV,5,5,19,19,05,252,,09,03,188,,25,03,051,*53
$GNRMC,120917.000,A,3018.4342,N,12004.6795,E,0.02,159.03,270326,,,D*76
$GNVTG,159.03,T,,M,0.02,N,0.03,K,D*29
$GNGGA,120918.000,3018.4342,N,12004.6795,E,2,22,0.58,29.4,M,7.0,M,,*76
$GNGLL,3018.4342,N,12004.6795,E,120918.000,A,D*40
$GPGSA,A,3,20,13,05,21,11,18,195,30,29,194,24,,0.92,0.58,0.72*01
$BDGSA,A,3,29,08,20,04,01,02,27,23,13,07,03,,0.92,0.58,0.72*14
$GPGSV,4,1,13,20,76,009,43,13,72,036,44,15,67,270,39,195,64,127,43*47
$GPGSV,4,2,13,05,52,039,42,29,40,254,33,21,32,066,41,11,29,134,39*7F
$GPGSV,4,3,13,18,24,319,34,24,20,181,33,30,18,051,37,194,10,166,33*45
$GPGSV,4,4,13,23,08,286,*4E
$BDGSV,5,1,19,30,63,226,40,03,54,199,38,08,50,333,36,01,47,137,35*62
$BDGSV,5,2,19,13,46,316,35,20,46,277,33,02,38,236,29,10,37,221,*66
$BDGSV,5,3,19,04,37,118,35,29,36,306,31,07,34,207,29,27,23,163,37*6B
$BDGSV,5,4,19,16,17,172,,05,16,254,,23,14,095,28,06,12,180,*6B
$BDGSV,5,5,19,19,05,252,,09,03,188,,25,03,051,*53
$GNRMC,120918.000,A,3018.4342,N,12004.6795,E,0.01,159.03,270326,,,D*7A
$GNVTG,159.03,T,,M,0.01,N,0.01,K,D*28
$GNGGA,120919.000,3018.4342,N,12004.6795,E,2,22,0.59,29.4,M,7.0,M,,*76
$GNGLL,3018.4342,N,12004.6795,E,120919.000,A,D*41
$GPGSA,A,3,20,13,15,05,21,11,18,195,30,29,194,24,0.94,0.59,0.73*03
$BDGSA,A,3,29,08,20,04,01,02,27,13,07,03,,,0.94,0.59,0.73*13
$GPGSV,4,1,13,20,76,009,43,13,72,036,44,15,67,272,39,195,64,127,43*45
$GPGSV,4,2,13,05,52,039,42,29,40,254,33,21,32,066,41,11,29,134,39*7F
$GPGSV,4,3,13,18,24,319,34,24,20,181,33,30,18,051,37,194,10,166,33*45
$GPGSV,4,4,13,23,08,286,*4E
$BDGSV,5,1,19,30,63,226,39,03,54,199,38,08,50,333,36,01,47,137,35*6C
$BDGSV,5,2,19,13,46,316,34,20,46,277,34,02,38,236,28,10,37,221,*61
$BDGSV,5,3,19,04,37,118,34,29,36,306,30,07,34,207,29,27,23,163,37*6B
$BDGSV,5,4,19,16,17,172,,05,16,254,,23,14,095,27,06,12,180,*64
$BDGSV,5,5,19,19,05,252,,09,03,188,,25,03,051,*53
$GNRMC,120919.000,A,3018.4342,N,12004.6795,E,0.00,159.03,270326,,,D*7A
$GNVTG,159.03,T,,M,0.00,N,0.01,K,D*29
$GNGGA,120920.000,3018.4342,N,12004.6795,E,2,22,0.59,29.4,M,7.0,M,,*7C
$GNGLL,3018.4342,N,12004.6795,E,120920.000,A,D*4B
$GPGSA,A,3,20,13,15,05,21,11,18,195,30,29,194,24,0.94,0.59,0.73*03
$BDGSA,A,3,29,08,20,04,01,02,27,13,07,03,,,0.94,0.59,0.73*13
$GPGSV,4,1,13,20,76,009,43,13,72,036,44,15,67,272,40,195,64,127,43*4B
$GPGSV,4,2,13,05,52,039,42,29,40,254,34,21,32,066,41,11,29,134,39*78
$GPGSV,4,3,13,18,24,319,34,24,20,181,32,30,18,051,37,194,10,166,33*44
$GPGSV,4,4,13,23,08,286,*4E
$BDGSV,5,1,19,30,63,226,39,03,54,199,37,08,50,333,36,01,47,137,35*63
$BDGSV,5,2,19,13,46,316,34,20,46,277,34,02,38,236,28,10,37,221,*61
$BDGSV,5,3,19,04,37,118,34,29,36,306,30,07,34,207,29,27,23,163,38*64
$BDGSV,5,4,19,16,17,172,,05,16,254,,23,14,095,26,06,12,180,*65
$BDGSV,5,5,19,19,05,252,,09,03,188,,25,03,051,*53
$GNRMC,120920.000,A,3018.4342,N,12004.6795,E,0.03,159.03,270326,,,D*73
$GNVTG,159.03,T,,M,0.03,N,0.05,K,D*2E
$GNGGA,120921.000,3018.4342,N,12004.6795,E,2,22,0.59,29.4,M,7.0,M,,*7D
$GNGLL,3018.4342,N,12004.6795,E,120921.000,A,D*4A
$GPGSA,A,3,20,13,15,05,21,11,18,195,30,29,194,24,0.94,0.59,0.73*03
$BDGSA,A,3,29,08,20,04,01,02,27,13,07,03,,,0.94,0.59,0.73*13
$GPGSV,4,1,13,20,76,009,43,13,72,036,44,15,67,272,40,195,64,127,43*4B
$GPGSV,4,2,13,05,52,039,42,29,40,254,34,21,32,066,41,11,29,134,39*78
$GPGSV,4,3,13,18,24,319,33,24,20,181,31,30,18,051,37,194,10,166,33*40
$GPGSV,4,4,13,23,08,286,*4E
$BDGSV,5,1,19,30,63,226,39,03,54,199,37,08,50,333,36,01,47,137,35*63
$BDGSV,5,2,19,13,46,316,34,20,46,277,34,02,38,236,28,10,37,221,*61
$BDGSV,5,3,19,04,37,118,34,29,36,306,30,07,34,207,30,27,23,163,39*6D
$BDGSV,5,4,19,16,17,172,,05,16,254,,23,14,095,25,06,12,180,*66
$BDGSV,5,5,19,19,05,252,,09,03,188,,25,03,051,*53
$GNRMC,120921.000,A,3018.4342,N,12004.6795,E,0.01,159.03,270326,,,D*70
$GNVTG,159.03,T,,M,0.01,N,0.01,K,D*28
$GNGGA,120922.000,3018.4341,N,12004.6795,E,2,22,0.59,29.4,M,7.0,M,,*7D
$GNGLL,3018.4341,N,12004.6795,E,120922.000,A,D*4A
$GPGSA,A,3,20,13,15,05,21,11,18,195,30,29,194,24,0.94,0.59,0.73*03
$BDGSA,A,3,29,08,20,04,01,02,27,13,07,03,,,0.94,0.59,0.73*13
$GPGSV,4,1,13,20,76,009,43,13,72,036,44,15,67,272,40,195,64,127,43*4B
$GPGSV,4,2,13,05,52,039,42,29,40,254,34,21,32,066,41,11,29,134,39*78
$GPGSV,4,3,13,18,25,319,32,24,20,181,30,30,18,051,37,194,10,166,33*41
$GPGSV,4,4,13,23,08,286,*4E
$BDGSV,5,1,19,30,63,226,39,03,54,199,37,08,50,333,36,01,47,137,35*63
$BDGSV,5,2,19,13,46,316,35,20,46,277,34,02,38,236,28,10,37,221,*60
$BDGSV,5,3,19,04,37,118,34,29,36,306,30,07,34,207,30,27,23,163,39*6D
$BDGSV,5,4,19,16,17,172,,05,16,254,,23,14,095,25,06,12,180,*66
$BDGSV,5,5,19,19,05,252,,09,03,188,,25,03,051,*53
$GNRMC,120922.000,A,3018.4341,N,12004.6795,E,0.01,159.03,270326,,,D*70
$GNVTG,159.03,T,,M,0.01,N,0.02,K,D*2B
$GNGGA,120923.000,3018.4341,N,12004.6795,E,2,22,0.59,29.4,M,7.0,M,,*7C
$GNGLL,3018.4341,N,12004.6795,E,120923.000,A,D*4B
$GPGSA,A,3,20,13,15,05,21,11,18,195,30,29,194,24,0.94,0.59,0.73*03
$BDGSA,A,3,29,08,20,04,01,02,27,13,07,03,,,0.94,0.59,0.73*13
$GPGSV,4,1,13,20,76,009,43,13,72,036,44,15,67,272,40,195,64,127,43*4B
$GPGSV,4,2,13,05,52,039,42,29,40,254,34,21,32,066,41,11,29,134,39*78
$GPGSV,4,3,13,18,25,319,32,24,20,181,30,30,18,051,37,194,10,166,33*41
$GPGSV,4,4,13,23,08,286,*4E
$BDGSV,5,1,19,30,63,226,39,03,54,199,37,08,50,333,36,01,47,137,35*63
$BDGSV,5,2,19,13,46,316,35,20,46,277,34,02,38,236,28,10,37,221,*60
$BDGSV,5,3,19,04,37,118,34,29,36,306,30,07,34,207,30,27,23,163,39*6D
$BDGSV,5,4,19,16,17,172,,05,16,254,,23,14,095,24,06,12,180,*67
$BDGSV,5,5,19,19,05,252,,09,03,188,,25,03,051,*53
$GNRMC,120923.000,A,3018.4341,N,12004.6795,E,0.04,159.03,270326,,,D*74
$GNVTG,159.03,T,,M,0.04,N,0.07,K,D*2B
$GNGGA,120924.000,3018.4341,N,12004.6795,E,2,22,0.59,29.4,M,7.0,M,,*7B
$GNGLL,3018.4341,N,12004.6795,E,120924.000,A,D*4C
$GPGSA,A,3,20,13,15,05,21,11,18,195,30,29,194,24,0.94,0.59,0.73*03
$BDGSA,A,3,29,08,20,04,01,02,27,13,07,03,,,0.94,0.59,0.73*13
$GPGSV,4,1,13,20,75,010,43,13,72,036,44,15,67,272,40,195,64,127,43*40
$GPGSV,4,2,13,05,52,039,42,29,40,254,34,21,32,066,40,11,29,134,39*79
$GPGSV,4,3,13,18,25,319,32,24,20,181,30,30,18,051,37,194,10,166,33*41
$GPGSV,4,4,13,23,08,286,*4E
$BDGSV,5,1,19,30,63,226,39,03,54,199,37,08,50,333,36,01,47,137,35*63
$BDGSV,5,2,19,13,46,316,35,20,46,277,34,02,38,236,28,10,37,221,*60
$BDGSV,5,3,19,04,37,118,34,29,36,306,30,07,34,207,30,27,23,163,39*6D
$BDGSV,5,4,19,16,17,172,,05,16,254,,23,14,095,24,06,12,180,*67
$BDGSV,5,5,19,19,05,252,,09,03,188,,25,03,051,*53
$GNRMC,120924.000,A,3018.4341,N,12004.6795,E,0.01,159.03,270326,,,D*76
$GNVTG,159.03,T,,M,0.01,N,0.02,K,D*2B
$GNGGA,120925.000,3018.4341,N,12004.6795,E,2,22,0.59,29.4,M,7.0,M,,*7A
$GNGLL,3018.4341,N,12004.6795,E,120925.000,A,D*4D
$GPGSA,A,3,20,13,15,05,21,11,18,195,30,29,194,24,0.94,0.59,0.73*03
$BDGSA,A,3,29,08,20,04,01,02,27,13,07,03,,,0.94,0.59,0.73*13
$GPGSV,4,1,13,20,75,010,43,13,72,036,44,15,67,272,40,195,64,127,43*40
$GPGSV,4,2,13,05,52,039,42,29,40,254,34,21,32,067,40,11,29,134,39*78
$GPGSV,4,3,13,18,25,319,32,24,20,181,30,30,18,051,37,194,10,166,33*41
$GPGSV,4,4,13,23,08,286,*4E
$BDGSV,5,1,19,30,63,226,39,03,54,199,37,08,50,333,36,01,47,137,35*63
$BDGSV,5,2,19,13,46,316,35,20,46,277,35,02,38,236,28,10,37,221,*61
$BDGSV,5,3,19,04,37,118,34,29,36,306,30,07,34,207,31,27,23,163,39*6C
$BDGSV,5,4,19,16,17,172,,05,16,254,,23,14,095,24,06,12,180,*67
$BDGSV,5,5,19,19,05,252,,09,03,188,,25,03,051,*53
$GNRMC,120925.000,A,3018.4341,N,12004.6795,E,0.01,159.03,270326,,,D*77
$GNVTG,159.03,T,,M,0.01,N,0.03,K,D*2A
$GNGGA,120926.000,3018.4341,N,12004.6795,E,2,22,0.59,29.4,M,7.0,M,,*79
$GNGLL,3018.4341,N,12004.6795,E,120926.000,A,D*4E
$GPGSA,A,3,20,13,15,05,21,11,18,195,30,29,194,24,0.94,0.59,0.73*03
$BDGSA,A,3,29,08,20,04,01,02,27,13,07,03,,,0.94,0.59,0.73*13
$GPGSV,4,1,13,20,75,010,43,13,72,036,44,15,67,272,40,195,64,127,43*40
$GPGSV,4,2,13,05,52,039,42,29,40,254,34,21,32,067,39,11,29,134,39*76
$GPGSV,4,3,13,18,25,319,32,24,20,181,30,30,18,051,38,194,10,166,33*4E
$GPGSV,4,4,13,23,08,286,*4E
$BDGSV,5,1,19,30,63,226,39,03,54,199,37,08,50,333,36,01,47,137,36*60
$BDGSV,5,2,19,13,46,316,34,20,46,277,35,02,38,236,28,10,37,221,*60
$BDGSV,5,3,19,04,37,118,35,29,36,306,30,07,34,207,31,27,23,163,39*6D
$BDGSV,5,4,19,16,17,172,,05,16,254,,23,14,095,24,06,12,180,*67
$BDGSV,5,5,19,19,05,252,,09,03,188,,25,03,051,*53
$GNRMC,120926.000,A,3018.4341,N,12004.6795,E,0.01,159.03,270326,,,D*74
$GNVTG,159.03,T,,M,0.01,N,0.01,K,D*28
$GNGGA,120927.000,3018.4341,N,12004.6796,E,2,22,0.59,29.4,M,7.0,M,,*7B
$GNGLL,3018.4341,N,12004.6796,E,120927.000,A,D*4C
$GPGSA,A,3,20,13,15,05,21,11,18,195,30,29,24,,0.94,0.59,0.73*3F
$BDGSA,A,3,29,08,20,04,01,02,27,23,13,07,03,,0.94,0.59,0.73*12
$GPGSV,4,1,13,20,75,010,43,13,72,036,45,15,67,272,40,195,64,127,43*41
$GPGSV,4,2,13,05,52,039,42,29,40,254,34,21,32,067,39,11,29,134,38*77
$GPGSV,4,3,13,18,25,319,32,24,20,181,31,30,18,051,38,194,10,166,32*4E
$GPGSV,4,4,13,23,08,286,*4E
$BDGSV,5,1,19,30,63,226,39,03,54,199,37,08,50,333,36,01,47,137,35*63
$BDGSV,5,2,19,13,46,316,34,20,46,277,35,02,38,236,28,10,37,221,*60
$BDGSV,5,3,19,04,37,118,35,29,36,306,31,07,34,207,31,27,23,163,39*6C
$BDGSV,5,4,19,16,17,172,,05,16,254,,23,14,095,26,06,12,180,*65
$BDGSV,5,5,19,19,05,252,,09,03,188,,25,03,051,*53
$GNRMC,120927.000,A,3018.4341,N,12004.6796,E,0.03,159.03,270326,,,D*74
$GNVTG,159.03,T,,M,0.03,N,0.06,K,D*2D
$GNGGA,120928.000,3018.4341,N,12004.6796,E,2,22,0.59,29.4,M,7.0,M,,*74
$GNGLL,3018.4341,N,12004.6796,E,120928.000,A,D*43
$GPGSA,A,3,20,13,15,05,21,11,18,195,30,29,24,,0.94,0.59,0.73*3F
$BDGSA,A,3,29,08,20,04,01,02,27,23,13,07,03,,0.94,0.59,0.73*12
$GPGSV,4,1,13,20,75,010,43,13,72,036,45,15,67,272,39,195,64,127,44*48
$GPGSV,4,2,13,05,52,039,42,29,40,254,33,21,32,067,39,11,29,134,38*70
$GPGSV,4,3,13,18,25,319,33,24,21,181,31,30,18,051,38,194,10,166,31*4D
$GPGSV,4,4,13,23,08,286,*4E
$BDGSV,5,1,19,30,63,226,39,03,54,199,37,08,50,333,36,01,47,137,34*62
$BDGSV,5,2,19,13,46,316,34,20,46,277,33,02,38,236,29,10,37,221,*67
$BDGSV,5,3,19,04,37,118,35,29,36,306,31,07,34,207,30,27,23,163,38*6C
$BDGSV,5,4,19,16,17,172,,05,16,254,,23,14,095,26,06,12,180,*65
$BDGSV,5,5,19,19,05,252,,09,03,188,,25,03,051,*53
$GNRMC,120928.000,A,3018.4341,N,12004.6796,E,0.00,159.03,270326,,,D*78
$GNVTG,159.03,T,,M,0.00,N,0.00,K,D*28
$GNGGA,120929.000,3018.4341,N,12004.6796,E,2,22,0.58,29.4,M,7.0,M,,*74
$GNGLL,3018.4341,N,12004.6796,E,120929.000,A,D*42
$GPGSA,A,3,20,13,05,21,11,18,195,30,29,194,24,,0.92,0.58,0.72*01
$BDGSA,A,3,29,08,20,04,01,02,27,23,13,07,30,,0.92,0.58,0.72*14
$GPGSV,4,1,13,20,75,010,43,13,72,036,45,15,67,272,29,195,64,127,44*49
$GPGSV,4,2,13,05,52,039,43,29,40,254,25,21,32,067,39,11,29,134,38*76
$GPGSV,4,3,13,18,25,319,34,24,21,181,33,30,18,051,39,194,10,166,32*4A
$GPGSV,4,4,13,23,08,286,*4E
$BDGSV,5,1,19,30,63,226,39,03,54,199,37,08,50,333,37,01,47,137,34*63
$BDGSV,5,2,19,13,46,316,35,20,46,277,33,02,38,236,29,10,37,221,*66
$BDGSV,5,3,19,04,37,118,35,29,36,306,32,07,34,207,30,27,23,163,38*6F
$BDGSV,5,4,19,16,17,172,,05,16,254,,23,14,095,26,06,12,180,*65
$BDGSV,5,5,19,19,05,252,,09,03,188,,25,03,051,*53
$GNRMC,120929.000,A,3018.4341,N,12004.6796,E,0.01,159.03,270326,,,D*78
$GNVTG,159.03,T,,M,0.01,N,0.02,K,D*2B
$GNGGA,120930.000,3018.4341,N,12004.6796,E,2,22,0.59,29.3,M,7.0,M,,*7A
$GNGLL,3018.4341,N,12004.6796,E,120930.000,A,D*4A
$GPGSA,A,3,20,13,05,21,11,18,195,30,29,194,24,,0.94,0.59,0.73*07
$BDGSA,A,3,29,08,20,04,01,02,27,13,07,30,03,,0.94,0.59,0.73*10
$GPGSV,4,1,13,20,75,010,43,13,72,036,45,15,67,272,29,195,64,127,44*49
$GPGSV,4,2,13,05,52,039,43,29,40,254,26,21,32,067,39,11,29,134,38*75
$GPGSV,4,3,13,18,25,319,35,24,21,181,34,30,18,051,39,194,10,166,32*4C
$GPGSV,4,4,13,23,08,286,*4E
$BDGSV,5,1,19,30,63,226,39,03,54,199,37,08,50,333,38,01,47,137,33*6B
$BDGSV,5,2,19,13,46,316,35,20,46,277,33,02,38,236,29,10,37,221,*66
$BDGSV,5,3,19,04,37,118,35,29,36,306,33,07,34,207,31,27,23,163,38*6F
$BDGSV,5,4,19,16,17,172,,05,16,254,,23,14,095,25,06,12,180,*66
$BDGSV,5,5,19,19,05,252,,09,03,188,,25,03,051,*53
$GNRMC,120930.000,A,3018.4341,N,12004.6796,E,0.01,159.03,270326,,,D*70
$GNVTG,159.03,T,,M,0.01,N,0.03,K,D*2A
$GNGGA,120931.000,3018.4341,N,12004.6796,E,2,22,0.58,29.3,M,7.0,M,,*7A
$GNGLL,3018.4341,N,12004.6796,E,120931.000,A,D*4B
$GPGSA,A,3,20,13,05,21,11,18,195,30,29,194,24,,0.92,0.58,0.72*01
$BDGSA,A,3,29,08,20,04,01,02,27,23,13,07,30,,0.92,0.58,0.72*14
$GPGSV,4,1,13,20,75,010,43,13,72,036,45,15,67,272,30,195,64,127,44*41
$GPGSV,4,2,13,05,52,039,43,29,40,254,26,21,32,067,40,11,29,134,38*7B
$GPGSV,4,3,13,18,25,319,36,24,21,181,35,30,18,051,40,194,10,166,32*40
$GPGSV,4,4,13,23,08,286,*4E
$BDGSV,5,1,19,30,63,226,40,03,54,199,37,08,50,333,38,01,47,137,33*65
$BDGSV,5,2,19,13,46,316,36,20,46,277,33,02,38,236,29,10,37,221,*65
$BDGSV,5,3,19,04,37,118,35,29,36,306,34,07,34,207,31,27,23,163,38*68
$BDGSV,5,4,19,16,17,172,,05,16,254,,23,14,095,25,06,12,180,*66
$BDGSV,5,5,19,19,05,252,,09,03,188,,25,03,051,*53
$GNRMC,120931.000,A,3018.4341,N,12004.6796,E,0.02,159.03,270326,,,D*72
$GNVTG,159.03,T,,M,0.02,N,0.04,K,D*2E
$GNGGA,120932.000,3018.4341,N,12004.6796,E,2,22,0.58,29.3,M,7.0,M,,*79
$GNGLL,3018.4341,N,12004.6796,E,120932.000,A,D*48
$GPGSA,A,3,20,13,05,21,11,18,195,30,29,194,24,,0.92,0.58,0.72*01
$BDGSA,A,3,29,08,20,04,02,27,23,13,07,30,03,,0.92,0.58,0.72*16
$GPGSV,4,1,13,20,75,010,43,13,72,036,45,15,67,272,37,195,64,127,44*46
$GPGSV,4,2,13,05,52,039,43,29,40,254,26,21,32,067,41,11,29,134,38*7A
$GPGSV,4,3,13,18,25,319,36,24,21,181,36,30,18,051,40,194,10,166,32*43
$GPGSV,4,4,13,23,08,286,*4E
$BDGSV,5,1,19,30,63,226,40,03,54,199,38,08,50,333,38,01,47,137,33*6A
$BDGSV,5,2,19,13,46,316,36,20,46,277,33,02,38,236,29,10,37,221,*65
$BDGSV,5,3,19,04,37,118,35,29,36,306,34,07,34,207,31,27,23,163,38*68
$BDGSV,5,4,19,16,17,172,,05,16,254,,23,14,095,26,06,12,180,*65
$BDGSV,5,5,19,19,05,252,,09,03,188,,25,03,051,*53
$GNRMC,120932.000,A,3018.4341,N,12004.6796,E,0.02,159.03,270326,,,D*71
$GNVTG,159.03,T,,M,0.02,N,0.04,K,D*2E
$GNGGA,120933.000,3018.4341,N,12004.6796,E,2,22,0.58,29.3,M,7.0,M,,*78
$GNGLL,3018.4341,N,12004.6796,E,120933.000,A,D*49
$GPGSA,A,3,20,13,05,21,11,18,195,30,29,194,24,,0.92,0.58,0.72*01
$BDGSA,A,3,29,08,20,04,02,27,23,13,07,30,03,,0.92,0.58,0.72*16
$GPGSV,4,1,13,20,75,010,42,13,72,036,44,15,67,272,36,195,64,127,44*47
$GPGSV,4,2,13,05,52,039,43,29,39,253,27,21,32,067,40,11,29,134,38*73
$GPGSV,4,3,13,18,25,319,36,24,21,181,35,30,18,051,39,194,10,166,32*4E
$GPGSV,4,4,13,23,08,286,*4E
$BDGSV,5,1,19,30,63,226,41,03,54,199,37,08,50,333,37,01,47,137,32*6A
$BDGSV,5,2,19,13,46,316,36,20,46,277,35,02,38,236,29,10,37,221,*63
$BDGSV,5,3,19,04,37,118,35,29,36,306,35,07,34,207,30,27,23,163,38*68
$BDGSV,5,4,19,16,17,172,,05,16,254,,23,14,095,27,06,12,180,*64
$BDGSV,5,5,19,19,05,252,,09,03,188,,25,03,051,*53
$GNRMC,120933.000,A,3018.4341,N,12004.6796,E,0.02,159.03,270326,,,D*70
$GNVTG,159.03,T,,M,0.02,N,0.04,K,D*2E
$GNGGA,120934.000,3018.4341,N,12004.6796,E,2,22,0.59,29.3,M,7.0,M,,*7E
$GNGLL,3018.4341,N,12004.6796,E,120934.000,A,D*4E
$GPGSA,A,3,20,13,05,21,11,18,195,30,29,24,,,0.94,0.59,0.74*3C
$BDGSA,A,3,29,08,20,04,01,02,27,23,13,07,30,03,0.94,0.59,0.74*16
$GPGSV,4,1,13,20,75,010,42,13,72,036,44,15,67,272,36,195,64,127,43*40
$GPGSV,4,2,13,05,52,039,43,29,39,253,34,21,32,067,40,11,29,134,38*71
$GPGSV,4,3,13,18,25,319,38,24,21,181,34,30,17,051,38,194,10,166,31*4C
$GPGSV,4,4,13,23,08,286,*4E
$BDGSV,5,1,19,30,63,226,41,03,54,199,37,08,50,333,37,01,47,137,32*6A
$BDGSV,5,2,19,13,46,316,38,20,46,277,35,02,38,236,29,10,37,221,*6D
$BDGSV,5,3,19,04,37,118,35,29,36,306,43,07,34,207,31,27,23,163,37*67
$BDGSV,5,4,19,16,17,172,,05,16,254,,23,14,095,28,06,12,180,*6B
$BDGSV,5,5,19,19,05,252,,09,03,188,,25,03,051,*53
$GNRMC,120934.000,A,3018.4341,N,12004.6796,E,0.01,159.03,270326,,,D*74
$GNVTG,159.03,T,,M,0.01,N,0.02,K,D*2B
$GNGGA,120935.000,3018.4341,N,12004.6796,E,2,22,0.59,29.3,M,7.0,M,,*7F
$GNGLL,3018.4341,N,12004.6796,E,120935.000,A,D*4F
$GPGSA,A,3,20,13,15,05,21,11,18,195,30,29,24,,0.94,0.59,0.73*3F
$BDGSA,A,3,29,08,20,04,01,02,27,23,13,07,03,,0.94,0.59,0.73*12
$GPGSV,4,1,13,20,75,010,42,13,72,036,44,15,67,272,38,195,64,127,43*4E
$GPGSV,4,2,13,05,52,039,43,29,39,253,34,21,32,067,40,11,29,134,38*71
$GPGSV,4,3,13,18,25,319,38,24,21,181,33,30,17,051,38,194,10,166,31*4B
$GPGSV,4,4,13,23,08,286,*4E
$BDGSV,5,1,19,30,63,226,42,03,54,199,38,08,50,333,38,01,47,137,33*68
$BDGSV,5,2,19,13,46,316,39,20,46,277,36,02,38,236,29,10,37,221,*6F
$BDGSV,5,3,19,04,37,118,35,29,36,306,43,07,34,207,32,27,23,163,36*65
$BDGSV,5,4,19,16,17,172,,05,16,254,,23,14,095,28,06,12,180,*6B
$BDGSV,5,5,19,19,05,252,,09,03,188,,25,03,051,*53
$GNRMC,120935.000,A,3018.4341,N,12004.6796,E,0.01,159.03,270326,,,D*75
$GNVTG,159.03,T,,M,0.01,N,0.01,K,D*28
$GNGGA,120936.000,3018.4341,N,12004.6796,E,2,22,0.59,29.3,M,7.0,M,,*7C
$GNGLL,3018.4341,N,12004.6796,E,120936.000,A,D*4C
$GPGSA,A,3,20,13,15,05,21,11,18,195,30,29,24,,0.94,0.59,0.73*3F
$BDGSA,A,3,29,08,20,04,01,02,27,23,13,07,03,,0.94,0.59,0.73*12
$GPGSV,4,1,13,20,75,010,42,13,72,036,44,15,67,272,40,195,64,127,43*41
$GPGSV,4,2,13,05,52,039,43,29,39,253,35,21,32,067,40,11,29,134,38*70
$GPGSV,4,3,13,18,25,319,39,24,21,181,33,30,17,051,38,194,10,166,30*4B
$GPGSV,4,4,13,23,08,286,*4E
$BDGSV,5,1,19,30,63,226,42,03,54,199,38,08,50,333,38,01,47,137,33*68
$BDGSV,5,2,19,13,46,316,39,20,46,277,38,02,38,236,28,10,37,221,*60
$BDGSV,5,3,19,04,37,118,35,29,36,306,43,07,34,207,33,27,23,163,36*64
$BDGSV,5,4,19,16,17,172,,05,16,254,,23,14,095,29,06,12,180,*6A
$BDGSV,5,5,19,19,05,252,,09,03,188,,25,03,051,*53
$GNRMC,120936.000,A,3018.4341,N,12004.6796,E,0.02,159.03,270326,,,D*75
$GNVTG,159.03,T,,M,0.02,N,0.04,K,D*2E
$GNGGA,120937.000,3018.4341,N,12004.6796,E,2,22,0.59,29.3,M,7.0,M,,*7D
$GNGLL,3018.4341,N,12004.6796,E,120937.000,A,D*4D
$GPGSA,A,3,20,13,15,05,21,11,18,195,30,29,24,,0.94,0.59,0.73*3F
$BDGSA,A,3,29,08,20,04,01,02,27,23,13,07,03,,0.94,0.59,0.73*12
$GPGSV,4,1,13,20,75,010,42,13,72,036,44,15,67,272,41,195,64,127,43*40
$GPGSV,4,2,13,05,52,039,43,29,39,253,36,21,32,067,40,11,29,134,38*73
$GPGSV,4,3,13,18,25,319,39,24,21,181,33,30,17,051,38,194,10,166,30*4B
$GPGSV,4,4,13,23,08,286,*4E
$BDGSV,5,1,19,30,63,226,42,03,54,199,38,08,50,333,38,01,47,137,33*68
$BDGSV,5,2,19,13,46,316,40,20,46,277,39,02,38,236,28,10,37,221,*6F
$BDGSV,5,3,19,04,37,118,35,29,36,306,44,07,34,207,34,27,23,163,36*64
$BDGSV,5,4,19,16,17,172,,05,16,254,,23,14,095,30,06,12,180,*62
$BDGSV,5,5,19,19,05,252,,09,03,188,,25,03,051,*53
$GNRMC,120937.000,A,3018.4341,N,12004.6796,E,0.02,159.03,270326,,,D*74
$GNVTG,159.03,T,,M,0.02,N,0.04,K,D*2E
$GNGGA,120938.000,3018.4341,N,12004.6796,E,2,22,0.59,29.3,M,7.0,M,,*72
$GNGLL,3018.4341,N,12004.6796,E,120938.000,A,D*42
$GPGSA,A,3,20,13,15,05,21,11,18,195,30,29,24,,0.94,0.59,0.73*3F
$BDGSA,A,3,29,08,20,04,01,02,27,23,13,07,03,,0.94,0.59,0.73*12
$GPGSV,4,1,13,20,75,010,42,13,72,036,43,15,67,272,42,195,64,127,43*44
$GPGSV,4,2,13,05,52,039,43,29,39,253,37,21,32,067,40,11,29,134,38*72
$GPGSV,4,3,13,18,25,319,39,24,21,181,33,30,17,051,38,194,10,166,30*4B
$GPGSV,4,4,13,23,08,286,*4E
$BDGSV,5,1,19,30,63,226,42,03,54,199,39,08,50,333,38,01,47,137,34*6E
$BDGSV,5,2,19,13,46,316,40,20,46,277,40,02,38,236,27,10,37,221,*6E
$BDGSV,5,3,19,04,37,118,35,29,36,306,44,07,34,207,34,27,23,163,36*64
$BDGSV,5,4,19,16,17,172,,05,16,254,,23,14,095,28,06,12,180,*6B
$BDGSV,5,5,19,19,05,252,,09,03,188,,25,03,051,*53
$GNRMC,120938.000,A,3018.4341,N,12004.6796,E,0.01,159.03,270326,,,D*78
$GNVTG,159.03,T,,M,0.01,N,0.02,K,D*2B
$GNGGA,120939.000,3018.4341,N,12004.6796,E,2,22,0.59,29.3,M,7.0,M,,*73
$GNGLL,3018.4341,N,12004.6796,E,120939.000,A,D*43
$GPGSA,A,3,20,13,15,05,21,11,18,195,30,29,24,,0.94,0.59,0.73*3F
$BDGSA,A,3,29,08,20,04,01,02,27,23,13,07,03,,0.94,0.59,0.73*12
$GPGSV,4,1,13,20,75,010,42,13,72,036,43,15,67,272,42,195,64,128,43*4B
$GPGSV,4,2,13,05,52,039,43,29,39,253,38,21,32,067,40,11,29,134,38*7D
$GPGSV,4,3,13,18,25,319,39,24,21,181,32,30,17,051,38,194,10,166,30*4A
$GPGSV,4,4,13,23,08,286,*4E
$BDGSV,5,1,19,30,63,226,42,03,54,199,39,08,50,333,38,01,47,137,34*6E
$BDGSV,5,2,19,13,46,316,40,20,46,277,41,02,38,236,27,10,37,221,*6F
$BDGSV,5,3,19,04,37,118,35,29,36,306,44,07,34,207,34,27,23,163,36*64
$BDGSV,5,4,19,16,17,172,,05,16,254,,23,14,095,28,06,12,180,*6B
$BDGSV,5,5,19,19,05,252,,09,03,188,,25,03,051,*53
$GNRMC,120939.000,A,3018.4341,N,12004.6796,E,0.02,159.03,270326,,,D*7A
$GNVTG,159.03,T,,M,0.02,N,0.04,K,D*2E
$GNGGA,120940.000,3018.4341,N,12004.6796,E,2,22,0.59,29.3,M,7.0,M,,*7D
$GNGLL,3018.4341,N,12004.6796,E,120940.000,A,D*4D
$GPGSA,A,3,20,13,15,05,21,11,18,195,30,29,24,,0.94,0.59,0.73*3F
$BDGSA,A,3,29,08,20,04,01,02,27,23,13,07,03,,0.94,0.59,0.73*12
$GPGSV,4,1,13,20,75,010,42,13,72,036,43,15,67,272,42,195,64,128,43*4B
$GPGSV,4,2,13,05,52,039,43,29,39,253,38,21,32,067,40,11,29,134,38*7D
$GPGSV,4,3,13,18,25,319,39,24,21,181,33,30,17,051,38,194,10,166,30*4B
$GPGSV,4,4,13,23,08,286,*4E
$BDGSV,5,1,19,30,63,226,42,03,54,199,39,08,50,333,38,01,47,137,34*6E
$BDGSV,5,2,19,13,46,316,40,20,46,277,42,02,38,236,26,10,37,221,*6D
$BDGSV,5,3,19,04,37,118,35,29,36,306,44,07,34,207,34,27,23,163,36*64
$BDGSV,5,4,19,16,17,172,,05,16,254,,23,14,095,28,06,12,180,*6B
$BDGSV,5,5,19,19,05,252,,09,03,188,,25,03,051,*53
$GNRMC,120940.000,A,3018.4341,N,12004.6796,E,0.01,159.03,270326,,,D*77
$GNVTG,159.03,T,,M,0.01,N,0.01,K,D*28
$GNGGA,120941.000,3018.4341,N,12004.6796,E,2,22,0.59,29.3,M,7.0,M,,*7C
$GNGLL,3018.4341,N,12004.6796,E,120941.000,A,D*4C
$GPGSA,A,3,20,13,15,05,21,11,18,195,30,29,24,,0.94,0.59,0.73*3F
$BDGSA,A,3,29,08,20,04,01,02,27,23,13,07,03,,0.94,0.59,0.73*12
$GPGSV,4,1,13,20,75,010,42,13,72,036,43,15,67,272,42,195,64,128,43*4B
$GPGSV,4,2,13,05,52,039,43,29,39,253,38,21,32,067,40,11,29,134,38*7D
$GPGSV,4,3,13,18,25,319,39,24,21,181,33,30,17,051,37,194,10,166,30*44
$GPGSV,4,4,13,23,08,286,*4E
$BDGSV,5,1,19,30,63,226,42,03,54,199,39,08,50,333,38,01,47,137,34*6E
$BDGSV,5,2,19,13,46,316,40,20,46,277,42,02,38,236,25,10,37,221,*6E
$BDGSV,5,3,19,04,37,118,35,29,36,306,44,07,34,207,34,27,23,163,36*64
$BDGSV,5,4,19,16,17,172,,05,16,254,,23,14,095,29,06,12,180,*6A
$BDGSV,5,5,19,19,05,252,,09,03,188,,25,03,051,*53
$GNRMC,120941.000,A,3018.4341,N,12004.6796,E,0.01,159.03,270326,,,D*76
$GNVTG,159.03,T,,M,0.01,N,0.02,K,D*2B
$GNGGA,120942.000,3018.4341,N,12004.6796,E,2,22,0.59,29.3,M,7.0,M,,*7F
$GNGLL,3018.4341,N,12004.6796,E,120942.000,A,D*4F
$GPGSA,A,3,20,13,15,05,21,11,18,30,29,194,24,,0.93,0.59,0.72*38
$BDGSA,A,3,29,08,20,04,01,27,23,13,07,30,03,,0.93,0.59,0.72*15
$GPGSV,4,1,13,20,75,010,42,13,72,036,43,15,67,272,42,195,64,128,43*4B
$GPGSV,4,2,13,05,52,039,43,29,39,253,38,21,32,067,40,11,29,134,38*7D
$GPGSV,4,3,13,18,25,319,39,24,21,181,33,30,17,051,37,194,10,166,30*44
$GPGSV,4,4,13,23,08,286,*4E
$BDGSV,5,1,19,30,63,226,42,03,54,199,39,08,50,333,38,01,47,137,34*6E
$BDGSV,5,2,19,13,46,316,40,20,46,277,42,02,38,236,,10,37,221,*69
$BDGSV,5,3,19,04,37,118,35,29,36,306,44,07,34,207,34,27,23,163,36*64
$BDGSV,5,4,19,16,17,172,,05,16,254,,23,14,095,29,06,12,180,*6A
$BDGSV,5,5,19,19,05,252,,09,03,188,,25,03,051,*53
$GNRMC,120942.000,A,3018.4341,N,12004.6796,E,0.01,159.03,270326,,,D*75
$GNVTG,159.03,T,,M,0.01,N,0.02,K,D*2B
$GNGGA,120943.000,3018.4341,N,12004.6796,E,2,22,0.59,29.3,M,7.0,M,,*7E
$GNGLL,3018.4341,N,12004.6796,E,120943.000,A,D*4E
$GPGSA,A,3,20,13,15,05,21,11,18,195,30,29,194,24,0.92,0.59,0.71*07
$BDGSA,A,3,29,08,20,04,27,23,13,07,30,03,,,0.92,0.59,0.71*16
$GPGSV,4,1,13,20,75,010,42,13,72,036,42,15,67,272,42,195,64,128,43*4A
$GPGSV,4,2,13,05,52,039,43,29,39,253,38,21,32,067,40,11,29,134,38*7D
$GPGSV,4,3,13,18,25,319,39,24,21,181,33,30,17,051,37,194,10,166,30*44
$GPGSV,4,4,13,23,08,286,*4E
$BDGSV,5,1,19,30,63,226,42,03,54,199,38,08,50,333,38,01,47,137,34*6F
$BDGSV,5,2,19,13,46,316,40,20,46,277,42,02,38,236,,10,37,221,*69
$BDGSV,5,3,19,04,37,118,35,29,36,306,44,07,34,207,34,27,23,163,36*64
$BDGSV,5,4,19,16,17,172,,05,16,254,,23,14,095,29,06,12,180,*6A
$BDGSV,5,5,19,19,05,252,,09,03,188,,25,03,051,*53
$GNRMC,120943.000,A,3018.4341,N,12004.6796,E,0.01,159.03,270326,,,D*74
$GNVTG,159.03,T,,M,0.01,N,0.03,K,D*2A
$GNGGA,120944.000,3018.4341,N,12004.6796,E,2,22,0.59,29.3,M,7.0,M,,*79
$GNGLL,3018.4341,N,12004.6796,E,120944.000,A,D*49
$GPGSA,A,3,20,13,15,05,21,11,18,30,29,194,24,,0.93,0.59,0.72*38
$BDGSA,A,3,29,08,20,04,01,27,23,13,07,30,03,,0.93,0.59,0.72*15
$GPGSV,4,1,13,20,75,010,42,13,72,036,42,15,67,272,42,195,64,128,43*4A
$GPGSV,4,2,13,05,52,039,43,29,39,253,37,21,32,067,40,11,29,134,37*7D
$GPGSV,4,3,13,18,25,319,39,24,21,181,33,30,17,051,35,194,10,166,30*46
$GPGSV,4,4,13,23,08,286,*4E
$BDGSV,5,1,19,30,63,226,42,03,54,199,38,08,50,333,38,01,47,137,34*6F
$BDGSV,5,2,19,13,46,316,40,20,46,277,41,02,38,236,,10,37,221,*6A
$BDGSV,5,3,19,04,37,118,35,29,36,306,44,07,34,207,34,27,23,163,35*67
$BDGSV,5,4,19,16,17,172,,05,16,254,,23,14,095,28,06,12,180,*6B
$BDGSV,5,5,19,19,05,252,,09,03,188,,25,03,051,*53
$GNRMC,120944.000,A,3018.4341,N,12004.6796,E,0.01,159.03,270326,,,D*73
$GNVTG,159.03,T,,M,0.01,N,0.02,K,D*2B
$GNGGA,120945.000,3018.4341,N,12004.6796,E,2,21,0.61,29.3,M,7.0,M,,*70
$GNGLL,3018.4341,N,12004.6796,E,120945.000,A,D*48
$GPGSA,A,3,20,13,15,05,21,11,18,195,30,29,24,,0.95,0.61,0.74*32
$BDGSA,A,3,29,08,20,04,01,27,23,13,07,03,,,0.95,0.61,0.74*1D
$GPGSV,4,1,13,20,75,010,42,13,72,036,42,15,67,272,42,195,64,128,43*4A
$GPGSV,4,2,13,05,52,039,43,29,39,253,29,21,32,067,40,11,29,134,37*72
$GPGSV,4,3,13,18,25,319,39,24,21,181,33,30,17,051,35,194,10,166,30*46
$GPGSV,4,4,13,23,08,286,*4E
$BDGSV,5,1,19,30,63,226,42,03,54,199,38,08,50,333,38,01,47,137,34*6F
$BDGSV,5,2,19,13,46,316,40,20,46,277,40,02,38,236,25,10,37,221,*6C
$BDGSV,5,3,19,04,37,118,35,29,36,306,44,07,34,207,33,27,23,163,35*60
$BDGSV,5,4,19,16,17,172,,05,16,254,,23,14,095,28,06,12,180,*6B
$BDGSV,5,5,19,19,05,252,,09,03,188,,25,03,051,*53
$GNRMC,120945.000,A,3018.4341,N,12004.6796,E,0.01,159.03,270326,,,D*72
$GNVTG,159.03,T,,M,0.01,N,0.02,K,D*2B
$GNGGA,120946.000,3018.4341,N,12004.6796,E,2,22,0.59,29.3,M,7.0,M,,*7B
$GNGLL,3018.4341,N,12004.6796,E,120946.000,A,D*4B
$GPGSA,A,3,20,13,15,05,21,11,18,195,30,29,24,,0.94,0.59,0.73*3F
$BDGSA,A,3,29,08,20,04,01,02,27,23,13,07,03,,0.94,0.59,0.73*12
$GPGSV,4,1,13,20,75,010,42,13,72,036,42,15,67,272,42,195,64,128,43*4A
$GPGSV,4,2,13,05,52,039,43,29,39,253,29,21,32,067,40,11,29,134,37*72
$GPGSV,4,3,13,18,25,319,39,24,21,181,33,30,17,051,35,194,10,166,30*46
$GPGSV,4,4,13,23,08,286,*4E
$BDGSV,5,1,19,30,63,226,42,03,54,199,38,08,50,333,38,01,47,137,34*6F
$BDGSV,5,2,19,13,46,316,40,20,46,277,39,02,38,236,26,10,37,221,*61
$BDGSV,5,3,19,04,37,118,35,29,36,306,44,07,34,207,33,27,23,163,35*60
$BDGSV,5,4,19,16,17,172,,05,16,254,,23,14,095,28,06,12,180,*6B
$BDGSV,5,5,19,19,05,252,,09,03,188,,25,03,051,*53
$GNRMC,120946.000,A,3018.4341,N,12004.6796,E,0.02,159.03,270326,,,D*72
$GNVTG,159.03,T,,M,0.02,N,0.03,K,D*29
$GNGGA,120947.000,3018.4341,N,12004.6796,E,2,22,0.59,29.3,M,7.0,M,,*7A
$GNGLL,3018.4341,N,12004.6796,E,120947.000,A,D*4A
$GPGSA,A,3,20,13,15,05,21,11,18,195,30,29,24,,0.94,0.59,0.73*3F
$BDGSA,A,3,29,08,20,04,01,02,27,23,13,07,03,,0.94,0.59,0.73*12
$GPGSV,4,1,13,20,75,010,43,13,72,036,42,15,67,272,42,195,64,128,43*4B
$GPGSV,4,2,13,05,52,039,43,29,39,253,30,21,32,067,40,11,29,134,38*75
$GPGSV,4,3,13,18,25,319,39,24,21,181,34,30,17,051,36,194,10,166,30*42
$GPGSV,4,4,13,23,08,286,*4E
$BDGSV,5,1,19,30,63,226,42,03,54,199,39,08,50,333,38,01,47,137,34*6E
$BDGSV,5,2,19,13,46,316,40,20,46,277,39,02,38,236,26,10,37,221,*61
$BDGSV,5,3,19,04,37,118,35,29,36,306,44,07,34,207,33,27,23,163,35*60
$BDGSV,5,4,19,16,17,172,,05,16,254,,23,14,095,28,06,12,180,*6B
$BDGSV,5,5,19,19,05,252,,09,03,188,,25,03,051,*53
$GNRMC,120947.000,A,3018.4341,N,12004.6796,E,0.01,159.03,270326,,,D*70
$GNVTG,159.03,T,,M,0.01,N,0.02,K,D*2B
$GNGGA,120948.000,3018.4341,N,12004.6796,E,2,22,0.59,29.3,M,7.0,M,,*75
$GNGLL,3018.4341,N,12004.6796,E,120948.000,A,D*45
$GPGSA,A,3,20,13,15,05,21,11,18,195,30,29,24,,0.94,0.59,0.73*3F
$BDGSA,A,3,29,08,20,04,01,02,27,23,13,07,03,,0.94,0.59,0.73*12
$GPGSV,4,1,13,20,75,010,43,13,72,036,42,15,67,272,42,195,64,128,43*4B
$GPGSV,4,2,13,05,52,039,43,29,39,253,31,21,32,067,40,11,29,134,38*74
$GPGSV,4,3,13,18,25,319,39,24,21,181,34,30,17,051,36,194,10,166,30*42
$GPGSV,4,4,13,23,08,286,*4E
$BDGSV,5,1,19,30,63,226,42,03,54,199,39,08,50,333,38,01,47,137,34*6E
$BDGSV,5,2,19,13,46,316,40,20,46,277,39,02,38,236,25,10,37,221,*62
$BDGSV,5,3,19,04,37,118,35,29,36,306,44,07,34,207,33,27,23,163,35*60
$BDGSV,5,4,19,16,17,172,,05,16,254,,23,14,095,28,06,12,180,*6B
$BDGSV,5,5,19,19,05,252,,09,03,188,,25,03,051,*53
$GNRMC,120948.000,A,3018.4341,N,12004.6796,E,0.02,159.03,270326,,,D*7C
$GNVTG,159.03,T,,M,0.02,N,0.04,K,D*2E
$GNGGA,120949.000,3018.4341,N,12004.6796,E,2,22,0.59,29.3,M,7.0,M,,*74
$GNGLL,3018.4341,N,12004.6796,E,120949.000,A,D*44
$GPGSA,A,3,20,13,15,05,21,11,18,195,30,29,24,,0.94,0.59,0.74*38
$BDGSA,A,3,29,08,20,04,01,02,27,23,13,07,03,,0.94,0.59,0.74*15
$GPGSV,4,1,13,20,75,010,43,13,72,036,42,15,67,272,42,195,64,128,43*4B
$GPGSV,4,2,13,05,52,039,43,29,39,253,31,21,32,067,40,11,29,134,38*74
$GPGSV,4,3,13,18,25,319,39,24,21,181,34,30,17,051,36,194,10,166,31*43
$GPGSV,4,4,13,23,08,286,*4E
$BDGSV,5,1,19,30,63,226,42,03,54,199,38,08,50,333,38,01,47,137,34*6F
$BDGSV,5,2,19,13,46,316,40,20,46,277,39,02,38,236,26,10,37,221,*61
$BDGSV,5,3,19,04,37,118,35,29,36,306,44,07,34,207,33,27,23,163,35*60
$BDGSV,5,4,19,16,17,172,,05,16,254,,23,14,095,28,06,12,180,*6B
$BDGSV,5,5,19,19,05,252,,09,03,188,,25,03,051,*53
$GNRMC,120949.000,A,3018.4341,N,12004.6796,E,0.02,159.03,270326,,,D*7D
$GNVTG,159.03,T,,M,0.02,N,0.04,K,D*2E
$GNGGA,120950.000,3018.4341,N,12004.6796,E,2,22,0.59,29.3,M,7.0,M,,*7C
$GNGLL,3018.4341,N,12004.6796,E,120950.000,A,D*4C
$GPGSA,A,3,20,13,15,05,21,11,18,195,30,29,24,,0.94,0.59,0.73*3F
$BDGSA,A,3,29,08,20,04,01,02,27,23,13,07,03,,0.94,0.59,0.73*12
$GPGSV,4,1,13,20,75,010,43,13,72,036,42,15,67,272,42,195,64,128,43*4B
$GPGSV,4,2,13,05,52,039,43,29,39,253,31,21,32,067,40,11,29,134,38*74
$GPGSV,4,3,13,18,25,319,39,24,21,181,34,30,17,051,36,194,10,166,30*42
$GPGSV,4,4,13,23,08,286,*4E
$BDGSV,5,1,19,30,63,226,42,03,54,199,39,08,50,333,38,01,47,137,34*6E
$BDGSV,5,2,19,13,46,316,40,20,46,277,39,02,38,236,26,10,37,221,*61
$BDGSV,5,3,19,04,37,118,35,29,36,306,44,07,34,207,33,27,23,163,35*60
$BDGSV,5,4,19,16,17,172,,05,16,254,,23,14,095,28,06,12,180,*6B
$BDGSV,5,5,19,19,05,252,,09,03,188,,25,03,051,*53
$GNRMC,120950.000,A,3018.4341,N,12004.6796,E,0.02,159.03,270326,,,D*75
$GNVTG,159.03,T,,M,0.02,N,0.03,K,D*29
$GNGGA,120951.000,3018.4341,N,12004.6796,E,2,22,0.59,29.3,M,7.0,M,,*7D
$GNGLL,3018.4341,N,12004.6796,E,120951.000,A,D*4D
$GPGSA,A,3,20,13,15,05,21,11,18,195,30,29,24,,0.94,0.59,0.73*3F
$BDGSA,A,3,29,08,20,04,01,02,27,23,13,07,03,,0.94,0.59,0.73*12
$GPGSV,4,1,13,20,75,010,43,13,72,036,42,15,67,272,42,195,64,128,43*4B
$GPGSV,4,2,13,05,52,039,43,29,39,253,30,21,32,067,40,11,29,134,38*75
$GPGSV,4,3,13,18,25,319,39,24,21,181,34,30,17,051,36,194,10,166,30*42
$GPGSV,4,4,13,23,08,286,*4E
$BDGSV,5,1,19,30,63,226,42,03,54,199,39,08,50,333,38,01,47,137,34*6E
$BDGSV,5,2,19,13,46,316,40,20,46,277,39,02,38,236,26,10,37,221,*61
$BDGSV,5,3,19,04,37,118,35,29,36,306,44,07,34,207,33,27,23,163,35*60
$BDGSV,5,4,19,16,17,172,,05,16,254,,23,14,095,28,06,12,180,*6B
$BDGSV,5,5,19,19,05,252,,09,03,188,,25,03,051,*53
$GNRMC,120951.000,A,3018.4341,N,12004.6796,E,0.02,159.03,270326,,,D*74
$GNVTG,159.03,T,,M,0.02,N,0.03,K,D*29
$GNGGA,120952.000,3018.4341,N,12004.6796,E,2,22,0.59,29.3,M,7.0,M,,*7E
$GNGLL,3018.4341,N,12004.6796,E,120952.000,A,D*4E
$GPGSA,A,3,20,13,15,05,21,11,18,195,30,29,24,,0.94,0.59,0.73*3F
$BDGSA,A,3,29,08,20,04,01,02,27,23,13,07,03,,0.94,0.59,0.73*12
$GPGSV,4,1,13,20,75,010,43,13,72,036,42,15,67,272,42,195,64,128,43*4B
$GPGSV,4,2,13,05,52,039,43,29,39,253,31,21,32,067,40,11,29,134,38*74
$GPGSV,4,3,13,18,25,319,40,24,21,181,34,30,17,051,36,194,10,166,30*4C
$GPGSV,4,4,13,23,08,286,*4E
$BDGSV,5,1,19,30,63,226,42,03,54,199,39,08,50,333,38,01,47,137,34*6E
$BDGSV,5,2,19,13,46,316,40,20,46,277,39,02,38,236,27,10,37,221,*60
$BDGSV,5,3,19,04,37,118,35,29,36,306,44,07,34,207,34,27,23,163,35*67
$BDGSV,5,4,19,16,17,172,,05,16,254,,23,14,095,27,06,12,180,*64
$BDGSV,5,5,19,19,05,252,,09,03,188,,25,03,051,*53
$GNRMC,120952.000,A,3018.4341,N,12004.6796,E,0.02,159.03,270326,,,D*77
$GNVTG,159.03,T,,M,0.02,N,0.04,K,D*2E
$GNGGA,120953.000,3018.4341,N,12004.6796,E,2,22,0.59,29.3,M,7.0,M,,*7F
$GNGLL,3018.4341,N,12004.6796,E,120953.000,A,D*4F
$GPGSA,A,3,20,13,15,05,21,11,18,195,30,29,24,,0.94,0.59,0.73*3F
$BDGSA,A,3,29,08,20,04,01,02,27,23,13,07,03,,0.94,0.59,0.73*12
$GPGSV,4,1,13,20,75,010,43,13,72,036,42,15,67,272,42,195,64,128,43*4B
$GPGSV,4,2,13,05,52,039,43,29,39,253,32,21,32,067,40,11,29,134,38*77
$GPGSV,4,3,13,18,25,319,40,24,21,181,34,30,17,051,36,194,10,166,30*4C
$GPGSV,4,4,13,23,08,286,*4E
$BDGSV,5,1,19,30,63,226,42,03,54,199,39,08,50,333,38,01,47,137,35*6F
$BDGSV,5,2,19,13,46,316,40,20,46,277,39,02,38,236,27,10,37,221,*60
$BDGSV,5,3,19,04,37,118,36,29,36,306,44,07,34,207,34,27,23,163,35*64
$BDGSV,5,4,19,16,17,172,,05,16,254,,23,14,095,27,06,12,180,*64
$BDGSV,5,5,19,19,05,252,,09,03,188,,25,03,051,*53
$GNRMC,120953.000,A,3018.4341,N,12004.6796,E,0.01,159.03,270326,,,D*75
$GNVTG,159.03,T,,M,0.01,N,0.02,K,D*2B
$GNGGA,120954.000,3018.4341,N,12004.6796,E,2,22,0.59,29.3,M,7.0,M,,*78
$GNGLL,3018.4341,N,12004.6796,E,120954.000,A,D*48
$GPGSA,A,3,20,13,15,05,21,11,18,195,30,29,24,,0.94,0.59,0.74*38
$BDGSA,A,3,29,08,20,04,01,02,27,23,13,07,03,,0.94,0.59,0.74*15
$GPGSV,4,1,13,20,75,010,43,13,72,036,42,15,67,272,42,195,64,128,43*4B
$GPGSV,4,2,13,05,52,039,43,29,39,253,30,21,32,067,40,11,29,134,37*7A
$GPGSV,4,3,13,18,25,319,40,24,21,181,34,30,17,051,36,194,10,166,30*4C
$GPGSV,4,4,13,23,08,286,*4E
$BDGSV,5,1,19,30,63,226,43,03,54,199,39,08,50,333,38,01,47,137,35*6E
$BDGSV,5,2,19,13,46,316,40,20,46,277,39,02,38,236,27,10,37,221,*60
$BDGSV,5,3,19,04,37,118,36,29,36,306,44,07,34,207,34,27,23,163,35*64
$BDGSV,5,4,19,16,17,172,,05,16,254,,23,14,095,27,06,12,180,*64
$BDGSV,5,5,19,19,05,252,,09,03,188,,25,03,051,*53
$GNRMC,120954.000,A,3018.4341,N,12004.6796,E,0.03,159.03,270326,,,D*70
$GNVTG,159.03,T,,M,0.03,N,0.05,K,D*2E
$GNGGA,120955.000,3018.4341,N,12004.6797,E,2,22,0.59,29.3,M,7.0,M,,*78
$GNGLL,3018.4341,N,12004.6797,E,120955.000,A,D*48
$GPGSA,A,3,20,13,15,05,21,11,18,195,30,29,24,,0.94,0.59,0.73*3F
$BDGSA,A,3,29,08,20,04,01,02,27,23,13,07,03,,0.94,0.59,0.73*12
$GPGSV,4,1,13,20,75,010,43,13,72,036,42,15,67,272,42,195,64,128,43*4B
$GPGSV,4,2,13,05,52,039,43,29,39,253,28,21,32,067,40,11,29,134,37*73
$GPGSV,4,3,13,18,25,319,40,24,21,181,34,30,17,051,35,194,10,166,30*4F
$GPGSV,4,4,13,23,08,286,*4E
$BDGSV,5,1,19,30,63,226,43,03,54,199,38,08,50,333,38,01,47,137,34*6E
$BDGSV,5,2,19,13,46,316,40,20,46,277,38,02,38,236,27,10,37,221,*61
$BDGSV,5,3,19,04,37,118,36,29,36,306,44,07,34,207,34,27,23,163,35*64
$BDGSV,5,4,19,16,17,172,,05,16,254,,23,14,095,27,06,12,180,*64
$BDGSV,5,5,19,19,05,252,,09,03,188,,25,03,051,*53
$GNRMC,120955.000,A,3018.4341,N,12004.6797,E,0.01,159.03,270326,,,D*72
$GNVTG,159.03,T,,M,0.01,N,0.02,K,D*2B
$GNGGA,120956.000,3018.4341,N,12004.6797,E,2,22,0.59,29.3,M,7.0,M,,*7B
$GNGLL,3018.4341,N,12004.6797,E,120956.000,A,D*4B
$GPGSA,A,3,20,13,15,05,21,11,18,195,30,29,24,,0.94,0.59,0.73*3F
$BDGSA,A,3,29,08,20,04,01,02,27,23,13,07,03,,0.94,0.59,0.73*12
$GPGSV,4,1,13,20,75,010,43,13,72,036,42,15,67,272,42,195,64,128,43*4B
$GPGSV,4,2,13,05,52,039,43,29,39,253,28,21,32,067,40,11,29,134,36*72
$GPGSV,4,3,13,18,25,319,40,24,21,181,34,30,17,051,34,194,10,166,30*4E
$GPGSV,4,4,13,23,08,286,*4E
$BDGSV,5,1,19,30,63,226,43,03,54,199,38,08,50,333,38,01,47,137,35*6F
$BDGSV,5,2,19,13,46,316,40,20,46,277,38,02,38,236,27,10,37,221,*61
$BDGSV,5,3,19,04,37,118,36,29,36,306,44,07,34,207,34,27,23,163,35*64
$BDGSV,5,4,19,16,17,172,,05,16,254,,23,14,095,27,06,12,180,*64
$BDGSV,5,5,19,19,05,252,,09,03,188,,25,03,051,*53
$GNRMC,120956.000,A,3018.4341,N,12004.6797,E,0.03,159.03,270326,,,D*73
$GNVTG,159.03,T,,M,0.03,N,0.05,K,D*2E
$GNGGA,120957.000,3018.4341,N,12004.6797,E,2,22,0.59,29.3,M,7.0,M,,*7A
$GNGLL,3018.4341,N,12004.6797,E,120957.000,A,D*4A
$GPGSA,A,3,20,13,15,05,21,11,18,195,30,29,24,,0.94,0.59,0.73*3F
$BDGSA,A,3,29,08,20,04,01,02,27,23,13,07,03,,0.94,0.59,0.73*12
$GPGSV,4,1,13,20,75,010,43,13,72,036,42,15,67,272,42,195,64,128,43*4B
$GPGSV,4,2,13,05,52,039,43,29,39,253,29,21,32,067,40,11,29,134,36*73
$GPGSV,4,3,13,18,25,319,40,24,21,181,35,30,17,051,34,194,10,166,30*4F
$GPGSV,4,4,13,23,08,286,*4E
$BDGSV,5,1,19,30,63,226,43,03,54,199,38,08,50,333,38,01,47,137,35*6F
$BDGSV,5,2,19,13,46,316,40,20,46,277,38,02,38,236,27,10,37,221,*61
$BDGSV,5,3,19,04,37,118,36,29,36,306,44,07,34,207,34,27,23,163,35*64
$BDGSV,5,4,19,16,17,172,,05,16,254,,23,14,095,27,06,12,180,*64
$BDGSV,5,5,19,19,05,252,,09,03,188,,25,03,051,*53
$GNRMC,120957.000,A,3018.4341,N,12004.6797,E,0.01,159.03,270326,,,D*70
$GNVTG,159.03,T,,M,0.01,N,0.02,K,D*2B
$GNGGA,120958.000,3018.4341,N,12004.6797,E,2,22,0.59,29.3,M,7.0,M,,*75
$GNGLL,3018.4341,N,12004.6797,E,120958.000,A,D*45
$GPGSA,A,3,20,13,15,05,21,11,18,195,30,29,24,,0.94,0.59,0.74*38
$BDGSA,A,3,29,08,20,04,01,02,27,23,13,07,03,,0.94,0.59,0.74*15
$GPGSV,4,1,13,20,75,010,43,13,72,036,42,15,67,272,42,195,64,128,42*4A
$GPGSV,4,2,13,05,52,039,43,29,39,253,37,21,32,067,40,11,29,134,36*7C
$GPGSV,4,3,13,18,25,319,40,24,21,181,34,30,17,051,34,194,10,166,30*4E
$GPGSV,4,4,13,23,08,286,*4E
$BDGSV,5,1,19,30,63,226,43,03,54,199,38,08,50,333,38,01,47,137,34*6E
$BDGSV,5,2,19,13,46,316,40,20,46,277,39,02,38,236,27,10,37,221,*60
$BDGSV,5,3,19,04,37,118,35,29,36,306,44,07,34,207,33,27,23,163,35*60
$BDGSV,5,4,19,16,17,172,,05,16,254,,23,14,095,27,06,12,180,*64
$BDGSV,5,5,19,19,05,252,,09,03,188,,25,03,051,*53
$GNRMC,120958.000,A,3018.4341,N,12004.6797,E,0.03,159.03,270326,,,D*7D
$GNVTG,159.03,T,,M,0.03,N,0.05,K,D*2E
$GNGGA,120959.000,3018.4341,N,12004.6797,E,2,22,0.59,29.3,M,7.0,M,,*74
$GNGLL,3018.4341,N,12004.6797,E,120959.000,A,D*44
$GPGSA,A,3,20,13,15,05,21,11,18,195,30,29,24,,0.94,0.59,0.74*38
$BDGSA,A,3,29,08,20,04,01,02,27,23,13,07,03,,0.94,0.59,0.74*15
$GPGSV,4,1,13,20,75,010,43,13,72,036,42,15,67,272,41,195,64,128,42*49
$GPGSV,4,2,13,05,52,039,43,29,39,253,37,21,32,067,40,11,29,134,35*7F
$GPGSV,4,3,13,18,25,319,40,24,21,181,34,30,17,051,34,194,10,166,30*4E
$GPGSV,4,4,13,23,08,286,*4E
$BDGSV,5,1,19,30,63,226,43,03,54,199,38,08,50,333,38,01,47,137,34*6E
$BDGSV,5,2,19,13,46,316,41,20,46,277,40,02,38,236,27,10,37,221,*6F
$BDGSV,5,3,19,04,37,118,35,29,36,306,44,07,34,207,34,27,23,163,35*67
$BDGSV,5,4,19,16,17,172,,05,16,254,,23,14,095,28,06,12,180,*6B
$BDGSV,5,5,19,19,05,252,,09,03,188,,25,03,051,*53
$GNRMC,120959.000,A,3018.4341,N,12004.6797,E,0.02,159.03,270326,,,D*7D
$GNVTG,159.03,T,,M,0.02,N,0.03,K,D*29
$GNGGA,121000.000,3018.4341,N,12004.6797,E,2,22,0.59,29.3,M,7.0,M,,*70
$GNGLL,3018.4341,N,12004.6797,E,121000.000,A,D*40
$GPGSA,A,3,20,13,15,05,21,11,18,195,30,29,24,,0.94,0.59,0.74*38
$BDGSA,A,3,29,08,20,04,01,02,27,23,13,07,03,,0.94,0.59,0.74*15
$GPGSV,4,1,13,20,75,010,43,13,72,036,42,15,67,272,41,195,64,128,42*49
$GPGSV,4,2,13,05,52,039,43,29,39,253,37,21,32,067,40,11,29,134,34*7E
$GPGSV,4,3,13,18,25,319,39,24,21,181,33,30,17,051,33,194,10,166,30*40
$GPGSV,4,4,13,23,08,286,*4E
$BDGSV,5,1,19,30,63,226,43,03,54,199,38,08,50,333,37,01,47,137,34*61
$BDGSV,5,2,19,13,46,316,41,20,46,277,40,02,38,236,27,10,37,221,*6F
$BDGSV,5,3,19,04,37,118,35,29,36,306,44,07,34,207,33,27,23,163,35*60
$BDGSV,5,4,19,16,17,172,,05,16,254,,23,14,095,28,06,12,180,*6B
$BDGSV,5,5,19,19,05,252,,09,03,188,,25,03,051,*53
$GNRMC,121000.000,A,3018.4341,N,12004.6797,E,0.02,159.03,270326,,,D*79
$GNVTG,159.03,T,,M,0.02,N,0.04,K,D*2E
$GNGGA,121001.000,3018.4341,N,12004.6797,E,2,22,0.59,29.2,M,7.0,M,,*70
$GNGLL,3018.4341,N,12004.6797,E,121001.000,A,D*41
$GPGSA,A,3,20,13,15,05,21,11,18,195,30,29,24,,0.94,0.59,0.74*38
$BDGSA,A,3,29,08,20,04,01,02,27,23,13,07,03,,0.94,0.59,0.74*15
$GPGSV,4,1,13,20,75,010,43,13,72,036,43,15,67,272,41,195,64,128,42*48
$GPGSV,4,2,13,05,52,039,43,29,39,253,37,21,32,067,40,11,29,134,34*7E
$GPGSV,4,3,13,18,25,319,39,24,21,181,34,30,17,051,32,194,10,166,30*46
$GPGSV,4,4,13,23,08,286,*4E
$BDGSV,5,1,19,30,63,226,43,03,54,199,38,08,50,333,37,01,47,137,33*66
$BDGSV,5,2,19,13,46,316,41,20,46,277,40,02,38,236,27,10,37,221,*6F
$BDGSV,5,3,19,04,37,118,35,29,36,306,45,07,34,207,34,27,23,163,35*66
$BDGSV,5,4,19,16,17,172,,05,16,254,,23,14,095,28,06,12,180,*6B
$BDGSV,5,5,19,19,05,252,,09,03,188,,25,03,051,*53
$GNRMC,121001.000,A,3018.4341,N,12004.6797,E,0.02,159.03,270326,,,D*78
$GNVTG,159.03,T,,M,0.02,N,0.03,K,D*29
$GNGGA,121002.000,3018.4341,N,12004.6797,E,2,22,0.58,29.2,M,7.0,M,,*72
$GNGLL,3018.4341,N,12004.6797,E,121002.000,A,D*42
$GPGSA,A,3,20,13,05,21,11,18,195,30,29,24,,,0.94,0.58,0.74*3D
$BDGSA,A,3,29,08,20,04,01,02,27,23,13,07,30,03,0.94,0.58,0.74*17
$GPGSV,4,1,13,20,75,010,43,13,72,036,43,15,67,272,40,195,64,128,42*49
$GPGSV,4,2,13,05,52,039,43,29,39,253,37,21,32,067,40,11,29,134,34*7E
$GPGSV,4,3,13,18,25,319,40,24,21,181,34,30,17,051,32,194,10,166,30*48
$GPGSV,4,4,13,23,08,286,*4E
$BDGSV,5,1,19,30,63,226,43,03,54,199,38,08,50,333,37,01,47,137,34*61
$BDGSV,5,2,19,13,46,316,41,20,46,277,40,02,38,236,27,10,37,221,*6F
$BDGSV,5,3,19,04,37,118,35,29,36,306,45,07,34,207,34,27,23,163,35*66
$BDGSV,5,4,19,16,17,172,,05,16,254,,23,14,095,29,06,12,180,*6A
$BDGSV,5,5,19,19,05,252,,09,03,188,,25,03,051,*53
$GNRMC,121002.000,A,3018.4341,N,12004.6797,E,0.01,159.03,270326,,,D*78
$GNVTG,159.03,T,,M,0.01,N,0.03,K,D*2A
$GNGGA,121003.000,3018.4342,N,12004.6797,E,2,22,0.58,29.2,M,7.0,M,,*70
$GNGLL,3018.4342,N,12004.6797,E,121003.000,A,D*40
$GPGSA,A,3,20,13,05,21,11,18,195,30,29,24,,,0.94,0.58,0.74*3D
$BDGSA,A,3,29,08,20,04,01,02,27,23,13,07,30,03,0.94,0.58,0.74*17
$GPGSV,4,1,13,20,75,010,43,13,72,036,43,15,67,272,40,195,64,128,42*49
$GPGSV,4,2,13,05,52,039,43,29,39,253,37,21,32,067,40,11,29,134,34*7E
$GPGSV,4,3,13,18,25,319,40,24,21,181,34,30,17,051,32,194,10,166,30*48
$GPGSV,4,4,13,23,08,286,*4E
$BDGSV,5,1,19,30,63,226,43,03,54,199,38,08,50,333,37,01,47,137,34*61
$BDGSV,5,2,19,13,46,316,41,20,46,277,40,02,38,236,27,10,37,221,*6F
$BDGSV,5,3,19,04,37,118,35,29,36,306,45,07,34,207,34,27,23,163,35*66
$BDGSV,5,4,19,16,17,172,,05,16,254,,23,14,095,29,06,12,180,*6A
$BDGSV,5,5,19,19,05,252,,09,03,188,,25,03,051,*53
$GNRMC,121003.000,A,3018.4342,N,12004.6797,E,0.02,159.03,270326,,,D*79
$GNVTG,159.03,T,,M,0.02,N,0.04,K,D*2E
$GNGGA,121004.000,3018.4342,N,12004.6797,E,2,22,0.59,29.2,M,7.0,M,,*76
$GNGLL,3018.4342,N,12004.6797,E,121004.000,A,D*47
$GPGSA,A,3,20,13,15,05,21,11,18,195,30,29,24,,0.94,0.59,0.74*38
$BDGSA,A,3,29,08,20,04,01,02,27,23,13,07,03,,0.94,0.59,0.74*15
$GPGSV,4,1,13,20,75,010,43,13,72,036,43,15,67,272,40,195,64,128,42*49
$GPGSV,4,2,13,05,52,039,43,29,39,253,36,21,32,067,40,11,29,134,34*7F
$GPGSV,4,3,13,18,25,319,40,24,21,181,34,30,17,051,32,194,10,166,30*48
$GPGSV,4,4,13,23,08,286,*4E
$BDGSV,5,1,19,30,63,226,43,03,54,199,38,08,50,333,37,01,47,137,34*61
$BDGSV,5,2,19,13,46,316,41,20,46,277,39,02,38,236,27,10,37,221,*61
$BDGSV,5,3,19,04,37,118,35,29,36,306,45,07,34,207,33,27,23,163,35*61
$BDGSV,5,4,19,16,17,172,,05,16,254,,23,14,095,29,06,12,180,*6A
$BDGSV,5,5,19,19,05,252,,09,03,188,,25,03,051,*53
$GNRMC,121004.000,A,3018.4342,N,12004.6797,E,0.02,159.03,270326,,,D*7E
$GNVTG,159.03,T,,M,0.02,N,0.04,K,D*2E
$GNGGA,121005.000,3018.4342,N,12004.6797,E,2,22,0.59,29.2,M,7.0,M,,*77
$GNGLL,3018.4342,N,12004.6797,E,121005.000,A,D*46
$GPGSA,A,3,20,13,15,05,21,11,18,195,30,29,24,,0.94,0.59,0.73*3F
$BDGSA,A,3,29,08,20,04,01,02,27,23,13,07,03,,0.94,0.59,0.73*12
$GPGSV,4,1,13,20,75,010,43,13,72,036,43,15,67,272,40,195,64,128,42*49
$GPGSV,4,2,13,05,52,039,43,29,39,253,35,21,32,067,40,11,29,134,34*7C
$GPGSV,4,3,13,18,25,319,40,24,21,181,34,30,17,051,31,194,10,166,29*43
$GPGSV,4,4,13,23,08,286,*4E
$BDGSV,5,1,19,30,63,226,43,03,54,199,37,08,50,333,37,01,47,137,34*6E
$BDGSV,5,2,19,13,46,316,41,20,46,277,39,02,38,236,27,10,37,221,*61
$BDGSV,5,3,19,04,37,118,35,29,36,306,44,07,34,207,33,27,23,163,34*61
$BDGSV,5,4,19,16,17,172,,05,16,254,,23,14,095,29,06,12,180,*6A
$BDGSV,5,5,19,19,05,252,,09,03,188,,25,03,051,*53
$GNRMC,121005.000,A,3018.4342,N,12004.6797,E,0.01,159.03,270326,,,D*7C
$GNVTG,159.03,T,,M,0.01,N,0.02,K,D*2B
$GNGGA,121006.000,3018.4342,N,12004.6797,E,2,22,0.59,29.2,M,7.0,M,,*74
$GNGLL,3018.4342,N,12004.6797,E,121006.000,A,D*45
$GPGSA,A,3,20,13,15,05,21,11,18,195,30,29,24,,0.94,0.59,0.74*38
$BDGSA,A,3,29,08,20,04,01,02,27,23,13,07,03,,0.94,0.59,0.74*15
$GPGSV,4,1,13,20,75,010,42,13,72,036,43,15,67,272,41,195,64,128,42*49
$GPGSV,4,2,13,05,52,039,43,29,39,253,35,21,32,067,40,11,29,134,34*7C
$GPGSV,4,3,13,18,25,319,40,24,21,181,34,30,17,051,31,194,10,166,29*43
$GPGSV,4,4,13,23,08,286,*4E
$BDGSV,5,1,19,30,63,226,43,03,54,199,37,08,50,333,37,01,47,137,34*6E
$BDGSV,5,2,19,13,46,316,41,20,46,277,39,02,38,236,27,10,37,221,*61
$BDGSV,5,3,19,04,37,118,35,29,36,306,44,07,34,207,33,27,23,163,34*61
$BDGSV,5,4,19,16,17,172,,05,16,254,,23,14,095,29,06,12,180,*6A
$BDGSV,5,5,19,19,05,252,,09,03,188,,25,03,051,*53
$GNRMC,121006.000,A,3018.4342,N,12004.6797,E,0.02,159.03,270326,,,D*7C
$GNVTG,159.03,T,,M,0.02,N,0.04,K,D*2E
$GNGGA,121007.000,3018.4342,N,12004.6797,E,2,22,0.59,29.2,M,7.0,M,,*75
$GNGLL,3018.4342,N,12004.6797,E,121007.000,A,D*44
$GPGSA,A,3,20,13,15,05,21,11,18,195,30,29,24,,0.94,0.59,0.74*38
$BDGSA,A,3,29,08,20,04,01,02,27,23,13,07,03,,0.94,0.59,0.74*15
$GPGSV,4,1,13,20,75,010,42,13,72,036,43,15,67,272,41,195,64,128,42*49
$GPGSV,4,2,13,05,52,039,43,29,39,253,36,21,32,067,40,11,29,134,34*7F
$GPGSV,4,3,13,18,25,319,40,24,21,181,34,30,17,051,32,194,10,166,29*40
$GPGSV,4,4,13,23,08,286,*4E
$BDGSV,5,1,19,30,63,226,43,03,54,199,37,08,50,333,37,01,47,137,34*6E
$BDGSV,5,2,19,13,46,316,41,20,46,277,39,02,38,236,26,10,37,221,*60
$BDGSV,5,3,19,04,37,118,35,29,36,306,44,07,34,207,33,27,23,163,34*61
$BDGSV,5,4,19,16,17,172,,05,16,254,,23,14,095,30,06,12,180,*62
$BDGSV,5,5,19,19,05,252,,09,03,188,,25,03,051,*53
$GNRMC,121007.000,A,3018.4342,N,12004.6797,E,0.03,159.03,270326,,,D*7C
$GNVTG,159.03,T,,M,0.03,N,0.06,K,D*2D
$GNGGA,121008.000,3018.4342,N,12004.6797,E,2,22,0.59,29.2,M,7.0,M,,*7A
$GNGLL,3018.4342,N,12004.6797,E,121008.000,A,D*4B
$GPGSA,A,3,20,13,15,05,21,11,18,195,30,29,24,,0.94,0.59,0.74*38
$BDGSA,A,3,29,08,20,04,01,02,27,23,13,07,03,,0.94,0.59,0.74*15
$GPGSV,4,1,13,20,75,010,42,13,72,036,43,15,67,272,41,195,64,128,42*49
$GPGSV,4,2,13,05,52,039,43,29,39,253,37,21,32,067,40,11,29,134,33*79
