0.15,0.00,270326,,,A*63
$GPGGA,084406.000,3018.4455,N,12004.7395,E,1,9,0.91,10.2,M,7.0,M,,*52
$GPGLL,3018.4455,N,12004.7395,E,084406.000,A,A*52
$GPGSA,A,3,21,11,05,12,25,06,09,17,19,,,,1.25,0.91,0.85*02
$GPRMC,084406.000,A,3018.4455,N,12004.7395,E,0.17,0.00,270326,,,A*61
$GPGGA,084407.000,3018.4456,N,12004.7393,E,1,9,0.91,10.3,M,7.0,M,,*57
$GPGLL,3018.4456,N,12004.7393,E,084407.000,A,A*56
$GPGSA,A,3,21,11,05,12,25,06,09,17,19,,,,1.25,0.91,0.85*02
$GPRMC,084407.000,A,3018.4456,N,12004.7393,E,0.37,0.00,270326,,,A*67
$GPGGA,084408.000,3018.4456,N,12004.7392,E,1,9,0.91,10.4,M,7.0,M,,*5E
$GPGLL,3018.4456,N,12004.7392,E,084408.000,A,A*58
$GPGSA,A,3,21,11,05,12,25,06,09,17,19,,,,1.25,0.91,0.85*02
$GPRMC,084408.000,A,3018.4456,N,12004.7392,E,0.29,0.00,270326,,,A*66
$GPGGA,084409.000,3018.4458,N,12004.7389,E,1,8,1.05,10.6,M,7.0,M,,*54
$GPGLL,3018.4458,N,12004.7389,E,084409.000,A,A*5D
$GPGSA,A,3,21,11,05,12,25,06,17,19,,,,,1.36,1.05,0.86*06
$GPRMC,084409.000,A,3018.4458,N,12004.7389,E,0.31,0.00,270326,,,A*6A
$GPGGA,084410.000,3018.4459,N,12004.7387,E,1,9,0.91,10.8,M,7.0,M,,*50
$GPGLL,3018.4459,N,12004.7387,E,084410.000,A,A*5A
$GPGSA,A,3,21,11,05,12,25,06,09,17,19,,,,1.25,0.91,0.85*02
$GPRMC,084410.000,A,3018.4459,N,12004.7387,E,0.25,0.00,270326,,,A*68
$GPGGA,084411.000,3018.4460,N,12004.7384,E,1,8,1.05,11.0,M,7.0,M,,*5C
$GPGLL,3018.4460,N,12004.7384,E,084411.000,A,A*52
$GPGSA,A,3,21,11,05,12,25,06,17,19,,,,,1.36,1.05,0.86*06
$GPRMC,084411.000,A,3018.4460,N,12004.7384,E,0.21,0.00,270326,,,A*64
$GPGGA,084412.000,3018.4460,N,12004.7383,E,1,8,1.05,11.2,M,7.0,M,,*5A
$GPGLL,3018.4460,N,12004.7383,E,084412.000,A,A*56
$GPGSA,A,3,21,11,05,12,25,06,17,19,,,,,1.36,1.05,0.86*06
$GPRMC,084412.000,A,3018.4460,N,12004.7383,E,0.13,0.00,270326,,,A*61
$GPGGA,084413.000,3018.4460,N,12004.7385,E,1,8,1.11,11.1,M,7.0,M,,*5B
$GPGLL,3018.4460,N,12004.7385,E,084413.000,A,A*51
$GPGSA,A,3,21,11,05,12,25,06,09,19,,,,,1.42,1.11,0.89*00
$GPRMC,084413.000,A,3018.4460,N,12004.7385,E,0.01,0.00,270326,,,A*65
$GPGGA,084414.000,3018.4460,N,12004.7385,E,1,9,0.91,11.2,M,7.0,M,,*57
$GPGLL,3018.4460,N,12004.7385,E,084414.000,A,A*56
$GPGSA,A,3,21,11,05,12,25,06,09,17,19,,,,1.25,0.91,0.85*02
$GPRMC,084414.000,A,3018.4460,N,12004.7385,E,0.11,0.00,270326,,,A*63
$GPGGA,084415.000,3018.4461,N,12004.7385,E,1,7,1.21,11.1,M,7.0,M,,*50
$GPGLL,3018.4461,N,12004.7385,E,084415.000,A,A*56
$GPGSA,A,3,21,11,05,12,25,06,19,,,,,,1.52,1.21,0.91*02
$GPRMC,084415.000,A,3018.4461,N,12004.7385,E,0.21,0.00,270326,,,A*60
$GPGGA,084416.000,3018.4461,N,12004.7385,E,1,7,1.21,11.1,M,7.0,M,,*53
$GPGLL,3018.4461,N,12004.7385,E,084416.000,A,A*55
$GPGSA,A,3,21,11,05,12,25,06,19,,,,,,1.52,1.21,0.91*02
$GPRMC,084416.000,A,3018.4461,N,12004.7385,E,0.16,0.00,270326,,,A*67
$GPGGA,084417.000,3018.4461,N,12004.7384,E,1,7,1.21,11.0,M,7.0,M,,*52
$GPGLL,3018.4461,N,12004.7384,E,084417.000,A,A*55
$GPGSA,A,3,21,11,05,12,25,06,19,,,,,,1.52,1.21,0.91*02
$GPRMC,084417.000,A,3018.4461,N,12004.7384,E,0.22,0.00,270326,,,A*60
$GPGGA,084418.000,3018.4461,N,12004.7384,E,1,7,1.21,10.9,M,7.0,M,,*55
$GPGLL,3018.4461,N,12004.7384,E,084418.000,A,A*5A
$GPGSA,A,3,21,11,05,12,25,06,19,,,,,,1.52,1.21,0.91*02
$GPRMC,084418.000,A,3018.4461,N,12004.7384,E,0.23,0.00,270326,,,A*6E
$GPGGA,084419.000,3018.4461,N,12004.7386,E,1,7,1.21,10.7,M,7.0,M,,*58
$GPGLL,3018.4461,N,12004.7386,E,084419.000,A,A*59
$GPGSA,A,3,21,11,05,12,25,06,19,,,,,,1.52,1.21,0.91*02
$GPRMC,084419.000,A,3018.4461,N,12004.7386,E,0.17,0.00,270326,,,A*6A
$GPGGA,084420.000,3018.4460,N,12004.7387,E,1,7,1.21,10.6,M,7.0,M,,*53
$GPGLL,3018.4460,N,12004.7387,E,084420.000,A,A*53
$GPGSA,A,3,21,11,05,12,25,06,19,,,,,,1.52,1.21,0.91*02
$GPRMC,084420.000,A,3018.4460,N,12004.7387,E,0.06,0.00,270326,,,A*60
$GPGGA,084421.000,3018.4460,N,12004.7387,E,1,7,1.21,10.5,M,7.0,M,,*51
$GPGLL,3018.4460,N,12004.7387,E,084421.000,A,A*52
$GPGSA,A,3,21,11,05,12,25,06,19,,,,,,1.52,1.21,0.91*02
$GPRMC,084421.000,A,3018.4460,N,12004.7387,E,0.14,0.00,270326,,,A*62
$GPGGA,084422.000,3018.4460,N,12004.7387,E,1,7,1.21,10.5,M,7.0,M,,*52
$GPGLL,3018.4460,N,12004.7387,E,084422.000,A,A*51
$GPGSA,A,3,21,11,05,12,25,06,19,,,,,,1.52,1.21,0.91*02
$GPRMC,084422.000,A,3018.4460,N,12004.7387,E,0.12,0.00,270326,,,A*67
$GPGGA,084423.000,3018.4461,N,12004.7387,E,1,7,1.21,10.5,M,7.0,M,,*52
$GPGLL,3018.4461,N,12004.7387,E,084423.000,A,A*51
$GPGSA,A,3,21,11,05,12,25,06,19,,,,,,1.52,1.21,0.91*02
$GPRMC,084423.000,A,3018.4461,N,12004.7387,E,0.13,0.00,270326,,,A*66
$GPGGA,084424.000,3018.4461,N,12004.7387,E,1,7,1.21,10.5,M,7.0,M,,*55
$GPGLL,3018.4461,N,12004.7387,E,084424.000,A,A*56
$GPGSA,A,3,21,11,05,12,25,06,19,,,,,,1.52,1.21,0.91*02
$GPRMC,084424.000,A,3018.4461,N,12004.7387,E,0.16,0.00,270326,,,A*64
$GPGGA,084425.000,3018.4461,N,12004.7386,E,1,7,1.21,10.5,M,7.0,M,,*55
$GPGLL,3018.4461,N,12004.7386,E,084425.000,A,A*56
$GPGSA,A,3,21,11,05,12,25,06,19,,,,,,1.52,1.21,0.91*02
$GPRMC,084425.000,A,3018.4461,N,12004.7386,E,0.18,0.00,270326,,,A*6A
$GPGGA,084426.000,3018.4462,N,12004.7387,E,1,7,1.21,10.5,M,7.0,M,,*54
$GPGLL,3018.4462,N,12004.7387,E,084426.000,A,A*57
$GPGSA,A,3,21,11,05,12,25,06,19,,,,,,1.52,1.21,0.91*02
$GPRMC,084426.000,A,3018.4462,N,12004.7387,E,0.15,0.00,270326,,,A*66
$GPGGA,084427.000,3018.4461,N,12004.7388,E,1,7,1.21,10.5,M,7.0,M,,*59
$GPGLL,3018.4461,N,12004.7388,E,084427.000,A,A*5A
$GPGSA,A,3,21,11,05,12,25,06,19,,,,,,1.52,1.21,0.91*02
$GPRMC,084427.000,A,3018.4461,N,12004.7388,E,0.12,0.00,270326,,,A*6C
$GPGGA,084428.000,3018.4461,N,12004.7387,E,1,7,1.21,10.5,M,7.0,M,,*59
$GPGLL,3018.4461,N,12004.7387,E,084428.000,A,A*5A
$GPGSA,A,3,21,11,05,12,25,06,19,,,,,,1.52,1.21,0.91*02
$GPRMC,084428.000,A,3018.4461,N,12004.7387,E,0.04,0.00,270326,,,A*6B
$GPGGA,084429.000,3018.4461,N,12004.7387,E,1,7,1.21,10.5,M,7.0,M,,*58
$GPGLL,3018.4461,N,12004.7387,E,084429.000,A,A*5B
$GPGSA,A,3,21,11,05,12,25,06,19,,,,,,1.52,1.21,0.91*02
$GPRMC,084429.000,A,3018.4461,N,12004.7387,E,0.07,0.00,270326,,,A*69
$GPGGA,084430.000,3018.4461,N,12004.7388,E,1,8,1.11,10.6,M,7.0,M,,*50
$GPGLL,3018.4461,N,12004.7388,E,084430.000,A,A*5C
$GPGSA,A,3,21,11,05,12,25,06,09,19,,,,,1.42,1.11,0.89*00
$GPRMC,084430.000,A,3018.4461,N,12004.7388,E,0.15,0.00,270326,,,A*6D
$GPGGA,084431.000,3018.4461,N,12004.7388,E,1,9,1.10,10.5,M,7.0,M,,*52
$GPGLL,3018.4461,N,12004.7388,E,084431.000,A,A*5D
$GPGSA,A,3,21,11,05,12,25,06,09,19,195,,,,1.40,1.10,0.87*30
$GPRMC,084431.000,A,3018.4461,N,12004.7388,E,0.09,0.00,270326,,,A*61
$GPGGA,084432.000,3018.4460,N,12004.7389,E,1,9,1.10,10.5,M,7.0,M,,*51
$GPGLL,3018.4460,N,12004.7389,E,084432.000,A,A*5E
$GPGSA,A,3,21,11,05,12,25,06,09,19,195,,,,1.40,1.10,0.87*30
$GPRMC,084432.000,A,3018.4460,N,12004.7389,E,0.29,0.00,270326,,,A*60
$GPGGA,084433.000,3018.4460,N,12004.7390,E,1,8,1.18,10.5,M,7.0,M,,*51
$GPGLL,3018.4460,N,12004.7390,E,084433.000,A,A*57
$GPGSA,A,3,21,11,05,12,25,06,19,195,,,,,1.49,1.18,0.90*3E
$GPRMC,084433.000,A,3018.4460,N,12004.7390,E,0.34,0.00,270326,,,A*65
$GPGGA,084434.000,3018.4459,N,12004.7391,E,1,8,1.18,10.5,M,7.0,M,,*5D
$GPGLL,3018.4459,N,12004.7391,E,084434.000,A,A*5B
$GPGSA,A,3,21,11,05,12,25,06,19,195,,,,,1.49,1.18,0.90*3E
$GPRMC,084434.000,A,3018.4459,N,12004.7391,E,0.23,0.00,270326,,,A*6F
$GPGGA,084435.000,3018.4458,N,12004.7392,E,1,8,1.18,10.6,M,7.0,M,,*5D
$GPGLL,3018.4458,N,12004.7392,E,084435.000,A,A*58
$GPGSA,A,3,21,11,05,12,25,06,19,195,,,,,1.49,1.18,0.90*3E
$GPRMC,084435.000,A,3018.4458,N,12004.7392,E,0.38,0.00,270326,,,A*66
$GPGGA,084436.000,3018.4457,N,12004.7392,E,1,8,1.18,10.6,M,7.0,M,,*51
$GPGLL,3018.4457,N,12004.7392,E,084436.000,A,A*54
$GPGSA,A,3,21,11,05,12,25,06,19,195,,,,,1.49,1.18,0.90*3E
$GPRMC,084436.000,A,3018.4457,N,12004.7392,E,0.10,0.00,270326,,,A*60
$GPGGA,084437.000,3018.4457,N,12004.7392,E,1,8,1.18,10.6,M,7.0,M,,*50
$GPGLL,3018.4457,N,12004.7392,E,084437.000,A,A*55
$GPGSA,A,3,21,11,05,12,25,06,19,195,,,,,1.49,1.18,0.90*3E
$GPRMC,084437.000,A,3018.4457,N,12004.7392,E,0.16,0.00,270326,,,A*67
$GPGGA,084438.000,3018.4456,N,12004.7392,E,1,8,1.18,10.7,M,7.0,M,,*5F
$GPGLL,3018.4456,N,12004.7392,E,084438.000,A,A*5B
$GPGSA,A,3,21,11,05,12,25,06,19,195,,,,,1.49,1.18,0.90*3E
$GPRMC,084438.000,A,3018.4456,N,12004.7392,E,0.09,0.00,270326,,,A*67
$GPGGA,084439.000,3018.4455,N,12004.7393,E,1,8,1.18,10.7,M,7.0,M,,*5C
$GPGLL,3018.4455,N,12004.7393,E,084439.000,A,A*58
$GPGSA,A,3,21,11,05,12,25,06,19,195,,,,,1.49,1.18,0.90*3E
$GPRMC,084439.000,A,3018.4455,N,12004.7393,E,0.12,0.00,270326,,,A*6E
$GPGGA,084440.000,3018.4454,N,12004.7393,E,1,9,1.02,10.7,M,7.0,M,,*59
$GPGLL,3018.4454,N,12004.7393,E,084440.000,A,A*57
$GPGSA,A,3,21,11,05,12,25,06,17,19,195,,,,1.32,1.02,0.85*3B
$GPRMC,084440.000,A,3018.4454,N,12004.7393,E,0.19,0.00,270326,,,A*6A
$GPGGA,084441.000,3018.4454,N,12004.7393,E,1,8,1.18,10.6,M,7.0,M,,*53
$GPGLL,3018.4454,N,12004.7393,E,084441.000,A,A*56
$GPGSA,A,3,21,11,05,12,25,06,19,195,,,,,1.49,1.18,0.90*3E
$GPRMC,084441.000,A,3018.4454,N,12004.7393,E,0.13,0.00,270326,,,A*61
$GPGGA,084442.000,3018.4453,N,12004.7393,E,1,8,1.18,10.7,M,7.0,M,,*56
$GPGLL,3018.4453,N,12004.7393,E,084442.000,A,A*52
$GPGSA,A,3,21,11,05,12,25,06,19,195,,,,,1.49,1.18,0.90*3E
$GPRMC,084442.000,A,3018.4453,N,12004.7393,E,0.16,0.00,270326,,,A*60
$GPGGA,084443.000,3018.4453,N,12004.7394,E,1,8,1.18,10.7,M,7.0,M,,*50
$GPGLL,3018.4453,N,12004.7394,E,084443.000,A,A*54
$GPGSA,A,3,21,11,05,12,25,06,19,195,,,,,1.49,1.18,0.90*3E
$GPRMC,084443.000,A,3018.4453,N,12004.7394,E,0.15,0.00,270326,,,A*65
$GPGGA,084444.000,3018.4453,N,12004.7394,E,1,8,1.18,10.7,M,7.0,M,,*57
$GPGLL,3018.4453,N,12004.7394,E,084444.000,A,A*53
$GPGSA,A,3,21,11,05,12,25,06,19,195,,,,,1.49,1.18,0.90*3E
$GPRMC,084444.000,A,3018.4453,N,12004.7394,E,0.16,0.00,270326,,,A*61
$GPGGA,084445.000,3018.4453,N,12004.7394,E,1,8,1.18,10.7,M,7.0,M,,*56
$GPGLL,3018.4453,N,12004.7394,E,084445.000,A,A*52
$GPGSA,A,3,21,11,05,12,25,06,19,195,,,,,1.49,1.18,0.90*3E
$GPRMC,084445.000,A,3018.4453,N,12004.7394,E,0.11,0.00,270326,,,A*67
$GPGGA,084446.000,3018.4453,N,12004.7394,E,1,9,1.02,10.6,M,7.0,M,,*5E
$GPGLL,3018.4453,N,12004.7394,E,084446.000,A,A*51
$GPGSA,A,3,21,11,05,12,25,06,17,19,195,,,,1.32,1.02,0.85*3B
$GPRMC,084446.000,A,3018.4453,N,12004.7394,E,0.20,0.00,270326,,,A*66
$GPGGA,084447.000,3018.4454,N,12004.7394,E,1,8,1.18,10.6,M,7.0,M,,*52
$GPGLL,3018.4454,N,12004.7394,E,084447.000,A,A*57
$GPGSA,A,3,21,11,05,12,25,06,19,195,,,,,1.49,1.18,0.90*3E
$GPRMC,084447.000,A,3018.4454,N,12004.7394,E,0.25,0.00,270326,,,A*65
$GPGGA,084448.000,3018.4455,N,12004.7393,E,1,8,1.18,10.6,M,7.0,M,,*5B
$GPGLL,3018.4455,N,12004.7393,E,084448.000,A,A*5E
$GPGSA,A,3,21,11,05,12,25,06,19,195,,,,,1.49,1.18,0.90*3E
$GPRMC,084448.000,A,3018.4455,N,12004.7393,E,0.31,0.00,270326,,,A*69
$GPGGA,084449.000,3018.4455,N,12004.7393,E,1,8,1.18,10.6,M,7.0,M,,*5A
$GPGLL,3018.4455,N,12004.7393,E,084449.000,A,A*5F
$GPGSA,A,3,21,11,05,12,25,06,19,195,,,,,1.49,1.18,0.90*3E
$GPRMC,084449.000,A,3018.4455,N,12004.7393,E,0.24,0.00,270326,,,A*6C
$GPGGA,084450.000,3018.4455,N,12004.7392,E,1,8,1.18,10.6,M,7.0,M,,*53
$GPGLL,3018.4455,N,12004.7392,E,084450.000,A,A*56
$GPGSA,A,3,21,11,05,12,25,06,19,195,,,,,1.49,1.18,0.90*3E
$GPRMC,084450.000,A,3018.4455,N,12004.7392,E,0.27,0.00,270326,,,A*66
$GPGGA,084451.000,3018.4456,N,12004.7391,E,1,8,1.18,10.6,M,7.0,M,,*52
$GPGLL,3018.4456,N,12004.7391,E,084451.000,A,A*57
$GPGSA,A,3,21,11,05,12,25,06,19,195,,,,,1.49,1.18,0.90*3E
$GPRMC,084451.000,A,3018.4456,N,12004.7391,E,0.24,0.00,270326,,,A*64
$GPGGA,084452.000,3018.4457,N,12004.7391,E,1,8,1.18,10.6,M,7.0,M,,*50
$GPGLL,3018.4457,N,12004.7391,E,084452.000,A,A*55
$GPGSA,A,3,21,11,05,12,25,06,19,195,,,,,1.49,1.18,0.90*3E
$GPRMC,084452.000,A,3018.4457,N,12004.7391,E,0.26,0.00,270326,,,A*64
$GPGGA,084453.000,3018.4456,N,12004.7391,E,1,8,1.18,10.6,M,7.0,M,,*50
$GPGLL,3018.4456,N,12004.7391,E,084453.000,A,A*55
$GPGSA,A,3,21,11,05,12,25,06,19,195,,,,,1.49,1.18,0.90*3E
$GPRMC,084453.000,A,3018.4456,N,12004.7391,E,0.09,0.00,270326,,,A*69
$GPGGA,084454.000,3018.4457,N,12004.7391,E,1,8,1.18,10.6,M,7.0,M,,*56
$GPGLL,3018.4457,N,12004.7391,E,084454.000,A,A*53
$GPGSA,A,3,21,11,05,12,25,06,19,195,,,,,1.49,1.18,0.90*3E
$GPRMC,084454.000,A,3018.4457,N,12004.7391,E,0.16,0.00,270326,,,A*61
$GPGGA,084455.000,3018.4457,N,12004.7391,E,1,8,1.18,10.7,M,7.0,M,,*56
$GPGLL,3018.4457,N,12004.7391,E,084455.000,A,A*52
$GPGSA,A,3,21,11,05,12,25,06,19,195,,,,,1.49,1.18,0.90*3E
$GPRMC,084455.000,A,3018.4457,N,12004.7391,E,0.32,0.00,270326,,,A*66
$GPGGA,084456.000,3018.4456,N,12004.7391,E,1,8,1.18,10.6,M,7.0,M,,*55
$GPGLL,3018.4456,N,12004.7391,E,084456.000,A,A*50
$GPGSA,A,3,21,11,05,12,25,06,19,195,,,,,1.49,1.18,0.90*3E
$GPRMC,084456.000,A,3018.4456,N,12004.7391,E,0.58,129.95,270326,,,A*6E
$GPGGA,084457.000,3018.4456,N,12004.7392,E,1,8,1.18,10.5,M,7.0,M,,*54
$GPGLL,3018.4456,N,12004.7392,E,084457.000,A,A*52
$GPGSA,A,3,21,11,05,12,25,06,19,195,,,,,1.49,1.18,0.90*3E
$GPRMC,084457.000,A,3018.4456,N,12004.7392,E,0.64,121.35,270326,,,A*61
$GPGGA,084458.000,3018.4456,N,12004.7391,E,1,8,1.18,10.4,M,7.0,M,,*59
$GPGLL,3018.4456,N,12004.7391,E,084458.000,A,A*5E
$GPGSA,A,3,21,11,05,12,25,06,19,195,,,,,1.49,1.18,0.90*3E
$GPRMC,084458.000,A,3018.4456,N,12004.7391,E,0.58,121.35,270326,,,A*62
$GPGGA,084459.000,3018.4455,N,12004.7393,E,1,8,1.18,10.4,M,7.0,M,,*59
$GPGLL,3018.4455,N,12004.7393,E,084459.000,A,A*5E
$GPGSA,A,3,21,11,05,12,25,06,19,195,,,,,1.49,1.18,0.90*3E
$GPRMC,084459.000,A,3018.4455,N,12004.7393,E,0.76,109.57,270326,,,A*60
$GPGGA,084500.000,3018.4454,N,12004.7395,E,1,8,1.18,10.3,M,7.0,M,,*54
$GPGLL,3018.4454,N,12004.7395,E,084500.000,A,A*54
$GPGSA,A,3,21,11,05,12,25,06,19,195,,,,,1.49,1.18,0.90*3E
$GPRMC,084500.000,A,3018.4454,N,12004.7395,E,0.78,112.30,270326,,,A*6F
$GPGGA,084501.000,3018.4453,N,12004.7397,E,1,8,1.18,10.2,M,7.0,M,,*51
$GPGLL,3018.4453,N,12004.7397,E,084501.000,A,A*50
$GPGSA,A,3,21,11,05,12,25,06,19,195,,,,,1.49,1.18,0.90*3E
$GPRMC,084501.000,A,3018.4453,N,12004.7397,E,0.90,114.72,270326,,,A*6D
$GPGGA,084502.000,3018.4452,N,12004.7400,E,1,8,1.18,10.1,M,7.0,M,,*59
$GPGLL,3018.4452,N,12004.7400,E,084502.000,A,A*5B
$GPGSA,A,3,21,11,05,12,25,06,19,195,,,,,1.49,1.18,0.90*3E
$GPRMC,084502.000,A,3018.4452,N,12004.7400,E,1.16,114.75,270326,,,A*6E
$GPGGA,084503.000,3018.4451,N,12004.7403,E,1,8,1.18,9.9,M,7.0,M,,*68
$GPGLL,3018.4451,N,12004.7403,E,084503.000,A,A*5A
$GPGSA,A,3,21,11,05,12,25,06,19,195,,,,,1.49,1.18,0.90*3E
$GPRMC,084503.000,A,3018.4451,N,12004.7403,E,1.14,113.15,270326,,,A*6C
$GPGGA,084504.000,3018.4450,N,12004.7404,E,1,8,1.18,9.9,M,7.0,M,,*69
$GPGLL,3018.4450,N,12004.7404,E,084504.000,A,A*5B
$GPGSA,A,3,21,11,05,12,25,06,19,195,,,,,1.49,1.18,0.90*3E
$GPRMC,084504.000,A,3018.4450,N,12004.7404,E,0.80,128.92,270326,,,A*66
$GPGGA,084505.000,3018.4449,N,12004.7406,E,1,8,1.18,9.6,M,7.0,M,,*6D
$GPGLL,3018.4449,N,12004.7406,E,084505.000,A,A*50
$GPGSA,A,3,21,11,05,12,25,06,19,195,,,,,1.49,1.18,0.90*3E
$GPRMC,084505.000,A,3018.4449,N,12004.7406,E,0.97,115.00,270326,,,A*6E
$GPGGA,084506.000,3018.4448,N,12004.7408,E,1,8,1.18,9.2,M,7.0,M,,*65
$GPGLL,3018.4448,N,12004.7408,E,084506.000,A,A*5C
$GPGSA,A,3,21,11,05,12,25,06,19,195,,,,,1.49,1.18,0.90*3E
$GPRMC,084506.000,A,3018.4448,N,12004.7408,E,0.94,111.48,270326,,,A*69
$GPGGA,084507.000,3018.4448,N,12004.7411,E,1,8,1.18,8.8,M,7.0,M,,*67
$GPGLL,3018.4448,N,12004.7411,E,084507.000,A,A*55
$GPGSA,A,3,21,11,05,12,25,06,19,195,,,,,1.49,1.18,0.90*3E
$GPRMC,084507.000,A,3018.4448,N,12004.7411,E,0.94,108.76,270326,,,A*65
$GPGGA,084508.000,3018.4446,N,12004.7413,E,1,8,1.18,8.4,M,7.0,M,,*68
$GPGLL,3018.4446,N,12004.7413,E,084508.000,A,A*56
$GPGSA,A,3,21,11,05,12,25,06,19,195,,,,,1.49,1.18,0.90*3E
$GPRMC,084508.000,A,3018.4446,N,12004.7413,E,0.95,113.58,270326,,,A*61
$GPGGA,084509.000,3018.4447,N,12004.7414,E,1,9,1.02,8.2,M,7.0,M,,*63
$GPGLL,3018.4447,N,12004.7414,E,084509.000,A,A*51
$GPGSA,A,3,21,11,05,12,25,06,17,19,195,,,,1.32,1.02,0.85*3B
$GPRMC,084509.000,A,3018.4447,N,12004.7414,E,0.87,111.08,270326,,,A*62
$GPGGA,084510.000,3018.4446,N,12004.7416,E,1,9,1.02,7.8,M,7.0,M,,*6D
$GPGLL,3018.4446,N,12004.7416,E,084510.000,A,A*5A
$GPGSA,A,3,21,11,05,12,25,06,17,19,195,,,,1.32,1.02,0.85*3B
$GPRMC,084510.000,A,3018.4446,N,12004.7416,E,1.03,110.51,270326,,,A*69
$GPGGA,084511.000,3018.4445,N,12004.7419,E,1,9,1.02,7.4,M,7.0,M,,*6C
$GPGLL,3018.4445,N,12004.7419,E,084511.000,A,A*57
$GPGSA,A,3,21,11,05,12,25,06,17,19,195,,,,1.32,1.02,0.85*3B
$GPRMC,084511.000,A,3018.4445,N,12004.7419,E,1.51,113.21,270326,,,A*67
$GPGGA,084512.000,3018.4443,N,12004.7423,E,1,8,1.18,6.8,M,7.0,M,,*67
$GPGLL,3018.4443,N,12004.7423,E,084512.000,A,A*5B
$GPGSA,A,3,21,11,05,12,25,06,19,195,,,,,1.49,1.18,0.90*3E
$GPRMC,084512.000,A,3018.4443,N,12004.7423,E,1.45,113.86,270326,,,A*63
$GPGGA,084513.000,3018.4442,N,12004.7427,E,1,7,1.33,6.1,M,7.0,M,,*6C
$GPGLL,3018.4442,N,12004.7427,E,084513.000,A,A*5F
$GPGSA,A,3,21,11,05,12,06,19,195,,,,,,1.63,1.33,0.96*3E
$GPRMC,084513.000,A,3018.4442,N,12004.7427,E,1.48,106.24,270326,,,A*66
$GPGGA,084514.000,3018.4440,N,12004.7433,E,1,8,1.18,6.1,M,7.0,M,,*6A
$GPGLL,3018.4440,N,12004.7433,E,084514.000,A,A*5F
$GPGSA,A,3,21,11,05,12,06,19,195,25,,,,,1.49,1.18,0.90*3E
$GPRMC,084514.000,A,3018.4440,N,12004.7433,E,1.87,108.47,270326,,,A*6E
$GPGGA,084515.000,3018.4439,N,12004.7437,E,1,8,1.18,5.6,M,7.0,M,,*65
$GPGLL,3018.4439,N,12004.7437,E,084515.000,A,A*54
$GPGSA,A,3,21,11,05,12,06,19,195,25,,,,,1.49,1.18,0.90*3E
$GPRMC,084515.000,A,3018.4439,N,12004.7437,E,1.82,103.29,270326,,,A*63
$GPGGA,084516.000,3018.4438,N,12004.7442,E,1,8,1.18,4.9,M,7.0,M,,*6B
$GPGLL,3018.4438,N,12004.7442,E,084516.000,A,A*54
$GPGSA,A,3,21,11,05,12,06,19,195,25,,,,,1.49,1.18,0.90*3E
$GPRMC,084516.000,A,3018.4438,N,12004.7442,E,1.80,106.17,270326,,,A*69
$GPGGA,084517.000,3018.4437,N,12004.7446,E,1,8,1.18,4.2,M,7.0,M,,*6A
$GPGLL,3018.4437,N,12004.7446,E,084517.000,A,A*5E
$GPGSA,A,3,21,11,05,12,06,19,195,25,,,,,1.49,1.18,0.90*3E
$GPRMC,084517.000,A,3018.4437,N,12004.7446,E,1.80,105.57,270326,,,A*64
$GPGGA,084518.000,3018.4435,N,12004.7450,E,1,8,1.18,4.2,M,7.0,M,,*60
$GPGLL,3018.4435,N,12004.7450,E,084518.000,A,A*54
$GPGSA,A,3,21,11,05,12,06,19,195,25,,,,,1.49,1.18,0.90*3E
$GPRMC,084518.000,A,3018.4435,N,12004.7450,E,1.95,110.20,270326,,,A*6E
$GPGGA,084519.000,3018.4436,N,12004.7452,E,1,8,1.18,3.6,M,7.0,M,,*63
$GPGLL,3018.4436,N,12004.7452,E,084519.000,A,A*54
$GPGSA,A,3,21,11,05,12,06,19,195,25,,,,,1.49,1.18,0.90*3E
$GPRMC,084519.000,A,3018.4436,N,12004.7452,E,1.70,109.31,270326,,,A*6D
$GPGGA,084520.000,3018.4434,N,12004.7456,E,1,8,1.18,3.0,M,7.0,M,,*69
$GPGLL,3018.4434,N,12004.7456,E,084520.000,A,A*58
$GPGSA,A,3,21,11,05,12,06,19,195,25,,,,,1.49,1.18,0.90*3E
$GPRMC,084520.000,A,3018.4434,N,12004.7456,E,1.72,110.48,270326,,,A*65
$GPGGA,084521.000,3018.4432,N,12004.7461,E,1,8,1.18,2.2,M,7.0,M,,*69
$GPGLL,3018.4432,N,12004.7461,E,084521.000,A,A*5B
$GPGSA,A,3,21,11,05,12,06,19,195,25,,,,,1.49,1.18,0.90*3E
$GPRMC,084521.000,A,3018.4432,N,12004.7461,E,1.73,114.79,270326,,,A*61
$GPGGA,084522.000,3018.4429,N,12004.7467,E,1,9,1.02,2.2,M,7.0,M,,*6C
$GPGLL,3018.4429,N,12004.7467,E,084522.000,A,A*54
$GPGSA,A,3,21,11,05,12,06,17,19,195,25,,,,1.32,1.02,0.85*3B
$GPRMC,084522.000,A,3018.4429,N,12004.7467,E,2.03,116.65,270326,,,A*65
$GPGGA,084523.000,3018.4427,N,12004.7471,E,1,8,1.18,1.6,M,7.0,M,,*69
$GPGLL,3018.4427,N,12004.7471,E,084523.000,A,A*5C
$GPGSA,A,3,21,11,05,12,06,19,195,25,,,,,1.49,1.18,0.90*3E
$GPRMC,084523.000,A,3018.4427,N,12004.7471,E,2.03,113.35,270326,,,A*6D
$GPGGA,084524.000,3018.4425,N,12004.7475,E,1,8,1.18,1.6,M,7.0,M,,*68
$GPGLL,3018.4425,N,12004.7475,E,084524.000,A,A*5D
$GPGSA,A,3,21,11,05,12,06,19,195,25,,,,,1.49,1.18,0.90*3E
$GPRMC,084524.000,A,3018.4425,N,12004.7475,E,2.11,114.42,270326,,,A*68
$GPGGA,084525.000,3018.4422,N,12004.7478,E,1,8,1.18,1.6,M,7.0,M,,*63
$GPGLL,3018.4422,N,12004.7478,E,084525.000,A,A*56
$GPGSA,A,3,21,11,05,12,06,19,195,25,,,,,1.49,1.18,0.90*3E
$GPRMC,084525.000,A,3018.4422,N,12004.7478,E,2.09,116.09,270326,,,A*67
$GPGGA,084526.000,3018.4420,N,12004.7479,E,1,8,1.18,1.2,M,7.0,M,,*67
$GPGLL,3018.4420,N,12004.7479,E,084526.000,A,A*56
$GPGSA,A,3,21,11,05,12,06,19,195,25,,,,,1.49,1.18,0.90*3E
$GPRMC,084526.000,A,3018.4420,N,12004.7479,E,2.04,119.32,270326,,,A*6D
$GPGGA,084527.000,3018.4419,N,12004.7481,E,1,8,1.18,0.8,M,7.0,M,,*60
$GPGLL,3018.4419,N,12004.7481,E,084527.000,A,A*5A
$GPGSA,A,3,21,11,05,12,06,19,195,25,,,,,1.49,1.18,0.90*3E
$GPRMC,084527.000,A,3018.4419,N,12004.7481,E,1.98,116.54,270326,,,A*68
$GPGGA,084528.000,3018.4418,N,12004.7483,E,1,9,1.02,0.8,M,7.0,M,,*66
$GPGLL,3018.4418,N,12004.7483,E,084528.000,A,A*56
$GPGSA,A,3,21,11,05,12,06,17,19,195,25,,,,1.32,1.02,0.85*3B
$GPRMC,084528.000,A,3018.4418,N,12004.7483,E,2.00,114.72,270326,,,A*60
$GPGGA,084529.000,3018.4416,N,12004.7484,E,1,9,1.02,0.5,M,7.0,M,,*63
$GPGLL,3018.4416,N,12004.7484,E,084529.000,A,A*5E
$GPGSA,A,3,21,11,05,12,06,17,19,195,25,,,,1.32,1.02,0.85*3B
$GPRMC,084529.000,A,3018.4416,N,12004.7484,E,1.97,114.94,270326,,,A*6D
$GPGGA,084530.000,3018.4415,N,12004.7485,E,1,9,1.18,0.1,M,7.0,M,,*66
$GPGLL,3018.4415,N,12004.7485,E,084530.000,A,A*54
$GPGSA,A,3,21,11,05,12,06,17,19,195,25,,,,1.49,1.18,0.90*38
$GPRMC,084530.000,A,3018.4415,N,12004.7485,E,1.95,117.21,270326,,,A*68
$GPGGA,084531.000,3018.4413,N,12004.7489,E,1,9,1.02,-0.2,M,7.0,M,,*48
$GPGLL,3018.4413,N,12004.7489,E,084531.000,A,A*5F
$GPGSA,A,3,21,11,05,12,06,17,19,195,25,,,,1.32,1.02,0.85*3B
$GPRMC,084531.000,A,3018.4413,N,12004.7489,E,1.95,115.99,270326,,,A*62
$GPGGA,084532.000,3018.4413,N,12004.7489,E,1,9,1.18,-0.6,M,7.0,M,,*44
$GPGLL,3018.4413,N,12004.7489,E,084532.000,A,A*5C
$GPGSA,A,3,21,11,05,12,06,17,19,195,25,,,,1.49,1.18,0.90*38
$GPRMC,084532.000,A,3018.4413,N,12004.7489,E,1.94,110.56,270326,,,A*66
$GPGGA,084533.000,3018.4411,N,12004.7493,E,1,8,1.18,-0.9,M,7.0,M,,*42
$GPGLL,3018.4411,N,12004.7493,E,084533.000,A,A*54
$GPGSA,A,3,21,11,05,12,06,19,195,25,,,,,1.49,1.18,0.90*3E
$GPRMC,084533.000,A,3018.4411,N,12004.7493,E,1.93,115.25,270326,,,A*68
$GPGGA,084534.000,3018.4410,N,12004.7496,E,1,8,1.18,-1.4,M,7.0,M,,*4D
$GPGLL,3018.4410,N,12004.7496,E,084534.000,A,A*57
$GPGSA,A,3,21,11,05,12,06,19,195,25,,,,,1.49,1.18,0.90*3E
$GPRMC,084534.000,A,3018.4410,N,12004.7496,E,1.69,116.00,270326,,,A*6A
$GPGGA,084535.000,3018.4409,N,12004.7499,E,1,9,1.02,-1.8,M,7.0,M,,*4D
$GPGLL,3018.4409,N,12004.7499,E,084535.000,A,A*51
$GPGSA,A,3,21,11,05,12,06,17,19,195,25,,,,1.32,1.02,0.85*3B
$GPRMC,084535.000,A,3018.4409,N,12004.7499,E,1.97,108.94,270326,,,A*6F
$GPGGA,084536.000,3018.4409,N,12004.7499,E,1,9,1.02,-2.3,M,7.0,M,,*46
$GPGLL,3018.4409,N,12004.7499,E,084536.000,A,A*52
$GPGSA,A,3,21,11,05,12,06,17,19,195,25,,,,1.32,1.02,0.85*3B
$GPRMC,084536.000,A,3018.4409,N,12004.7499,E,1.70,108.22,270326,,,A*68
$GPGGA,084537.000,3018.4408,N,12004.7503,E,1,9,1.02,-2.9,M,7.0,M,,*4E
$GPGLL,3018.4408,N,12004.7503,E,084537.000,A,A*50
$GPGSA,A,3,21,11,05,12,06,17,19,195,25,,,,1.32,1.02,0.85*3B
$GPRMC,084537.000,A,3018.4408,N,12004.7503,E,1.92,111.30,270326,,,A*6D
$GPGGA,084538.000,3018.4406,N,12004.7507,E,1,9,1.02,-3.5,M,7.0,M,,*46
$GPGLL,3018.4406,N,12004.7507,E,084538.000,A,A*55
$GPGSA,A,3,21,11,05,12,06,17,19,195,25,,,,1.32,1.02,0.85*3B
$GPRMC,084538.000,A,3018.4406,N,12004.7507,E,2.24,112.73,270326,,,A*62
$GPGGA,084539.000,3018.4403,N,12004.7507,E,1,8,1.18,-4.1,M,7.0,M,,*4B
$GPGLL,3018.4403,N,12004.7507,E,084539.000,A,A*51
$GPGSA,A,3,21,11,05,12,06,19,195,25,,,,,1.49,1.18,0.90*3E
$GPRMC,084539.000,A,3018.4403,N,12004.7507,E,2.20,124.18,270326,,,A*6A
$GPGGA,084540.000,3018.4402,N,12004.7508,E,1,8,1.18,-4.7,M,7.0,M,,*4D
$GPGLL,3018.4402,N,12004.7508,E,084540.000,A,A*51
$GPGSA,A,3,21,11,05,12,06,19,195,25,,,,,1.49,1.18,0.90*3E
$GPRMC,084540.000,A,3018.4402,N,12004.7508,E,1.76,125.10,270326,,,A*63
$GPGGA,084541.000,3018.4400,N,12004.7510,E,1,8,1.18,-5.5,M,7.0,M,,*44
$GPGLL,3018.4400,N,12004.7510,E,084541.000,A,A*5B
$GPGSA,A,3,21,11,05,12,06,19,195,25,,,,,1.49,1.18,0.90*3E
$GPRMC,084541.000,A,3018.4400,N,12004.7510,E,1.75,122.81,270326,,,A*65
$GPGGA,084542.000,3018.4399,N,12004.7513,E,1,8,1.18,-6.3,M,7.0,M,,*46
$GPGLL,3018.4399,N,12004.7513,E,084542.000,A,A*5C
$GPGSA,A,3,21,11,05,12,06,19,195,25,,,,,1.49,1.18,0.90*3E
$GPRMC,084542.000,A,3018.4399,N,12004.7513,E,1.80,105.70,270326,,,A*63
$GPGGA,084543.000,3018.4398,N,12004.7518,E,1,8,1.18,-7.0,M,7.0,M,,*4F
$GPGLL,3018.4398,N,12004.7518,E,084543.000,A,A*57
$GPGSA,A,3,21,11,05,12,06,19,195,25,,,,,1.49,1.18,0.90*3E
$GPRMC,084543.000,A,3018.4398,N,12004.7518,E,1.82,107.24,270326,,,A*69
$GPGGA,084544.000,3018.4396,N,12004.7522,E,1,8,1.18,-7.8,M,7.0,M,,*47
$GPGLL,3018.4396,N,12004.7522,E,084544.000,A,A*57
$GPGSA,A,3,21,11,05,12,06,19,195,25,,,,,1.49,1.18,0.90*3E
$GPRMC,084544.000,A,3018.4396,N,12004.7522,E,2.13,116.04,270326,,,A*60
$GPGGA,084545.000,3018.4396,N,12004.7523,E,1,8,1.18,-8.0,M,7.0,M,,*40
$GPGLL,3018.4396,N,12004.7523,E,084545.000,A,A*57
$GPGSA,A,3,21,11,05,12,06,19,195,25,,,,,1.49,1.18,0.90*3E
$GPRMC,084545.000,A,3018.4396,N,12004.7523,E,1.87,109.23,270326,,,A*65
$GPGGA,084546.000,3018.4394,N,12004.7528,E,1,8,1.18,-8.9,M,7.0,M,,*43
$GPGLL,3018.4394,N,12004.7528,E,084546.000,A,A*5D
$GPGSA,A,3,21,11,05,12,06,19,195,25,,,,,1.49,1.18,0.90*3E
$GPRMC,084546.000,A,3018.4394,N,12004.7528,E,1.36,110.42,270326,,,A*6A
$GPGGA,084547.000,3018.4392,N,12004.7534,E,1,8,1.18,-9.1,M,7.0,M,,*40
$GPGLL,3018.4392,N,12004.7534,E,084547.000,A,A*57
$GPGSA,A,3,21,11,05,12,06,19,195,25,,,,,1.49,1.18,0.90*3E
$GPRMC,084547.000,A,3018.4392,N,12004.7534,E,1.93,114.55,270326,,,A*6D
$GPGGA,084548.000,3018.4389,N,12004.7539,E,1,8,1.18,-9.7,M,7.0,M,,*4E
$GPGLL,3018.4389,N,12004.7539,E,084548.000,A,A*5F
$GPGSA,A,3,21,11,05,12,06,19,195,25,,,,,1.49,1.18,0.90*3E
$GPRMC,084548.000,A,3018.4389,N,12004.7539,E,2.18,114.90,270326,,,A*6C
$GPGGA,084549.000,3018.4386,N,12004.7544,E,1,8,1.18,-9.7,M,7.0,M,,*4A
$GPGLL,3018.4386,N,12004.7544,E,084549.000,A,A*5B
$GPGSA,A,3,21,11,05,12,06,19,195,25,,,,,1.49,1.18,0.90*3E
$GPRMC,084549.000,A,3018.4386,N,12004.7544,E,2.19,117.68,270326,,,A*6D
$GPGGA,084550.000,3018.4384,N,12004.7548,E,1,8,1.18,-10.2,M,7.0,M,,*71
$GPGLL,3018.4384,N,12004.7548,E,084550.000,A,A*5D
$GPGSA,A,3,21,11,05,12,06,19,195,25,,,,,1.49,1.18,0.90*3E
$GPRMC,084550.000,A,3018.4384,N,12004.7548,E,2.20,117.09,270326,,,A*66
$GPGGA,084551.000,3018.4382,N,12004.7551,E,1,8,1.18,-10.2,M,7.0,M,,*7E
$GPGLL,3018.4382,N,12004.7551,E,084551.000,A,A*52
$GPGSA,A,3,21,11,05,12,06,19,195,25,,,,,1.49,1.18,0.90*3E
$GPRMC,084551.000,A,3018.4382,N,12004.7551,E,2.14,119.72,270326,,,A*6C
$GPGGA,084552.000,3018.4381,N,12004.7554,E,1,8,1.18,-10.6,M,7.0,M,,*7F
$GPGLL,3018.4381,N,12004.7554,E,084552.000,A,A*57
$GPGSA,A,3,21,11,05,12,06,19,195,25,,,,,1.49,1.18,0.90*3E
$GPRMC,084552.000,A,3018.4381,N,12004.7554,E,2.09,118.23,270326,,,A*60
$GPGGA,084553.000,3018.4380,N,12004.7556,E,1,8,1.18,-11.0,M,7.0,M,,*7A
$GPGLL,3018.4380,N,12004.7556,E,084553.000,A,A*55
$GPGSA,A,3,21,11,05,12,06,19,195,25,,,,,1.49,1.18,0.90*3E
$GPRMC,084553.000,A,3018.4380,N,12004.7556,E,2.06,115.22,270326,,,A*61
$GPGGA,084554.000,3018.4379,N,12004.7559,E,1,8,1.18,-11.0,M,7.0,M,,*74
$GPGLL,3018.4379,N,12004.7559,E,084554.000,A,A*5B
$GPGSA,A,3,21,11,05,12,06,19,195,25,,,,,1.49,1.18,0.90*3E
$GPRMC,084554.000,A,3018.4379,N,12004.7559,E,2.29,113.18,270326,,,A*6D
$GPGGA,084555.000,3018.4379,N,12004.7560,E,1,8,1.18,-11.3,M,7.0,M,,*7C
$GPGLL,3018.4379,N,12004.7560,E,084555.000,A,A*50
$GPGSA,A,3,21,11,05,12,06,19,195,25,,,,,1.49,1.18,0.90*3E
$GPRMC,084555.000,A,3018.4379,N,12004.7560,E,2.09,115.61,270326,,,A*6C
$GPGGA,084556.000,3018.4379,N,12004.7563,E,1,8,1.18,-11.6,M,7.0,M,,*79
$GPGLL,3018.4379,N,12004.7563,E,084556.000,A,A*50
$GPGSA,A,3,21,11,05,12,06,19,195,25,,,,,1.49,1.18,0.90*3E
$GPRMC,084556.000,A,3018.4379,N,12004.7563,E,2.04,113.18,270326,,,A*69
$GPGGA,084557.000,3018.4380,N,12004.7566,E,1,8,1.18,-12.0,M,7.0,M,,*7E
$GPGLL,3018.4380,N,12004.7566,E,084557.000,A,A*52
$GPGSA,A,3,21,11,05,12,06,19,195,25,,,,,1.49,1.18,0.90*3E
$GPRMC,084557.000,A,3018.4380,N,12004.7566,E,2.00,113.31,270326,,,A*64
$GPGGA,084558.000,3018.4381,N,12004.7567,E,1,8,1.18,-12.3,M,7.0,M,,*72
$GPGLL,3018.4381,N,12004.7567,E,084558.000,A,A*5D
$GPGSA,A,3,21,11,05,12,06,19,195,25,,,,,1.49,1.18,0.90*3E
$GPRMC,084558.000,A,3018.4381,N,12004.7567,E,1.82,113.16,270326,,,A*67
$GPGGA,084559.000,3018.4379,N,12004.7569,E,1,8,1.18,-12.3,M,7.0,M,,*7A
$GPGLL,3018.4379,N,12004.7569,E,084559.000,A,A*55
$GPGSA,A,3,21,11,05,12,06,19,195,25,,,,,1.49,1.18,0.90*3E
$GPRMC,084559.000,A,3018.4379,N,12004.7569,E,2.02,118.85,270326,,,A*65
$GPGGA,084600.000,3018.4380,N,12004.7571,E,1,8,1.18,-12.6,M,7.0,M,,*7F
$GPGLL,3018.4380,N,12004.7571,E,084600.000,A,A*55
$GPGSA,A,3,21,11,05,12,06,19,195,25,,,,,1.49,1.18,0.90*3E
$GPRMC,084600.000,A,3018.4380,N,12004.7571,E,2.02,116.86,270326,,,A*68
$GPGGA,084601.000,3018.4382,N,12004.7570,E,1,8,1.18,-13.0,M,7.0,M,,*7A
$GPGLL,3018.4382,N,12004.7570,E,084601.000,A,A*57
$GPGSA,A,3,21,11,05,12,06,19,195,25,,,,,1.49,1.18,0.90*3E
$GPRMC,084601.000,A,3018.4382,N,12004.7570,E,1.83,117.40,270326,,,A*6B
$GPGGA,084602.000,3018.4382,N,12004.7572,E,1,8,1.18,-13.3,M,7.0,M,,*78
$GPGLL,3018.4382,N,12004.7572,E,084602.000,A,A*56
$GPGSA,A,3,21,11,05,12,06,19,195,25,,,,,1.49,1.18,0.90*3E
$GPRMC,084602.000,A,3018.4382,N,12004.7572,E,1.60,113.58,270326,,,A*6A
$GPGGA,084603.000,3018.4382,N,12004.7574,E,1,8,1.18,-13.6,M,7.0,M,,*7A
$GPGLL,3018.4382,N,12004.7574,E,084603.000,A,A*51
$GPGSA,A,3,21,11,05,12,06,19,195,25,,,,,1.49,1.18,0.90*3E
$GPRMC,084603.000,A,3018.4382,N,12004.7574,E,1.54,113.12,270326,,,A*64
$GPGGA,084604.000,3018.4381,N,12004.7576,E,1,8,1.18,-13.9,M,7.0,M,,*73
$GPGLL,3018.4381,N,12004.7576,E,084604.000,A,A*57
$GPGSA,A,3,21,11,05,12,06,19,195,25,,,,,1.49,1.18,0.90*3E
$GPRMC,084604.000,A,3018.4381,N,12004.7576,E,1.52,112.98,270326,,,A*67
$GPGGA,084605.000,3018.4381,N,12004.7577,E,1,8,1.18,-14.3,M,7.0,M,,*7E
$GPGLL,3018.4381,N,12004.7577,E,084605.000,A,A*57
$GPGSA,A,3,21,11,05,12,06,19,195,25,,,,,1.49,1.18,0.90*3E
$GPRMC,084605.000,A,3018.4381,N,12004.7577,E,1.52,115.01,270326,,,A*60
$GPGGA,084606.000,3018.4381,N,12004.7578,E,1,8,1.18,-14.6,M,7.0,M,,*77
$GPGLL,3018.4381,N,12004.7578,E,084606.000,A,A*5B
$GPGSA,A,3,21,11,05,12,06,19,195,25,,,,,1.49,1.18,0.90*3E
$GPRMC,084606.000,A,3018.4381,N,12004.7578,E,1.53,103.85,270326,,,A*66
$GPGGA,084607.000,3018.4382,N,12004.7580,E,1,8,1.18,-15.2,M,7.0,M,,*77
$GPGLL,3018.4382,N,12004.7580,E,084607.000,A,A*5E
$GPGSA,A,3,21,11,05,12,06,19,195,25,,,,,1.49,1.18,0.90*3E
$GPRMC,084607.000,A,3018.4382,N,12004.7580,E,1.31,105.05,270326,,,A*69
$GPGGA,084608.000,3018.4382,N,12004.7582,E,1,8,1.18,-15.8,M,7.0,M,,*70
$GPGLL,3018.4382,N,12004.7582,E,084608.000,A,A*53
$GPGSA,A,3,21,11,05,12,06,19,195,25,,,,,1.49,1.18,0.90*3E
$GPRMC,084608.000,A,3018.4382,N,12004.7582,E,1.17,109.48,270326,,,A*65
$GPGGA,084609.000,3018.4382,N,12004.7582,E,1,8,1.18,-16.5,M,7.0,M,,*7F
$GPGLL,3018.4382,N,12004.7582,E,084609.000,A,A*52
$GPGSA,A,3,21,11,05,12,06,19,195,25,,,,,1.49,1.18,0.90*3E
$GPRMC,084609.000,A,3018.4382,N,12004.7582,E,1.36,109.82,270326,,,A*61
$GPGGA,084610.000,3018.4381,N,12004.7585,E,1,8,1.18,-16.6,M,7.0,M,,*70
$GPGLL,3018.4381,N,12004.7585,E,084610.000,A,A*5E
$GPGSA,A,3,21,11,05,12,06,19,195,25,,,,,1.49,1.18,0.90*3E
$GPRMC,084610.000,A,3018.4381,N,12004.7585,E,2.61,117.23,270326,,,A*68
$GPGGA,084611.000,3018.4380,N,12004.7588,E,1,8,1.18,-17.1,M,7.0,M,,*7B
$GPGLL,3018.4380,N,12004.7588,E,084611.000,A,A*53
$GPGSA,A,3,21,11,05,12,06,19,195,25,,,,,1.49,1.18,0.90*3E
$GPRMC,084611.000,A,3018.4380,N,12004.7588,E,1.86,115.79,270326,,,A*62
$GPGGA,084612.000,3018.4378,N,12004.7593,E,1,8,1.18,-17.8,M,7.0,M,,*7C
$GPGLL,3018.4378,N,12004.7593,E,084612.000,A,A*5D
$GPGSA,A,3,21,11,05,12,06,19,195,25,,,,,1.49,1.18,0.90*3E
$GPRMC,084612.000,A,3018.4378,N,12004.7593,E,1.84,116.90,270326,,,A*6A
$GPGGA,084613.000,3018.4376,N,12004.7598,E,1,8,1.18,-18.4,M,7.0,M,,*7B
$GPGLL,3018.4376,N,12004.7598,E,084613.000,A,A*59
$GPGSA,A,3,21,11,05,12,06,19,195,25,,,,,1.49,1.18,0.90*3E
$GPRMC,084613.000,A,3018.4376,N,12004.7598,E,1.85,114.37,270326,,,A*60
$GPGGA,084614.000,3018.4374,N,12004.7603,E,1,8,1.18,-19.1,M,7.0,M,,*7B
$GPGLL,3018.4374,N,12004.7603,E,084614.000,A,A*5D
$GPGSA,A,3,21,11,05,12,06,19,195,25,,,,,1.49,1.18,0.90*3E
$GPRMC,084614.000,A,3018.4374,N,12004.7603,E,1.86,113.80,270326,,,A*6C
$GPGGA,084615.000,3018.4370,N,12004.7611,E,1,8,1.18,-19.1,M,7.0,M,,*7D
$GPGLL,3018.4370,N,12004.7611,E,084615.000,A,A*5B
$GPGSA,A,3,21,11,05,12,06,19,195,25,,,,,1.49,1.18,0.90*3E
$GPRMC,084615.000,A,3018.4370,N,12004.7611,E,2.32,115.17,270326,,,A*6E
$GPGGA,084616.000,3018.4368,N,12004.7615,E,1,8,1.18,-19.6,M,7.0,M,,*74
$GPGLL,3018.4368,N,12004.7615,E,084616.000,A,A*55
$GPGSA,A,3,21,11,05,12,06,19,195,25,,,,,1.49,1.18,0.90*3E
$GPRMC,084616.000,A,3018.4368,N,12004.7615,E,2.03,111.81,270326,,,A*69
$GPGGA,084617.000,3018.4368,N,12004.7618,E,1,8,1.18,-20.4,M,7.0,M,,*70
$GPGLL,3018.4368,N,12004.7618,E,084617.000,A,A*59
$GPGSA,A,3,21,11,05,12,06,19,195,25,,,,,1.49,1.18,0.90*3E
$GPRMC,084617.000,A,3018.4368,N,12004.7618,E,1.97,111.25,270326,,,A*65
$GPGGA,084618.000,3018.4366,N,12004.7622,E,1,8,1.18,-21.1,M,7.0,M,,*7C
$GPGLL,3018.4366,N,12004.7622,E,084618.000,A,A*51
$GPGSA,A,3,21,11,05,12,06,19,195,25,,,,,1.49,1.18,0.90*3E
$GPRMC,084618.000,A,3018.4366,N,12004.7622,E,1.90,111.15,270326,,,A*69
$GPGGA,084619.000,3018.4366,N,12004.7623,E,1,9,1.01,-21.1,M,7.0,M,,*75
$GPGLL,3018.4366,N,12004.7623,E,084619.000,A,A*51
$GPGSA,A,3,21,11,05,12,194,06,19,195,25,,,,1.35,1.01,0.89*09
$GPRMC,084619.000,A,3018.4366,N,12004.7623,E,1.89,113.64,270326,,,A*65
$GPGGA,084620.000,3018.4365,N,12004.7626,E,1,9,1.01,-21.6,M,7.0,M,,*7E
$GPGLL,3018.4365,N,12004.7626,E,084620.000,A,A*5D
$GPGSA,A,3,21,11,05,12,194,06,19,195,25,,,,1.34,1.01,0.89*08
$GPRMC,084620.000,A,3018.4365,N,12004.7626,E,1.89,112.79,270326,,,A*64
$GPGGA,084621.000,3018.4365,N,12004.7627,E,1,9,1.01,-21.6,M,7.0,M,,*7E
$GPGLL,3018.4365,N,12004.7627,E,084621.000,A,A*5D
$GPGSA,A,3,21,11,05,12,194,06,19,195,25,,,,1.35,1.01,0.89*09
$GPRMC,084621.000,A,3018.4365,N,12004.7627,E,1.92,112.58,270326,,,A*6D
$GPGGA,084622.000,3018.4363,N,12004.7631,E,1,9,1.01,-22.0,M,7.0,M,,*79
$GPGLL,3018.4363,N,12004.7631,E,084622.000,A,A*5F
$GPGSA,A,3,21,11,05,12,194,06,19,195,25,,,,1.34,1.01,0.89*08
$GPRMC,084622.000,A,3018.4363,N,12004.7631,E,1.25,97.11,270326,,,A*52
$GPGGA,084623.000,3018.4363,N,12004.7633,E,1,9,1.01,-22.4,M,7.0,M,,*7E
$GPGLL,3018.4363,N,12004.7633,E,084623.000,A,A*5C
$GPGSA,A,3,21,11,05,12,194,06,19,195,25,,,,1.35,1.01,0.89*09
$GPRMC,084623.000,A,3018.4363,N,12004.7633,E,1.03,70.80,270326,,,A*54
$GPGGA,084624.000,3018.4363,N,12004.7635,E,1,9,1.01,-23.0,M,7.0,M,,*7A
$GPGLL,3018.4363,N,12004.7635,E,084624.000,A,A*5D
$GPGSA,A,3,21,11,05,12,194,06,19,195,25,,,,1.34,1.01,0.89*08
$GPRMC,084624.000,A,3018.4363,N,12004.7635,E,1.06,65.36,270326,,,A*59
$GPGGA,084625.000,3018.4364,N,12004.7637,E,1,9,1.01,-23.6,M,7.0,M,,*78
$GPGLL,3018.4364,N,12004.7637,E,084625.000,A,A*59
$GPGSA,A,3,21,11,05,12,194,06,19,195,25,,,,1.34,1.01,0.89*08
$GPRMC,084625.000,A,3018.4364,N,12004.7637,E,0.86,50.69,270326,,,A*58
$GPGGA,084626.000,3018.4365,N,12004.7639,E,1,9,1.01,-24.3,M,7.0,M,,*76
$GPGLL,3018.4365,N,12004.7639,E,084626.000,A,A*55
$GPGSA,A,3,21,11,05,12,194,06,19,195,25,,,,1.34,1.01,0.89*08
$GPRMC,084626.000,A,3018.4365,N,12004.7639,E,0.87,70.72,270326,,,A*5D
$GPGGA,084627.000,3018.4366,N,12004.7641,E,1,9,1.01,-24.8,M,7.0,M,,*70
$GPGLL,3018.4366,N,12004.7641,E,084627.000,A,A*58
$GPGSA,A,3,21,11,05,12,194,06,19,195,25,,,,1.34,1.01,0.89*08
$GPRMC,084627.000,A,3018.4366,N,12004.7641,E,1.17,72.54,270326,,,A*5E
$GPGGA,084628.000,3018.4366,N,12004.7643,E,1,9,1.01,-25.4,M,7.0,M,,*70
$GPGLL,3018.4366,N,12004.7643,E,084628.000,A,A*55
$GPGSA,A,3,21,11,05,12,194,06,19,195,25,,,,1.34,1.01,0.89*08
$GPRMC,084628.000,A,3018.4366,N,12004.7643,E,0.93,64.37,270326,,,A*5C
$GPGGA,084629.000,3018.4367,N,12004.7645,E,1,9,1.01,-25.9,M,7.0,M,,*7B
$GPGLL,3018.4367,N,12004.7645,E,084629.000,A,A*53
$GPGSA,A,3,21,11,05,12,194,06,19,195,25,,,,1.34,1.01,0.89*08
$GPRMC,084629.000,A,3018.4367,N,12004.7645,E,0.69,65.94,270326,,,A*57
$GPGGA,084630.000,3018.4368,N,12004.7646,E,1,9,1.01,-26.6,M,7.0,M,,*73
$GPGLL,3018.4368,N,12004.7646,E,084630.000,A,A*57
$GPGSA,A,3,21,11,05,12,194,06,19,195,25,,,,1.34,1.01,0.89*08
$GPRMC,084630.000,A,3018.4368,N,12004.7646,E,0.64,51.70,270326,,,A*53
$GPGGA,084631.000,3018.4368,N,12004.7647,E,1,9,1.01,-27.2,M,7.0,M,,*76
$GPGLL,3018.4368,N,12004.7647,E,084631.000,A,A*57
$GPGSA,A,3,21,11,05,12,194,06,19,195,25,,,,1.35,1.01,0.89*09
$GPRMC,084631.000,A,3018.4368,N,12004.7647,E,0.72,68.83,270326,,,A*52
$GPGGA,084632.000,3018.4369,N,12004.7649,E,1,9,1.01,-27.9,M,7.0,M,,*71
$GPGLL,3018.4369,N,12004.7649,E,084632.000,A,A*5B
$GPGSA,A,3,21,11,05,12,194,06,19,195,25,,,,1.34,1.01,0.89*08
$GPRMC,084632.000,A,3018.4369,N,12004.7649,E,0.79,55.94,270326,,,A*5D
$GPGGA,084633.000,3018.4369,N,12004.7650,E,1,9,1.01,-28.6,M,7.0,M,,*78
$GPGLL,3018.4369,N,12004.7650,E,084633.000,A,A*52
$GPGSA,A,3,21,11,05,12,194,06,19,195,25,,,,1.34,1.01,0.89*08
$GPRMC,084633.000,A,3018.4369,N,12004.7650,E,0.64,45.26,270326,,,A*50
$GPGGA,084634.000,3018.4370,N,12004.7651,E,1,9,1.01,-29.2,M,7.0,M,,*73
$GPGLL,3018.4370,N,12004.7651,E,084634.000,A,A*5C
$GPGSA,A,3,21,11,05,12,194,06,19,195,25,,,,1.34,1.01,0.89*08
$GPRMC,084634.000,A,3018.4370,N,12004.7651,E,0.88,63.75,270326,,,A*5E
$GPGGA,084635.000,3018.4371,N,12004.7653,E,1,9,1.01,-29.9,M,7.0,M,,*7A
$GPGLL,3018.4371,N,12004.7653,E,084635.000,A,A*5E
$GPGSA,A,3,21,11,05,12,194,06,19,195,25,,,,1.34,1.01,0.89*08
$GPRMC,084635.000,A,3018.4371,N,12004.7653,E,0.91,57.28,270326,,,A*5B
$GPGGA,084636.000,3018.4372,N,12004.7654,E,1,9,1.01,-30.3,M,7.0,M,,*7F
$GPGLL,3018.4372,N,12004.7654,E,084636.000,A,A*59
$GPGSA,A,3,21,11,05,12,194,06,19,195,25,,,,1.34,1.01,0.89*08
$GPRMC,084636.000,A,3018.4372,N,12004.7654,E,0.87,70.28,270326,,,A*5E
$GPGGA,084637.000,3018.4372,N,12004.7656,E,1,9,1.01,-30.9,M,7.0,M,,*76
$GPGLL,3018.4372,N,12004.7656,E,084637.000,A,A*5A
$GPGSA,A,3,21,11,05,12,194,06,19,195,25,,,,1.34,1.01,0.89*08
$GPRMC,084637.000,A,3018.4372,N,12004.7656,E,0.82,48.46,270326,,,A*5B
$GPGGA,084638.000,3018.4373,N,12004.7657,E,1,9,1.01,-31.4,M,7.0,M,,*75
$GPGLL,3018.4373,N,12004.7657,E,084638.000,A,A*55
$GPGSA,A,3,21,11,05,12,194,06,19,195,25,,,,1.35,1.01,0.89*09
$GPRMC,084638.000,A,3018.4373,N,12004.7657,E,0.69,67.35,270326,,,A*58
$GPGGA,084639.000,3018.4374,N,12004.7659,E,1,9,1.01,-31.9,M,7.0,M,,*70
$GPGLL,3018.4374,N,12004.7659,E,084639.000,A,A*5D
$GPGSA,A,3,21,11,05,12,194,06,19,195,25,,,,1.34,1.01,0.89*08
$GPRMC,084639.000,A,3018.4374,N,12004.7659,E,0.50,67.35,270326,,,A*5A
$GPGGA,084640.000,3018.4374,N,12004.7660,E,1,9,1.01,-32.4,M,7.0,M,,*7A
$GPGLL,3018.4374,N,12004.7660,E,084640.000,A,A*59
$GPGSA,A,3,21,11,05,12,194,06,19,195,25,,,,1.34,1.01,0.89*08
$GPRMC,084640.000,A,3018.4374,N,12004.7660,E,1.11,95.82,270326,,,A*5B
$GPGGA,084641.000,3018.4374,N,12004.7662,E,1,9,1.01,-32.7,M,7.0,M,,*7A
$GPGLL,3018.4374,N,12004.7662,E,084641.000,A,A*5A
$GPGSA,A,3,21,11,05,12,194,06,19,195,25,,,,1.34,1.01,0.89*08
$GPRMC,084641.000,A,3018.4374,N,12004.7662,E,0.98,101.56,270326,,,A*6D
$GPGGA,084642.000,3018.4374,N,12004.7664,E,1,10,0.94,-33.0,M,7.0,M,,*4C
$GPGLL,3018.4374,N,12004.7664,E,084642.000,A,A*5F
$GPGSA,A,3,21,11,05,12,194,06,17,19,195,25,,,1.26,0.94,0.85*0C
$GPRMC,084642.000,A,3018.4374,N,12004.7664,E,0.99,83.21,270326,,,A*52
$GPGGA,084643.000,3018.4374,N,12004.7666,E,1,10,0.94,-33.4,M,7.0,M,,*4B
$GPGLL,3018.4374,N,12004.7666,E,084643.000,A,A*5C
$GPGSA,A,3,21,11,05,12,194,06,17,19,195,25,,,1.26,0.94,0.85*0C
$GPRMC,084643.000,A,3018.4374,N,12004.7666,E,1.14,101.14,270326,,,A*68
$GPGGA,084644.000,3018.4374,N,12004.7668,E,1,9,1.01,-33.9,M,7.0,M,,*7A
$GPGLL,3018.4374,N,12004.7668,E,084644.000,A,A*55
$GPGSA,A,3,21,11,05,12,194,06,19,195,25,,,,1.34,1.01,0.89*08
$GPRMC,084644.000,A,3018.4374,N,12004.7668,E,0.82,64.61,270326,,,A*5F
$GPGGA,084645.000,3018.4374,N,12004.7670,E,1,9,1.01,-34.5,M,7.0,M,,*79
$GPGLL,3018.4374,N,12004.7670,E,084645.000,A,A*5D
$GPGSA,A,3,21,11,05,12,194,06,19,195,25,,,,1.34,1.01,0.89*08
$GPRMC,084645.000,A,3018.4374,N,12004.7670,E,0.63,61.93,270326,,,A*50
$GPGGA,084646.000,3018.4375,N,12004.7671,E,1,9,1.01,-35.2,M,7.0,M,,*7C
$GPGLL,3018.4375,N,12004.7671,E,084646.000,A,A*5E
$GPGSA,A,3,21,11,05,12,194,06,19,195,25,,,,1.34,1.01,0.89*08
$GPRMC,084646.000,A,3018.4375,N,12004.7671,E,1.19,67.28,270326,,,A*59
$GPGGA,084647.000,3018.4376,N,12004.7674,E,1,10,0.94,-36.1,M,7.0,M,,*4E
$GPGLL,3018.4376,N,12004.7674,E,084647.000,A,A*59
$GPGSA,A,3,21,11,05,12,194,06,17,19,195,25,,,1.26,0.94,0.85*0C
$GPRMC,084647.000,A,3018.4376,N,12004.7674,E,0.87,65.93,270326,,,A*5A
$GPGGA,084648.000,3018.4375,N,12004.7677,E,1,10,0.94,-36.2,M,7.0,M,,*42
$GPGLL,3018.4375,N,12004.7677,E,084648.000,A,A*56
$GPGSA,A,3,21,11,05,12,194,06,17,19,195,25,,,1.26,0.94,0.85*0C
$GPRMC,084648.000,A,3018.4375,N,12004.7677,E,1.03,85.28,270326,,,A*56
$GPGGA,084649.000,3018.4377,N,12004.7676,E,1,10,0.94,-36.2,M,7.0,M,,*40
$GPGLL,3018.4377,N,12004.7676,E,084649.000,A,A*54
$GPGSA,A,3,21,11,05,12,194,06,17,19,195,25,,,1.26,0.94,0.85*0C
$GPRMC,084649.000,A,3018.4377,N,12004.7676,E,0.88,72.70,270326,,,A*53
$GPGGA,084650.000,3018.4377,N,12004.7679,E,1,10,0.94,-36.6,M,7.0,M,,*43
$GPGLL,3018.4377,N,12004.7679,E,084650.000,A,A*53
$GPGSA,A,3,21,11,05,12,194,06,17,19,195,25,,,1.26,0.94,0.85*0C
$GPRMC,084650.000,A,3018.4377,N,12004.7679,E,0.57,72.70,270326,,,A*56
$GPGGA,084651.000,3018.4377,N,12004.7679,E,1,10,0.94,-36.9,M,7.0,M,,*4D
$GPGLL,3018.4377,N,12004.7679,E,084651.000,A,A*52
$GPGSA,A,3,21,11,05,12,194,06,17,19,195,25,,,1.26,0.94,0.85*0C
$GPRMC,084651.000,A,3018.4377,N,12004.7679,E,0.95,78.72,270326,,,A*51
$GPGGA,084652.000,3018.4378,N,12004.7681,E,1,10,0.94,-37.3,M,7.0,M,,*4D
$GPGLL,3018.4378,N,12004.7681,E,084652.000,A,A*59
$GPGSA,A,3,21,11,05,12,194,06,17,19,195,25,,,1.26,0.94,0.85*0C
$GPRMC,084652.000,A,3018.4378,N,12004.7681,E,0.51,78.72,270326,,,A*52
$GPGGA,084653.000,3018.4378,N,12004.7682,E,1,10,0.94,-37.6,M,7.0,M,,*4A
$GPGLL,3018.4378,N,12004.7682,E,084653.000,A,A*5B
$GPGSA,A,3,21,11,05,12,194,06,17,19,195,25,,,1.26,0.94,0.85*0C
$GPRMC,084653.000,A,3018.4378,N,12004.7682,E,0.72,62.88,270326,,,A*5F
$GPGGA,084654.000,3018.4379,N,12004.7684,E,1,9,1.01,-37.8,M,7.0,M,,*71
$GPGLL,3018.4379,N,12004.7684,E,084654.000,A,A*5B
$GPGSA,A,3,21,11,05,12,194,06,19,195,25,,,,1.34,1.01,0.89*08
$GPRMC,084654.000,A,3018.4379,N,12004.7684,E,0.21,62.88,270326,,,A*59
$GPGGA,084655.000,3018.4379,N,12004.7683,E,1,10,0.94,-37.9,M,7.0,M,,*43
$GPGLL,3018.4379,N,12004.7683,E,084655.000,A,A*5D
$GPGSA,A,3,21,11,05,12,194,06,17,19,195,25,,,1.26,0.94,0.85*0C
$GPRMC,084655.000,A,3018.4379,N,12004.7683,E,0.14,62.88,270326,,,A*59
$GPGGA,084656.000,3018.4378,N,12004.7682,E,1,10,0.94,-37.9,M,7.0,M,,*40
$GPGLL,3018.4378,N,12004.7682,E,084656.000,A,A*5E
$GPGSA,A,3,21,11,05,12,194,06,17,19,195,25,,,1.26,0.94,0.85*0C
$GPRMC,084656.000,A,3018.4378,N,12004.7682,E,0.23,62.88,270326,,,A*5E
$GPGGA,084657.000,3018.4378,N,12004.7681,E,1,10,0.94,-37.9,M,7.0,M,,*42
$GPGLL,3018.4378,N,12004.7681,E,084657.000,A,A*5C
$GPGSA,A,3,21,11,05,12,194,06,17,19,195,25,,,1.26,0.94,0.85*0C
$GPRMC,084657.000,A,3018.4378,N,12004.7681,E,0.45,62.88,270326,,,A*5C
$GPGGA,084658.000,3018.4378,N,12004.7681,E,1,10,0.94,-38.0,M,7.0,M,,*4B
$GPGLL,3018.4378,N,12004.7681,E,084658.000,A,A*53
$GPGSA,A,3,21,11,05,12,194,06,17,19,195,25,,,1.26,0.94,0.85*0C
$GPRMC,084658.000,A,3018.4378,N,12004.7681,E,0.31,62.88,270326,,,A*50
$GPGGA,084659.000,3018.4378,N,12004.7680,E,1,9,1.01,-37.9,M,7.0,M,,*78
$GPGLL,3018.4378,N,12004.7680,E,084659.000,A,A*53
$GPGSA,A,3,21,11,05,12,194,06,19,195,25,,,,1.34,1.01,0.89*08
$GPRMC,084659.000,A,3018.4378,N,12004.7680,E,0.14,62.88,270326,,,A*57
$GPGGA,084700.000,3018.4378,N,12004.7680,E,1,10,0.94,-37.9,M,7.0,M,,*40
$GPGLL,3018.4378,N,12004.7680,E,084700.000,A,A*5E
$GPGSA,A,3,21,11,05,12,194,06,17,19,195,25,,,1.26,0.94,0.85*0C
$GPRMC,084700.000,A,3018.4378,N,12004.7680,E,0.33,62.88,270326,,,A*5F
$GPGGA,084701.000,3018.4378,N,12004.7680,E,1,10,0.94,-38.0,M,7.0,M,,*47
$GPGLL,3018.4378,N,12004.7680,E,084701.000,A,A*5F
$GPGSA,A,3,21,11,05,12,194,06,17,19,195,25,,,1.26,0.94,0.85*0C
$GPRMC,084701.000,A,3018.4378,N,12004.7680,E,0.51,62.88,270326,,,A*5A
$GPGGA,084702.000,3018.4378,N,12004.7681,E,1,10,0.94,-38.1,M,7.0,M,,*44
$GPGLL,3018.4378,N,12004.7681,E,084702.000,A,A*5D
$GPGSA,A,3,21,11,05,12,194,06,17,19,195,25,,,1.26,0.94,0.85*0C
$GPRMC,084702.000,A,3018.4378,N,12004.7681,E,0.57,62.88,270326,,,A*5E
$GPGGA,084703.000,3018.4379,N,12004.7682,E,1,10,0.94,-38.3,M,7.0,M,,*45
$GPGLL,3018.4379,N,12004.7682,E,084703.000,A,A*5E
$GPGSA,A,3,21,11,05,12,194,06,17,19,195,25,,,1.26,0.94,0.85*0C
$GPRMC,084703.000,A,3018.4379,N,12004.7682,E,0.64,64.95,270326,,,A*57
$GPGGA,084704.000,3018.4379,N,12004.7683,E,1,10,0.94,-38.4,M,7.0,M,,*44
$GPGLL,3018.4379,N,12004.7683,E,084704.000,A,A*58
$GPGSA,A,3,21,11,05,12,194,06,17,19,195,25,,,1.26,0.94,0.85*0C
$GPRMC,084704.000,A,3018.4379,N,12004.7683,E,0.61,53.53,270326,,,A*5A
$GPGGA,084705.000,3018.4380,N,12004.7684,E,1,10,0.94,-38.8,M,7.0,M,,*48
$GPGLL,3018.4380,N,12004.7684,E,084705.000,A,A*58
$GPGSA,A,3,21,11,05,12,194,06,17,19,195,25,,,1.26,0.94,0.85*0C
$GPRMC,084705.000,A,3018.4380,N,12004.7684,E,0.45,53.53,270326,,,A*5C
$GPGGA,084706.000,3018.4380,N,12004.7685,E,1,10,0.94,-39.1,M,7.0,M,,*42
$GPGLL,3018.4380,N,12004.7685,E,084706.000,A,A*5A
$GPGSA,A,3,21,11,05,12,194,06,17,19,195,25,,,1.26,0.94,0.85*0C
$GPRMC,084706.000,A,3018.4380,N,12004.7685,E,0.75,72.54,270326,,,A*59
$GPGGA,084707.000,3018.4381,N,12004.7686,E,1,10,0.94,-39.4,M,7.0,M,,*44
$GPGLL,3018.4381,N,12004.7686,E,084707.000,A,A*59
$GPGSA,A,3,21,11,05,12,194,06,17,19,195,25,,,1.26,0.94,0.85*0C
$GPRMC,084707.000,A,3018.4381,N,12004.7686,E,0.47,72.54,270326,,,A*5B
$GPGGA,084708.000,3018.4381,N,12004.7687,E,1,10,0.94,-39.5,M,7.0,M,,*4B
$GPGLL,3018.4381,N,12004.7687,E,084708.000,A,A*57
$GPGSA,A,3,21,11,05,12,194,06,17,19,195,25,,,1.26,0.94,0.85*0C
$GPRMC,084708.000,A,3018.4381,N,12004.7687,E,0.51,72.54,270326,,,A*52
$GPGGA,084709.000,3018.4381,N,12004.7688,E,1,10,0.94,-39.6,M,7.0,M,,*46
$GPGLL,3018.4381,N,12004.7688,E,084709.000,A,A*59
$GPGSA,A,3,21,11,05,12,194,06,17,19,195,25,,,1.26,0.94,0.85*0C
$GPRMC,084709.000,A,3018.4381,N,12004.7688,E,0.56,72.54,270326,,,A*5B
$GPGGA,084710.000,3018.4381,N,12004.7689,E,1,10,0.94,-39.8,M,7.0,M,,*41
$GPGLL,3018.4381,N,12004.7689,E,084710.000,A,A*50
$GPGSA,A,3,21,11,05,12,194,06,17,19,195,25,,,1.26,0.94,0.85*0C
$GPRMC,084710.000,A,3018.4381,N,12004.7689,E,0.76,67.81,270326,,,A*5C
$GPGGA,084711.000,3018.4382,N,12004.7690,E,1,10,0.94,-39.9,M,7.0,M,,*4A
$GPGLL,3018.4382,N,12004.7690,E,084711.000,A,A*5A
$GPGSA,A,3,21,11,05,12,194,06,17,19,195,25,,,1.26,0.94,0.84*0D
$GPRMC,084711.000,A,3018.4382,N,12004.7690,E,0.51,67.81,270326,,,A*53
$GPGGA,084712.000,3018.4382,N,12004.7691,E,1,10,0.94,-40.1,M,7.0,M,,*4E
$GPGLL,3018.4382,N,12004.7691,E,084712.000,A,A*58
$GPGSA,A,3,21,11,05,12,194,06,17,19,195,25,,,1.26,0.94,0.85*0C
$GPRMC,084712.000,A,3018.4382,N,12004.7691,E,0.43,67.81,270326,,,A*52
$GPGGA,084713.000,3018.4382,N,12004.7692,E,1,10,0.94,-40.3,M,7.0,M,,*4E
$GPGLL,3018.4382,N,12004.7692,E,084713.000,A,A*5A
$GPGSA,A,3,21,11,05,12,194,06,17,19,195,25,,,1.26,0.94,0.85*0C
$GPRMC,084713.000,A,3018.4382,N,12004.7692,E,0.60,92.12,270326,,,A*51
$GPGGA,084714.000,3018.4382,N,12004.7693,E,1,10,0.94,-40.4,M,7.0,M,,*4F
$GPGLL,3018.4382,N,12004.7693,E,084714.000,A,A*5C
$GPGSA,A,3,21,11,05,12,194,06,17,19,195,25,,,1.26,0.94,0.85*0C
$GPRMC,084714.000,A,3018.4382,N,12004.7693,E,0.54,92.12,270326,,,A*50
$GPGGA,084715.000,3018.4382,N,12004.7694,E,1,8,1.10,-40.5,M,7.0,M,,*7C
$GPGLL,3018.4382,N,12004.7694,E,084715.000,A,A*5A
$GPGSA,A,3,21,11,05,12,194,06,19,195,,,,,1.45,1.10,0.95*04
$GPRMC,084715.000,A,3018.4382,N,12004.7694,E,0.63,85.20,270326,,,A*55
$GPGGA,084716.000,3018.4382,N,12004.7696,E,1,9,1.01,-40.7,M,7.0,M,,*7E
$GPGLL,3018.4382,N,12004.7696,E,084716.000,A,A*5B
$GPGSA,A,3,21,11,05,12,194,06,19,195,25,,,,1.34,1.01,0.89*08
$GPRMC,084716.000,A,3018.4382,N,12004.7696,E,0.74,97.40,270326,,,A*57
$GPGGA,084717.000,3018.4382,N,12004.7698,E,1,10,0.94,-40.9,M,7.0,M,,*4A
$GPGLL,3018.4382,N,12004.7698,E,084717.000,A,A*54
$GPGSA,A,3,21,11,05,12,194,06,17,19,195,25,,,1.26,0.94,0.85*0C
$GPRMC,084717.000,A,3018.4382,N,12004.7698,E,0.82,94.88,270326,,,A*56
$GPGGA,084718.000,3018.4381,N,12004.7700,E,1,10,0.94,-41.1,M,7.0,M,,*4F
$GPGLL,3018.4381,N,12004.7700,E,084718.000,A,A*58
$GPGSA,A,3,21,11,05,12,194,06,17,19,195,25,,,1.26,0.94,0.84*0D
$GPRMC,084718.000,A,3018.4381,N,12004.7700,E,0.78,100.62,270326,,,A*67
$GPGGA,084719.000,3018.4381,N,12004.7700,E,1,10,0.94,-41.3,M,7.0,M,,*4C
$GPGLL,3018.4381,N,12004.7700,E,084719.000,A,A*59
$GPGSA,A,3,21,11,05,12,194,06,17,19,195,25,,,1.26,0.94,0.85*0C
$GPRMC,084719.000,A,3018.4381,N,12004.7700,E,0.48,100.62,270326,,,A*65
$GPGGA,084720.000,3018.4381,N,12004.7702,E,1,10,0.94,-41.4,M,7.0,M,,*43
$GPGLL,3018.4381,N,12004.7702,E,084720.000,A,A*51
$GPGSA,A,3,21,11,05,12,194,06,17,19,195,25,,,1.26,0.94,0.84*0D
$GPRMC,084720.000,A,3018.4381,N,12004.7702,E,0.53,100.62,270326,,,A*67
$GPGGA,084721.000,3018.4381,N,12004.7703,E,1,9,1.01,-41.6,M,7.0,M,,*74
$GPGLL,3018.4381,N,12004.7703,E,084721.000,A,A*51
$GPGSA,A,3,21,11,05,12,194,06,19,195,25,,,,1.34,1.01,0.89*08
$GPRMC,084721.000,A,3018.4381,N,12004.7703,E,0.49,100.62,270326,,,A*6C
$GPGGA,084722.000,3018.4381,N,12004.7704,E,1,10,0.94,-41.6,M,7.0,M,,*45
$GPGLL,3018.4381,N,12004.7704,E,084722.000,A,A*55
$GPGSA,A,3,21,11,05,12,194,06,17,19,195,25,,,1.26,0.94,0.85*0C
$GPRMC,084722.000,A,3018.4381,N,12004.7704,E,0.48,100.62,270326,,,A*69
$GPGGA,084723.000,3018.4381,N,12004.7704,E,1,9,1.01,-41.7,M,7.0,M,,*70
$GPGLL,3018.4381,N,12004.7704,E,084723.000,A,A*54
$GPGSA,A,3,21,11,05,12,194,06,19,195,25,,,,1.34,1.01,0.89*08
$GPRMC,084723.000,A,3018.4381,N,12004.7704,E,0.40,100.62,270326,,,A*60
$GPGGA,084724.000,3018.4380,N,12004.7704,E,1,10,0.94,-41.7,M,7.0,M,,*43
$GPGLL,3018.4380,N,12004.7704,E,084724.000,A,A*52
$GPGSA,A,3,21,11,05,12,194,06,17,19,195,25,,,1.26,0.94,0.85*0C
$GPRMC,084724.000,A,3018.4380,N,12004.7704,E,0.38,100.62,270326,,,A*69
$GPGGA,084725.000,3018.4381,N,12004.7705,E,1,10,0.94,-41.7,M,7.0,M,,*42
$GPGLL,3018.4381,N,12004.7705,E,084725.000,A,A*53
$GPGSA,A,3,21,11,05,12,194,06,17,19,195,25,,,1.26,0.94,0.85*0C
$GPRMC,084725.000,A,3018.4381,N,12004.7705,E,0.44,100.62,270326,,,A*63
$GPGGA,084726.000,3018.4381,N,12004.7706,E,1,10,0.94,-41.8,M,7.0,M,,*4D
$GPGLL,3018.4381,N,12004.7706,E,084726.000,A,A*53
$GPGSA,A,3,21,11,05,12,194,06,17,19,195,25,,,1.26,0.94,0.85*0C
$GPRMC,084726.000,A,3018.4381,N,12004.7706,E,0.46,100.62,270326,,,A*61
$GPGGA,084727.000,3018.4381,N,12004.7706,E,1,10,0.94,-41.8,M,7.0,M,,*4C
$GPGLL,3018.4381,N,12004.7706,E,084727.000,A,A*52
$GPGSA,A,3,21,11,05,12,194,06,17,19,195,25,,,1.26,0.94,0.85*0C
$GPRMC,084727.000,A,3018.4381,N,12004.7706,E,0.12,100.62,270326,,,A*61
$GPGGA,084728.000,3018.4381,N,12004.7706,E,1,10,0.94,-41.8,M,7.0,M,,*43
$GPGLL,3018.4381,N,12004.7706,E,084728.000,A,A*5D
$GPGSA,A,3,21,11,05,12,194,06,17,19,195,25,,,1.26,0.94,0.84*0D
$GPRMC,084728.000,A,3018.4381,N,12004.7706,E,0.28,100.62,270326,,,A*67
$GPGGA,084729.000,3018.4381,N,12004.7707,E,1,10,0.94,-41.9,M,7.0,M,,*42
$GPGLL,3018.4381,N,12004.7707,E,084729.000,A,A*5D
$GPGSA,A,3,21,11,05,12,194,06,17,19,195,25,,,1.26,0.94,0.84*0D
$GPRMC,084729.000,A,3018.4381,N,12004.7707,E,0.26,100.62,270326,,,A*69
$GPGGA,084730.000,3018.4381,N,12004.7707,E,1,9,1.01,-42.0,M,7.0,M,,*75
$GPGLL,3018.4381,N,12004.7707,E,084730.000,A,A*55
$GPGSA,A,3,21,11,05,12,194,06,19,195,25,,,,1.34,1.01,0.89*08
$GPRMC,084730.000,A,3018.4381,N,12004.7707,E,0.20,100.62,270326,,,A*67
$GPGGA,084731.000,3018.4381,N,12004.7708,E,1,9,1.01,-42.0,M,7.0,M,,*7B
$GPGLL,3018.4381,N,12004.7708,E,084731.000,A,A*5B
$GPGSA,A,3,21,11,05,12,194,06,19,195,25,,,,1.34,1.01,0.89*08
$GPRMC,084731.000,A,3018.4381,N,12004.7708,E,0.20,100.62,270326,,,A*69
$GPGGA,084732.000,3018.4381,N,12004.7708,E,1,10,0.94,-42.0,M,7.0,M,,*4D
$GPGLL,3018.4381,N,12004.7708,E,084732.000,A,A*58
$GPGSA,A,3,21,11,05,12,194,06,17,19,195,25,,,1.26,0.94,0.85*0C
$GPRMC,084732.000,A,3018.4381,N,12004.7708,E,0.08,100.62,270326,,,A*60
$GPGGA,084733.000,3018.4381,N,12004.7708,E,1,10,0.94,-42.1,M,7.0,M,,*4D
$GPGLL,3018.4381,N,12004.7708,E,084733.000,A,A*59
$GPGSA,A,3,21,11,05,12,194,06,17,19,195,25,,,1.26,0.94,0.85*0C
$GPRMC,084733.000,A,3018.4381,N,12004.7708,E,0.07,100.62,270326,,,A*6E
$GPGGA,084734.000,3018.4381,N,12004.7708,E,1,9,1.01,-42.1,M,7.0,M,,*7F
$GPGLL,3018.4381,N,12004.7708,E,084734.000,A,A*5E
$GPGSA,A,3,21,11,05,12,194,06,19,195,25,,,,1.34,1.01,0.89*08
$GPRMC,084734.000,A,3018.4381,N,12004.7708,E,0.07,100.62,270326,,,A*69
$GPGGA,084735.000,3018.4381,N,12004.7708,E,1,9,1.01,-42.1,M,7.0,M,,*7E
$GPGLL,3018.4381,N,12004.7708,E,084735.000,A,A*5F
$GPGSA,A,3,21,11,05,12,194,06,19,195,25,,,,1.34,1.01,0.89*08
$GPRMC,084735.000,A,3018.4381,N,12004.7708,E,0.13,100.62,270326,,,A*6D
$GPGGA,084736.000,3018.4381,N,12004.7707,E,1,9,1.01,-42.1,M,7.0,M,,*72
$GPGLL,3018.4381,N,12004.7707,E,084736.000,A,A*53
$GPGSA,A,3,21,11,05,12,194,06,19,195,25,,,,1.34,1.01,0.89*08
$GPRMC,084736.000,A,3018.4381,N,12004.7707,E,0.55,100.62,270326,,,A*63
$GPGGA,084737.000,3018.4382,N,12004.7706,E,1,9,1.01,-42.1,M,7.0,M,,*71
$GPGLL,3018.4382,N,12004.7706,E,084737.000,A,A*50
$GPGSA,A,3,21,11,05,12,194,06,19,195,25,,,,1.34,1.01,0.89*08
$GPRMC,084737.000,A,3018.4382,N,12004.7706,E,0.08,100.62,270326,,,A*68
$GPGGA,084738.000,3018.4381,N,12004.7706,E,1,9,1.01,-42.1,M,7.0,M,,*7D
$GPGLL,3018.4381,N,12004.7706,E,084738.000,A,A*5C
$GPGSA,A,3,21,11,05,12,194,06,19,195,25,,,,1.34,1.01,0.89*08
$GPRMC,084738.000,A,3018.4381,N,12004.7706,E,0.07,100.62,270326,,,A*6B
$GPGGA,084739.000,3018.4381,N,12004.7706,E,1,9,1.01,-42.0,M,7.0,M,,*7D
$GPGLL,3018.4381,N,12004.7706,E,084739.000,A,A*5D
$GPGSA,A,3,21,11,05,12,194,06,19,195,25,,,,1.34,1.01,0.89*08
$GPRMC,084739.000,A,3018.4381,N,12004.7706,E,0.34,100.62,270326,,,A*6A
$GPGGA,084740.000,3018.4381,N,12004.7706,E,1,9,1.01,-42.0,M,7.0,M,,*73
$GPGLL,3018.4381,N,12004.7706,E,084740.000,A,A*53
$GPGSA,A,3,21,11,05,12,194,06,19,195,25,,,,1.34,1.01,0.89*08
$GPRMC,084740.000,A,3018.4381,N,12004.7706,E,0.16,100.62,270326,,,A*64
$GPGGA,084741.000,3018.4381,N,12004.7707,E,1,9,1.01,-42.0,M,7.0,M,,*73
$GPGLL,3018.4381,N,12004.7707,E,084741.000,A,A*53
$GPGSA,A,3,21,11,05,12,194,06,19,195,25,,,,1.34,1.01,0.89*08
$GPRMC,084741.000,A,3018.4381,N,12004.7707,E,0.13,100.62,270326,,,A*61
$GPGGA,084742.000,3018.4381,N,12004.7707,E,1,9,1.01,-42.1,M,7.0,M,,*71
$GPGLL,3018.4381,N,12004.7707,E,084742.000,A,A*50
$GPGSA,A,3,21,11,05,12,194,06,19,195,25,,,,1.34,1.01,0.89*08
$GPRMC,084742.000,A,3018.4381,N,12004.7707,E,0.14,100.62,270326,,,A*65
$GPGGA,084743.000,3018.4381,N,12004.7707,E,1,9,1.01,-42.1,M,7.0,M,,*70
$GPGLL,3018.4381,N,12004.7707,E,084743.000,A,A*51
$GPGSA,A,3,21,11,05,12,194,06,19,195,25,,,,1.34,1.01,0.89*08
$GPRMC,084743.000,A,3018.4381,N,12004.7707,E,0.09,100.62,270326,,,A*68
$GPGGA,084744.000,3018.4381,N,12004.7707,E,1,9,1.01,-42.1,M,7.0,M,,*77
$GPGLL,3018.4381,N,12004.7707,E,084744.000,A,A*56
$GPGSA,A,3,21,11,05,12,194,06,19,195,25,,,,1.34,1.01,0.89*08
$GPRMC,084744.000,A,3018.4381,N,12004.7707,E,0.14,100.62,270326,,,A*63
$GPGGA,084745.000,3018.4381,N,12004.7708,E,1,9,1.01,-42.1,M,7.0,M,,*79
$GPGLL,3018.4381,N,12004.7708,E,084745.000,A,A*58
$GPGSA,A,3,21,11,05,12,194,06,19,195,25,,,,1.34,1.01,0.89*08
$GPRMC,084745.000,A,3018.4381,N,12004.7708,E,0.32,100.62,270326,,,A*69
$GPGGA,084746.000,3018.4381,N,12004.7708,E,1,9,1.01,-42.1,M,7.0,M,,*7A
$GPGLL,3018.4381,N,12004.7708,E,084746.000,A,A*5B
$GPGSA,A,3,21,11,05,12,194,06,19,195,25,,,,1.34,1.01,0.89*08
$GPRMC,084746.000,A,3018.4381,N,12004.7708,E,0.24,100.62,270326,,,A*6D
$GPGGA,084747.000,3018.4381,N,12004.7709,E,1,9,1.01,-42.1,M,7.0,M,,*7A
$GPGLL,3018.4381,N,12004.7709,E,084747.000,A,A*5B
$GPGSA,A,3,21,11,05,12,194,06,19,195,25,,,,1.34,1.01,0.89*08
$GPRMC,084747.000,A,3018.4381,N,12004.7709,E,0.21,100.62,270326,,,A*68
$GPGGA,084748.000,3018.4382,N,12004.7709,E,1,9,1.01,-42.2,M,7.0,M,,*75
$GPGLL,3018.4382,N,12004.7709,E,084748.000,A,A*57
$GPGSA,A,3,21,11,05,12,194,06,19,195,25,,,,1.34,1.01,0.89*08
$GPRMC,084748.000,A,3018.4382,N,12004.7709,E,0.16,100.62,270326,,,A*60
$GPGGA,084749.000,3018.4381,N,12004.7709,E,1,9,1.01,-42.2,M,7.0,M,,*77
$GPGLL,3018.4381,N,12004.7709,E,084749.000,A,A*55
$GPGSA,A,3,21,11,05,12,194,06,19,195,25,,,,1.34,1.01,0.89*08
$GPRMC,084749.000,A,3018.4381,N,12004.7709,E,0.13,100.62,270326,,,A*67
$GPGGA,084750.000,3018.4382,N,12004.7709,E,1,9,1.09,-42.3,M,7.0,M,,*75
$GPGLL,3018.4382,N,12004.7709,E,084750.000,A,A*5E
$GPGSA,A,3,21,11,05,12,194,06,19,195,25,,,,2.22,1.09,1.93*0E
$GPRMC,084750.000,A,3018.4382,N,12004.7709,E,0.11,100.62,270326,,,A*6E
$GPGGA,084751.000,3018.4382,N,12004.7709,E,1,9,1.01,-42.4,M,7.0,M,,*7B
$GPGLL,3018.4382,N,12004.7709,E,084751.000,A,A*5F
$GPGSA,A,3,21,11,05,12,194,06,19,195,25,,,,1.34,1.01,0.89*08
$GPRMC,084751.000,A,3018.4382,N,12004.7709,E,0.09,100.62,270326,,,A*66
$GPGGA,084752.000,3018.4381,N,12004.7709,E,1,9,1.09,-42.4,M,7.0,M,,*73
$GPGLL,3018.4381,N,12004.7709,E,084752.000,A,A*5F
$GPGSA,A,3,21,11,05,12,194,06,19,195,25,,,,2.22,1.09,1.93*0E
$GPRMC,084752.000,A,3018.4381,N,12004.7709,E,0.06,100.62,270326,,,A*69
$GPGGA,084753.000,3018.4381,N,12004.7709,E,1,9,1.09,-42.5,M,7.0,M,,*73
$GPGLL,3018.4381,N,12004.7709,E,084753.000,A,A*5E
$GPGSA,A,3,21,11,05,12,194,06,19,195,25,,,,2.22,1.09,1.93*0E
$GPRMC,084753.000,A,3018.4381,N,12004.7709,E,0.04,100.62,270326,,,A*6A
$GPGGA,084754.000,3018.4381,N,12004.7709,E,1,9,1.09,-42.5,M,7.0,M,,*74
$GPGLL,3018.4381,N,12004.7709,E,084754.000,A,A*59
$GPGSA,A,3,21,11,05,12,194,06,19,195,25,,,,2.21,1.09,1.93*0D
$GPRMC,084754.000,A,3018.4381,N,12004.7709,E,0.03,100.62,270326,,,A*6A
$GPGGA,084755.000,3018.4382,N,12004.7709,E,1,9,1.09,-42.6,M,7.0,M,,*75
$GPGLL,3018.4382,N,12004.7709,E,084755.000,A,A*5B
$GPGSA,A,3,21,11,05,12,194,06,19,195,25,,,,2.22,1.09,1.93*0E
$GPRMC,084755.000,A,3018.4382,N,12004.7709,E,0.04,100.62,270326,,,A*6F
$GPGGA,084756.000,3018.4381,N,12004.7708,E,1,8,1.31,-42.6,M,7.0,M,,*7E
$GPGLL,3018.4381,N,12004.7708,E,084756.000,A,A*5A
$GPGSA,A,3,21,11,05,12,194,19,195,25,,,,,2.41,1.31,2.02*0D
$GPRMC,084756.000,A,3018.4381,N,12004.7708,E,0.06,100.62,270326,,,A*6C
$GPGGA,084757.000,3018.4381,N,12004.7707,E,1,8,1.31,-42.7,M,7.0,M,,*71
$GPGLL,3018.4381,N,12004.7707,E,084757.000,A,A*54
$GPGSA,A,3,21,11,05,12,194,19,195,25,,,,,2.41,1.31,2.02*0D
$GPRMC,084757.000,A,3018.4381,N,12004.7707,E,0.06,100.62,270326,,,A*62
$GPGGA,084758.000,3018.4381,N,12004.7707,E,1,8,1.31,-42.7,M,7.0,M,,*7E
$GPGLL,3018.4381,N,12004.7707,E,084758.000,A,A*5B
$GPGSA,A,3,21,11,05,12,194,19,195,25,,,,,2.41,1.31,2.02*0D
$GPRMC,084758.000,A,3018.4381,N,12004.7707,E,0.07,100.62,270326,,,A*6C
$GPGGA,084759.000,3018.4380,N,12004.7706,E,1,8,1.31,-42.7,M,7.0,M,,*7F
$GPGLL,3018.4380,N,12004.7706,E,084759.000,A,A*5A
$GPGSA,A,3,21,11,05,12,194,19,195,25,,,,,2.41,1.31,2.02*0D
$GPRMC,084759.000,A,3018.4380,N,12004.7706,E,0.07,100.62,270326,,,A*6D
$GPGGA,084800.000,3018.4380,N,12004.7705,E,1,8,1.31,-42.8,M,7.0,M,,*70
$GPGLL,3018.4380,N,12004.7705,E,084800.000,A,A*5A
$GPGSA,A,3,21,11,05,12,194,19,195,25,,,,,2.41,1.31,2.02*0D
$GPRMC,084800.000,A,3018.4380,N,12004.7705,E,0.07,100.62,270326,,,A*6D
$GPGGA,084801.000,3018.4380,N,12004.7704,E,1,8,1.31,-42.8,M,7.0,M,,*70
$GPGLL,3018.4380,N,12004.7704,E,084801.000,A,A*5A
$GPGSA,A,3,21,11,05,12,194,19,195,25,,,,,2.41,1.31,2.02*0D
$GPRMC,084801.000,A,3018.4380,N,12004.7704,E,0.06,100.62,270326,,,A*6C
$GPGGA,084802.000,3018.4379,N,12004.7703,E,1,8,1.31,-42.8,M,7.0,M,,*72
$GPGLL,3018.4379,N,12004.7703,E,084802.000,A,A*58
$GPGSA,A,3,21,11,05,12,194,19,195,25,,,,,2.41,1.31,2.02*0D
$GPRMC,084802.000,A,3018.4379,N,12004.7703,E,0.05,100.62,270326,,,A*6D
$GPGGA,084803.000,3018.4378,N,12004.7703,E,1,8,1.31,-42.8,M,7.0,M,,*72
$GPGLL,3018.4378,N,12004.7703,E,084803.000,A,A*58
$GPGSA,A,3,21,11,05,12,194,19,195,25,,,,,2.41,1.31,2.02*0D
$GPRMC,084803.000,A,3018.4378,N,12004.7703,E,0.04,100.62,270326,,,A*6C
$GPGGA,084804.000,3018.4378,N,12004.7702,E,1,8,1.31,-42.8,M,7.0,M,,*74
$GPGLL,3018.4378,N,12004.7702,E,084804.000,A,A*5E
$GPGSA,A,3,21,11,05,12,194,19,195,25,,,,,2.41,1.31,2.02*0D
$GPRMC,084804.000,A,3018.4378,N,12004.7702,E,0.03,100.62,270326,,,A*6D
$GPGGA,084805.000,3018.4378,N,12004.7702,E,1,8,1.31,-42.8,M,7.0,M,,*75
