$BDGGA,132045.000,3018.4898,N,12004.7270,E,1,11,0.88,-31.4,M,7.0,M,,*52
$BDGLL,3018.4898,N,12004.7270,E,132045.000,A,A*4B
$BDGSA,A,3,30,02,29,03,19,13,08,20,06,07,23,,1.24,0.88,0.87*12
$BDGSV,5,1,17,03,55,199,43,20,54,325,47,08,52,350,35,13,48,332,41*6D
$BDGSV,5,2,17,01,47,137,,29,44,269,41,02,39,238,37,04,37,118,*60
$BDGSV,5,3,17,30,35,199,43,16,31,176,,06,25,183,36,10,22,217,36*60
$BDGSV,5,4,17,19,21,278,37,07,20,205,30,23,20,066,24,05,17,255,28*62
$BDGSV,5,5,17,09,15,189,*53
$BDRMC,132045.000,A,3018.4898,N,12004.7270,E,0.45,315.04,270326,,,A*7C
$BDVTG,315.04,T,,M,0.45,N,0.83,K,A*25
$BDGGA,132046.000,3018.4898,N,12004.7271,E,1,11,0.88,-31.4,M,7.0,M,,*50
$BDGLL,3018.4898,N,12004.7271,E,132046.000,A,A*49
$BDGSA,A,3,30,02,29,03,19,13,08,20,06,07,23,,1.24,0.88,0.87*12
$BDGSV,5,1,17,03,55,199,42,20,54,325,46,08,52,350,31,13,48,332,41*69
$BDGSV,5,2,17,01,47,137,,29,44,269,45,02,39,238,37,04,37,118,*64
$BDGSV,5,3,17,30,35,199,39,16,31,176,,06,25,183,39,10,22,217,34*60
$BDGSV,5,4,17,19,21,278,29,07,20,205,24,23,20,066,25,05,17,255,29*68
$BDGSV,5,5,17,09,15,189,*53
$BDRMC,132046.000,A,3018.4898,N,12004.7271,E,0.36,315.04,270326,,,A*7A
$BDVTG,315.04,T,,M,0.36,N,0.67,K,A*2B
$BDGGA,132047.000,3018.4897,N,12004.7272,E,1,10,1.01,-31.5,M,7.0,M,,*5D
$BDGLL,3018.4897,N,12004.7272,E,132047.000,A,A*44
$BDGSA,A,3,30,02,29,03,13,08,20,06,07,23,,,1.37,1.01,0.93*1D
$BDGSV,5,1,17,03,55,199,42,20,54,325,46,08,52,350,31,13,48,332,41*69
$BDGSV,5,2,17,01,47,137,,29,44,269,44,02,39,238,36,04,37,118,*64
$BDGSV,5,3,17,30,35,199,41,16,31,176,,06,25,183,38,10,22,217,35*6F
$BDGSV,5,4,17,19,21,278,27,07,20,205,29,23,20,066,24,05,17,255,29*6A
$BDGSV,5,5,17,09,15,189,*53
$BDRMC,132047.000,A,3018.4897,N,12004.7272,E,0.34,315.04,270326,,,A*75
$BDVTG,315.04,T,,M,0.34,N,0.63,K,A*2D
$BDGGA,132048.000,3018.4897,N,12004.7272,E,1,11,0.88,-31.5,M,7.0,M,,*53
$BDGLL,3018.4897,N,12004.7272,E,132048.000,A,A*4B
$BDGSA,A,3,30,02,29,03,19,13,08,20,06,07,23,,1.24,0.88,0.87*12
$BDGSV,5,1,17,03,55,199,42,20,54,325,46,08,52,350,31,13,48,332,41*69
$BDGSV,5,2,17,01,47,137,,29,44,269,44,02,39,238,36,04,37,118,*64
$BDGSV,5,3,17,30,35,199,42,16,31,176,,06,25,183,37,10,22,217,35*63
$BDGSV,5,4,17,19,21,278,28,07,20,205,26,23,20,066,26,05,17,255,29*68
$BDGSV,5,5,17,09,15,189,31*51
$BDRMC,132048.000,A,3018.4897,N,12004.7272,E,0.20,315.04,270326,,,A*7F
$BDVTG,315.04,T,,M,0.20,N,0.38,K,A*26
$BDGGA,132049.000,3018.4898,N,12004.7273,E,1,11,0.88,-31.5,M,7.0,M,,*5C
$BDGLL,3018.4898,N,12004.7273,E,132049.000,A,A*44
$BDGSA,A,3,06,30,02,29,03,19,13,08,20,07,23,,1.24,0.88,0.87*12
$BDGSV,5,1,17,03,55,199,42,20,54,325,46,08,52,350,32,13,48,332,41*6A
$BDGSV,5,2,17,01,47,137,,29,44,269,45,02,39,238,36,04,37,118,*65
$BDGSV,5,3,17,30,35,199,43,16,31,176,,06,25,183,38,10,22,217,35*6D
$BDGSV,5,4,17,19,21,278,27,07,20,205,27,23,20,066,25,05,17,255,29*65
$BDGSV,5,5,17,09,15,189,30*50
$BDRMC,132049.000,A,3018.4898,N,12004.7273,E,0.13,315.04,270326,,,A*70
$BDVTG,315.04,T,,M,0.13,N,0.24,K,A*2B
$BDGGA,132050.000,3018.4898,N,12004.7273,E,1,11,0.88,-31.5,M,7.0,M,,*54
$BDGLL,3018.4898,N,12004.7273,E,132050.000,A,A*4C
$BDGSA,A,3,06,30,02,29,03,19,13,08,20,07,23,,1.24,0.88,0.87*12
$BDGSV,5,1,17,03,55,199,42,20,54,325,46,08,52,350,32,13,48,332,41*6A
$BDGSV,5,2,17,01,47,137,,29,44,269,45,02,39,238,36,04,37,118,*65
$BDGSV,5,3,17,30,35,199,43,16,31,176,,06,25,183,38,10,22,217,35*6D
$BDGSV,5,4,17,19,21,278,28,07,20,205,28,23,20,066,25,05,17,255,29*65
$BDGSV,5,5,17,09,15,189,32*52
$BDRMC,132050.000,A,3018.4898,N,12004.7273,E,0.15,315.04,270326,,,A*7E
$BDVTG,315.04,T,,M,0.15,N,0.27,K,A*2E
$BDGGA,132051.000,3018.4898,N,12004.7273,E,1,11,0.88,-31.5,M,7.0,M,,*55
$BDGLL,3018.4898,N,12004.7273,E,132051.000,A,A*4D
$BDGSA,A,3,06,30,02,29,03,19,13,08,20,07,23,,1.24,0.88,0.87*12
$BDGSV,5,1,17,03,55,199,42,20,54,325,46,08,52,350,32,13,48,332,41*6A
$BDGSV,5,2,17,01,47,137,,29,44,269,45,02,39,238,36,04,37,118,*65
$BDGSV,5,3,17,30,35,199,43,16,31,176,,06,25,183,38,10,22,217,35*6D
$BDGSV,5,4,17,19,21,278,28,07,20,205,29,23,20,066,25,05,17,255,30*6C
$BDGSV,5,5,17,09,15,189,32*52
$BDRMC,132051.000,A,3018.4898,N,12004.7273,E,0.04,315.04,270326,,,A*7F
$BDVTG,315.04,T,,M,0.04,N,0.07,K,A*2C
$BDGGA,132052.000,3018.4898,N,12004.7273,E,1,11,0.88,-31.5,M,7.0,M,,*56
$BDGLL,3018.4898,N,12004.7273,E,132052.000,A,A*4E
$BDGSA,A,3,06,30,02,29,03,19,13,08,20,07,23,,1.24,0.88,0.87*12
$BDGSV,5,1,17,03,55,199,42,20,54,325,46,08,52,350,32,13,48,332,41*6A
$BDGSV,5,2,17,01,47,137,,29,44,269,45,02,39,238,36,04,37,118,*65
$BDGSV,5,3,17,30,35,199,43,16,31,176,,06,25,183,38,10,22,217,35*6D
$BDGSV,5,4,17,19,21,278,28,07,20,205,29,23,20,066,24,05,17,255,30*6D
$BDGSV,5,5,17,09,15,189,31*51
$BDRMC,132052.000,A,3018.4898,N,12004.7273,E,0.07,315.04,270326,,,A*7F
$BDVTG,315.04,T,,M,0.07,N,0.13,K,A*2A
$BDGGA,132053.000,3018.4898,N,12004.7273,E,1,11,0.88,-31.5,M,7.0,M,,*57
$BDGLL,3018.4898,N,12004.7273,E,132053.000,A,A*4F
$BDGSA,A,3,06,30,02,29,03,19,13,08,20,07,23,,1.24,0.88,0.87*12
$BDGSV,5,1,17,03,55,199,42,20,54,325,46,08,52,350,32,13,48,332,41*6A
$BDGSV,5,2,17,01,47,137,,29,44,269,45,02,39,238,36,04,37,118,*65
$BDGSV,5,3,17,30,35,199,43,16,31,176,,06,25,183,38,10,22,217,35*6D
$BDGSV,5,4,17,19,21,278,27,07,20,205,29,23,20,066,24,05,17,255,30*62
$BDGSV,5,5,17,09,15,189,31*51
$BDRMC,132053.000,A,3018.4898,N,12004.7273,E,0.08,315.04,270326,,,A*71
$BDVTG,315.04,T,,M,0.08,N,0.15,K,A*23
$BDGGA,132054.000,3018.4898,N,12004.7273,E,1,11,0.88,-31.5,M,7.0,M,,*50
$BDGLL,3018.4898,N,12004.7273,E,132054.000,A,A*48
$BDGSA,A,3,06,30,02,29,03,19,13,08,20,07,23,,1.24,0.88,0.87*12
$BDGSV,5,1,17,03,55,199,42,20,54,325,46,08,52,350,33,13,48,332,41*6B
$BDGSV,5,2,17,01,47,137,,29,44,269,45,02,39,238,36,04,37,118,*65
$BDGSV,5,3,17,30,35,199,43,16,31,176,,06,25,183,38,10,22,217,35*6D
$BDGSV,5,4,17,19,21,278,27,07,20,205,29,23,20,066,24,05,17,255,30*62
$BDGSV,5,5,17,09,15,189,31*51
$BDRMC,132054.000,A,3018.4898,N,12004.7273,E,0.12,315.04,270326,,,A*7D
$BDVTG,315.04,T,,M,0.12,N,0.23,K,A*2D
$BDGGA,132055.000,3018.4898,N,12004.7274,E,1,11,0.88,-31.5,M,7.0,M,,*56
$BDGLL,3018.4898,N,12004.7274,E,132055.000,A,A*4E
$BDGSA,A,3,06,30,02,29,03,19,13,08,20,07,23,,1.24,0.88,0.87*12
$BDGSV,5,1,17,03,55,199,42,20,54,325,46,08,52,350,33,13,48,332,41*6B
$BDGSV,5,2,17,01,47,137,,29,44,269,45,02,39,238,36,04,37,118,*65
$BDGSV,5,3,17,30,35,199,43,16,31,176,,06,25,183,38,10,22,217,35*6D
$BDGSV,5,4,17,19,21,278,27,07,20,205,29,23,20,066,23,05,17,255,30*65
$BDGSV,5,5,17,09,15,189,32*52
$BDRMC,132055.000,A,3018.4898,N,12004.7274,E,0.10,315.04,270326,,,A*79
$BDVTG,315.04,T,,M,0.10,N,0.19,K,A*26
$BDGGA,132056.000,3018.4898,N,12004.7274,E,1,11,0.88,-31.5,M,7.0,M,,*55
$BDGLL,3018.4898,N,12004.7274,E,132056.000,A,A*4D
$BDGSA,A,3,06,30,02,29,03,19,13,08,20,07,23,,1.24,0.88,0.87*12
$BDGSV,5,1,17,03,55,199,42,20,54,325,46,08,52,350,33,13,48,332,41*6B
$BDGSV,5,2,17,01,47,137,,29,44,269,45,02,39,238,36,04,37,118,*65
$BDGSV,5,3,17,30,35,199,43,16,31,176,,06,25,183,38,10,22,217,35*6D
$BDGSV,5,4,17,19,21,278,27,07,20,205,29,23,20,066,22,05,17,255,30*64
$BDGSV,5,5,17,09,15,189,32*52
$BDRMC,132056.000,A,3018.4898,N,12004.7274,E,0.06,315.04,270326,,,A*7D
$BDVTG,315.04,T,,M,0.06,N,0.11,K,A*29
$BDGGA,132057.000,3018.4898,N,12004.7274,E,1,11,0.88,-31.5,M,7.0,M,,*54
$BDGLL,3018.4898,N,12004.7274,E,132057.000,A,A*4C
$BDGSA,A,3,06,30,02,29,03,19,13,08,20,07,23,,1.24,0.88,0.87*12
$BDGSV,5,1,17,03,55,199,42,20,54,325,46,08,52,350,34,13,48,332,41*6C
$BDGSV,5,2,17,01,47,137,,29,44,269,45,02,39,238,36,04,37,118,*65
$BDGSV,5,3,17,30,35,199,43,16,31,176,,06,25,183,38,10,22,217,35*6D
$BDGSV,5,4,17,19,21,278,29,07,20,205,29,23,20,066,22,05,17,255,30*6A
$BDGSV,5,5,17,09,15,189,32*52
$BDRMC,132057.000,A,3018.4898,N,12004.7274,E,0.15,315.04,270326,,,A*7E
$BDVTG,315.04,T,,M,0.15,N,0.27,K,A*2E
$BDGGA,132058.000,3018.4898,N,12004.7274,E,1,11,0.88,-31.5,M,7.0,M,,*5B
$BDGLL,3018.4898,N,12004.7274,E,132058.000,A,A*43
$BDGSA,A,3,06,30,02,29,03,19,13,08,20,07,23,,1.24,0.88,0.87*12
$BDGSV,5,1,17,03,55,199,42,20,54,325,46,08,52,350,34,13,48,332,41*6C
$BDGSV,5,2,17,01,47,137,,29,44,269,45,02,39,238,36,04,37,118,*65
$BDGSV,5,3,17,30,35,199,43,16,31,176,,06,25,183,38,10,22,217,35*6D
$BDGSV,5,4,17,19,21,278,29,07,20,205,29,23,20,066,22,05,17,255,30*6A
$BDGSV,5,5,17,09,15,189,30*50
$BDRMC,132058.000,A,3018.4898,N,12004.7274,E,0.04,315.04,270326,,,A*71
$BDVTG,315.04,T,,M,0.04,N,0.07,K,A*2C
$BDGGA,132059.000,3018.4898,N,12004.7274,E,1,11,0.88,-31.5,M,7.0,M,,*5A
$BDGLL,3018.4898,N,12004.7274,E,132059.000,A,A*42
$BDGSA,A,3,06,30,02,29,03,19,13,08,20,07,23,,1.24,0.88,0.87*12
$BDGSV,5,1,17,03,55,199,42,20,54,325,46,08,52,350,34,13,48,332,41*6C
$BDGSV,5,2,17,01,47,137,,29,44,269,45,02,39,238,37,04,37,118,*64
$BDGSV,5,3,17,30,35,199,43,16,31,176,,06,25,183,38,10,22,217,35*6D
$BDGSV,5,4,17,19,21,278,29,07,20,205,31,23,20,066,22,05,17,255,30*63
$BDGSV,5,5,17,09,15,189,28*59
$BDRMC,132059.000,A,3018.4898,N,12004.7274,E,0.14,315.04,270326,,,A*71
$BDVTG,315.04,T,,M,0.14,N,0.26,K,A*2E
$BDGGA,132100.000,3018.4897,N,12004.7274,E,1,11,0.88,-31.5,M,7.0,M,,*58
$BDGLL,3018.4897,N,12004.7274,E,132100.000,A,A*40
$BDGSA,A,3,06,30,02,29,03,19,13,08,20,07,23,,1.24,0.88,0.87*12
$BDGSV,5,1,17,03,55,199,42,20,54,325,46,08,52,350,34,13,48,332,39*63
$BDGSV,5,2,17,01,47,137,,29,44,269,44,02,39,238,37,04,37,118,*65
$BDGSV,5,3,17,30,35,199,43,16,31,176,,06,25,183,38,10,22,217,35*6D
$BDGSV,5,4,17,19,21,278,31,07,20,205,29,23,20,066,22,05,17,255,31*62
$BDGSV,5,5,17,09,15,189,29*58
$BDRMC,132100.000,A,3018.4897,N,12004.7274,E,0.10,315.04,270326,,,A*77
$BDVTG,315.04,T,,M,0.10,N,0.18,K,A*27
$BDGGA,132101.000,3018.4897,N,12004.7275,E,1,11,0.88,-31.5,M,7.0,M,,*58
$BDGLL,3018.4897,N,12004.7275,E,132101.000,A,A*40
$BDGSA,A,3,06,30,02,29,03,19,13,08,20,07,23,,1.24,0.88,0.87*12
$BDGSV,5,1,17,03,55,199,42,20,54,325,32,08,52,350,32,13,48,332,37*68
$BDGSV,5,2,17,01,47,137,,29,44,269,44,02,39,238,37,04,37,118,*65
$BDGSV,5,3,17,30,35,199,43,16,31,176,,06,25,183,38,10,22,217,36*6E
$BDGSV,5,4,17,19,21,278,30,07,20,205,30,23,20,066,22,05,17,255,31*6B
$BDGSV,5,5,17,09,15,189,29*58
$BDRMC,132101.000,A,3018.4897,N,12004.7275,E,0.16,315.04,270326,,,A*71
$BDVTG,315.04,T,,M,0.16,N,0.30,K,A*2B
$BDGGA,132102.000,3018.4896,N,12004.7275,E,1,11,0.88,-31.5,M,7.0,M,,*5A
$BDGLL,3018.4896,N,12004.7275,E,132102.000,A,A*42
$BDGSA,A,3,06,30,02,29,03,19,13,08,20,07,23,,1.24,0.88,0.87*12
$BDGSV,5,1,17,03,55,199,42,20,54,325,33,08,52,350,33,13,48,332,38*67
$BDGSV,5,2,17,01,47,137,,29,44,269,43,02,39,238,37,04,37,118,*62
$BDGSV,5,3,17,30,35,199,43,16,31,176,,06,25,183,38,10,22,217,36*6E
$BDGSV,5,4,17,19,21,278,30,07,20,205,31,23,20,066,22,05,17,255,30*6B
$BDGSV,5,5,17,09,15,189,28*59
$BDRMC,132102.000,A,3018.4896,N,12004.7275,E,0.16,315.04,270326,,,A*73
$BDVTG,315.04,T,,M,0.16,N,0.30,K,A*2B
$BDGGA,132103.000,3018.4896,N,12004.7275,E,1,11,0.88,-31.5,M,7.0,M,,*5B
$BDGLL,3018.4896,N,12004.7275,E,132103.000,A,A*43
$BDGSA,A,3,06,30,02,29,03,19,13,08,20,07,23,,1.24,0.88,0.87*12
$BDGSV,5,1,17,03,55,199,40,20,54,325,35,08,52,350,35,13,48,332,39*64
$BDGSV,5,2,17,01,47,137,,29,44,269,43,02,39,238,37,04,37,118,*62
$BDGSV,5,3,17,30,35,199,27,16,31,176,,06,25,183,36,10,22,217,36*62
$BDGSV,5,4,17,19,21,278,31,07,20,205,29,23,20,066,22,05,17,255,31*62
$BDGSV,5,5,17,09,15,189,27*56
$BDRMC,132103.000,A,3018.4896,N,12004.7275,E,0.11,315.04,270326,,,A*75
$BDVTG,315.04,T,,M,0.11,N,0.20,K,A*2D
$BDGGA,132104.000,3018.4896,N,12004.7275,E,1,11,0.88,-31.5,M,7.0,M,,*5C
$BDGLL,3018.4896,N,12004.7275,E,132104.000,A,A*44
$BDGSA,A,3,06,30,02,29,03,19,13,08,20,07,23,,1.24,0.88,0.87*12
$BDGSV,5,1,17,03,55,199,39,20,54,325,36,08,52,350,36,13,48,332,40*64
$BDGSV,5,2,17,01,47,137,,29,44,269,44,02,39,238,37,04,37,118,*65
$BDGSV,5,3,17,30,35,199,43,16,31,176,,06,25,183,35,10,22,217,36*63
$BDGSV,5,4,17,19,21,278,31,07,20,205,28,23,20,066,22,05,17,255,31*63
$BDGSV,5,5,17,09,15,189,26*57
$BDRMC,132104.000,A,3018.4896,N,12004.7275,E,0.05,315.04,270326,,,A*77
$BDVTG,315.04,T,,M,0.05,N,0.09,K,A*23
$BDGGA,132105.000,3018.4896,N,12004.7276,E,1,11,0.88,-31.5,M,7.0,M,,*5E
$BDGLL,3018.4896,N,12004.7276,E,132105.000,A,A*46
$BDGSA,A,3,06,30,02,29,03,19,13,08,20,07,23,,1.24,0.88,0.87*12
$BDGSV,5,1,17,03,55,199,39,20,54,325,37,08,52,350,36,13,48,332,41*64
$BDGSV,5,2,17,01,47,137,,29,44,269,44,02,39,238,37,04,37,118,*65
$BDGSV,5,3,17,30,35,199,43,16,31,176,,06,25,183,34,10,22,217,36*62
$BDGSV,5,4,17,19,21,278,33,07,20,205,21,23,20,066,22,05,17,255,31*68
$BDGSV,5,5,17,09,15,189,26*57
$BDRMC,132105.000,A,3018.4896,N,12004.7276,E,0.18,315.04,270326,,,A*79
$BDVTG,315.04,T,,M,0.18,N,0.34,K,A*21
$BDGGA,132106.000,3018.4896,N,12004.7276,E,1,11,0.88,-31.6,M,7.0,M,,*5E
$BDGLL,3018.4896,N,12004.7276,E,132106.000,A,A*45
$BDGSA,A,3,06,30,07,02,29,03,19,13,08,20,23,,1.24,0.88,0.87*12
$BDGSV,5,1,17,03,55,199,38,20,54,325,38,08,52,350,36,13,48,332,41*6A
$BDGSV,5,2,17,01,47,137,,29,44,269,44,02,39,238,36,04,37,118,*64
$BDGSV,5,3,17,30,35,199,42,16,31,176,,06,25,183,26,10,22,217,37*61
$BDGSV,5,4,17,19,21,278,31,07,20,205,28,23,20,066,23,05,17,255,31*62
$BDGSV,5,5,17,09,15,189,27*56
$BDRMC,132106.000,A,3018.4896,N,12004.7276,E,0.13,315.04,270326,,,A*71
$BDVTG,315.04,T,,M,0.13,N,0.24,K,A*2B
$BDGGA,132107.000,3018.4896,N,12004.7276,E,1,11,0.88,-31.6,M,7.0,M,,*5F
$BDGLL,3018.4896,N,12004.7276,E,132107.000,A,A*44
$BDGSA,A,3,06,30,07,02,29,03,19,13,08,20,23,,1.24,0.88,0.87*12
$BDGSV,5,1,17,03,55,199,38,20,54,325,37,08,52,350,36,13,48,332,42*66
$BDGSV,5,2,17,01,47,137,,29,44,269,44,02,39,238,29,04,37,118,*6A
$BDGSV,5,3,17,30,35,199,43,16,31,176,,06,25,183,27,10,22,217,36*60
$BDGSV,5,4,17,19,21,278,30,07,20,205,32,23,20,066,23,05,17,255,30*69
$BDGSV,5,5,17,09,15,189,28*59
$BDRMC,132107.000,A,3018.4896,N,12004.7276,E,0.20,315.04,270326,,,A*70
$BDVTG,315.04,T,,M,0.20,N,0.37,K,A*29
$BDGGA,132108.000,3018.4896,N,12004.7276,E,1,11,0.88,-31.6,M,7.0,M,,*50
$BDGLL,3018.4896,N,12004.7276,E,132108.000,A,A*4B
$BDGSA,A,3,06,30,07,02,29,03,19,13,08,20,23,,1.24,0.88,0.87*12
$BDGSV,5,1,17,03,55,199,37,20,54,325,36,08,52,350,37,13,48,332,42*69
$BDGSV,5,2,17,01,47,137,,29,44,269,44,02,39,238,39,04,37,118,*6B
$BDGSV,5,3,17,30,35,199,43,16,31,176,,06,25,183,35,10,22,217,34*61
$BDGSV,5,4,17,19,21,278,38,07,20,205,24,23,20,066,24,05,17,255,31*60
$BDGSV,5,5,17,09,15,189,29*58
$BDRMC,132108.000,A,3018.4896,N,12004.7276,E,0.13,315.04,270326,,,A*7F
$BDVTG,315.04,T,,M,0.13,N,0.25,K,A*2A
$BDGGA,132109.000,3018.4895,N,12004.7276,E,1,11,0.88,-31.6,M,7.0,M,,*52
$BDGLL,3018.4895,N,12004.7276,E,132109.000,A,A*49
$BDGSA,A,3,06,30,07,02,29,03,19,13,08,20,23,,1.24,0.88,0.87*12
$BDGSV,5,1,17,03,55,199,37,20,54,325,36,08,52,350,37,13,48,332,42*69
$BDGSV,5,2,17,01,47,137,,29,44,269,44,02,39,238,39,04,37,118,*6B
$BDGSV,5,3,17,30,35,199,42,16,31,176,,06,25,183,20,10,22,217,35*65
$BDGSV,5,4,17,19,21,278,38,07,20,205,27,23,20,066,23,05,17,255,30*65
$BDGSV,5,5,17,09,15,189,28*59
$BDRMC,132109.000,A,3018.4895,N,12004.7276,E,0.18,315.04,270326,,,A*76
$BDVTG,315.04,T,,M,0.18,N,0.33,K,A*26
$BDGGA,132110.000,3018.4896,N,12004.7275,E,1,11,0.88,-31.6,M,7.0,M,,*5A
$BDGLL,3018.4896,N,12004.7275,E,132110.000,A,A*41
$BDGSA,A,3,06,30,07,02,29,03,19,13,08,20,23,,1.24,0.88,0.87*12
$BDGSV,5,1,17,03,55,199,37,20,54,325,44,08,52,350,37,13,48,332,43*6D
$BDGSV,5,2,17,01,47,137,,29,44,269,43,02,39,238,30,04,37,118,*65
$BDGSV,5,3,17,30,35,199,42,16,31,176,,06,25,183,33,10,22,217,36*64
$BDGSV,5,4,17,19,21,278,38,07,20,205,35,23,20,066,23,05,17,255,29*6E
$BDGSV,5,5,17,09,15,189,29*58
$BDRMC,132110.000,A,3018.4896,N,12004.7275,E,0.43,315.04,270326,,,A*70
$BDVTG,315.04,T,,M,0.43,N,0.80,K,A*20
$BDGGA,132111.000,3018.4896,N,12004.7273,E,1,11,0.88,-31.6,M,7.0,M,,*5D
$BDGLL,3018.4896,N,12004.7273,E,132111.000,A,A*46
$BDGSA,A,3,06,30,07,02,29,03,19,13,08,20,23,,1.24,0.88,0.87*12
$BDGSV,5,1,17,03,55,199,39,20,54,325,37,08,52,350,23,13,48,332,36*60
$BDGSV,5,2,17,01,47,137,,29,44,269,43,02,39,238,37,04,37,118,*62
$BDGSV,5,3,17,30,35,199,42,16,31,176,,06,25,183,35,10,22,217,36*62
$BDGSV,5,4,17,19,21,278,31,07,20,205,34,23,20,066,23,05,17,255,31*6F
$BDGSV,5,5,17,09,15,189,30*50
$BDRMC,132111.000,A,3018.4896,N,12004.7273,E,0.47,315.04,270326,,,A*73
$BDVTG,315.04,T,,M,0.47,N,0.86,K,A*22
$BDGGA,132112.000,3018.4896,N,12004.7274,E,1,11,0.88,-31.6,M,7.0,M,,*59
$BDGLL,3018.4896,N,12004.7274,E,132112.000,A,A*42
$BDGSA,A,3,06,30,07,02,29,03,19,13,08,20,23,,1.24,0.88,0.87*12
$BDGSV,5,1,17,03,55,199,40,20,54,325,38,08,52,350,35,13,48,332,37*67
$BDGSV,5,2,17,01,47,137,,29,44,269,43,02,39,238,37,04,37,118,*62
$BDGSV,5,3,17,30,35,199,42,16,31,176,,06,25,183,36,10,22,217,37*60
$BDGSV,5,4,17,19,21,278,32,07,20,205,32,23,20,066,23,05,17,255,31*6A
$BDGSV,5,5,17,09,15,189,30*50
$BDRMC,132112.000,A,3018.4896,N,12004.7274,E,0.24,315.04,270326,,,A*72
$BDVTG,315.04,T,,M,0.24,N,0.45,K,A*28
$BDGGA,132113.000,3018.4896,N,12004.7272,E,1,11,0.88,-31.6,M,7.0,M,,*5E
$BDGLL,3018.4896,N,12004.7272,E,132113.000,A,A*45
$BDGSA,A,3,06,30,07,02,29,03,19,13,08,20,23,,1.24,0.88,0.87*12
$BDGSV,5,1,17,03,55,199,40,20,54,325,45,08,52,350,35,13,48,332,38*62
$BDGSV,5,2,17,01,47,137,,29,44,269,43,02,39,238,37,04,37,118,*62
$BDGSV,5,3,17,30,35,199,42,16,31,176,,06,25,183,37,10,22,217,37*61
$BDGSV,5,4,17,19,21,278,32,07,20,205,31,23,20,066,23,05,17,255,31*69
$BDGSV,5,5,17,09,15,189,30*50
$BDRMC,132113.000,A,3018.4896,N,12004.7272,E,0.16,315.04,270326,,,A*74
$BDVTG,315.04,T,,M,0.16,N,0.30,K,A*2B
$BDGGA,132114.000,3018.4896,N,12004.7273,E,1,11,0.88,-31.6,M,7.0,M,,*58
$BDGLL,3018.4896,N,12004.7273,E,132114.000,A,A*43
$BDGSA,A,3,06,30,07,02,29,03,19,13,08,20,23,,1.24,0.88,0.87*12
$BDGSV,5,1,17,03,55,199,41,20,54,325,45,08,52,350,36,13,48,332,39*61
$BDGSV,5,2,17,01,47,137,,29,44,269,44,02,39,238,37,04,37,118,*65
$BDGSV,5,3,17,30,35,199,42,16,31,176,,06,25,183,38,10,22,217,37*6E
$BDGSV,5,4,17,19,21,278,33,07,20,205,31,23,20,066,22,05,17,255,31*69
$BDGSV,5,5,17,09,15,189,29*58
$BDRMC,132114.000,A,3018.4896,N,12004.7273,E,0.04,315.04,270326,,,A*71
$BDVTG,315.04,T,,M,0.04,N,0.07,K,A*2C
$BDGGA,132115.000,3018.4896,N,12004.7273,E,1,12,0.88,-31.5,M,7.0,M,,*59
$BDGLL,3018.4896,N,12004.7273,E,132115.000,A,A*42
$BDGSA,A,3,06,30,07,02,29,03,19,13,08,20,23,10,1.24,0.88,0.87*13
$BDGSV,5,1,17,03,55,199,41,20,54,325,45,08,52,350,36,13,48,332,40*6F
$BDGSV,5,2,17,01,47,137,,29,44,269,44,02,39,238,37,04,37,118,*65
$BDGSV,5,3,17,30,35,199,42,16,31,176,,06,25,183,38,10,22,217,36*6F
$BDGSV,5,4,17,19,21,278,34,07,20,205,29,23,20,066,21,05,17,255,31*64
$BDGSV,5,5,17,09,15,189,29*58
$BDRMC,132115.000,A,3018.4896,N,12004.7273,E,0.10,315.04,270326,,,A*75
$BDVTG,315.04,T,,M,0.10,N,0.19,K,A*26
$BDGGA,132116.000,3018.4896,N,12004.7273,E,1,12,0.88,-31.5,M,7.0,M,,*5A
$BDGLL,3018.4896,N,12004.7273,E,132116.000,A,A*41
$BDGSA,A,3,06,30,07,02,29,03,19,13,08,20,23,10,1.24,0.88,0.87*13
$BDGSV,5,1,17,03,55,199,41,20,54,325,45,08,52,350,36,13,48,332,40*6F
$BDGSV,5,2,17,01,47,137,,29,44,269,44,02,39,238,37,04,37,118,*65
$BDGSV,5,3,17,30,35,199,42,16,31,176,,06,25,183,38,10,22,217,36*6F
$BDGSV,5,4,17,19,21,278,34,07,20,205,29,23,20,066,20,05,17,255,32*66
$BDGSV,5,5,17,09,15,189,28*59
$BDRMC,132116.000,A,3018.4896,N,12004.7273,E,0.12,315.04,270326,,,A*74
$BDVTG,315.04,T,,M,0.12,N,0.22,K,A*2C
$BDGGA,132117.000,3018.4896,N,12004.7272,E,1,12,0.88,-31.5,M,7.0,M,,*5A
$BDGLL,3018.4896,N,12004.7272,E,132117.000,A,A*41
$BDGSA,A,3,06,30,07,02,29,03,19,13,08,20,23,10,1.24,0.88,0.87*13
$BDGSV,5,1,17,03,55,199,41,20,54,325,45,08,52,350,36,13,48,332,40*6F
$BDGSV,5,2,17,01,47,137,,29,44,269,44,02,39,238,37,04,37,118,*65
$BDGSV,5,3,17,30,35,199,42,16,31,176,,06,25,183,38,10,22,217,36*6F
$BDGSV,5,4,17,19,21,278,32,07,20,205,28,23,20,066,20,05,17,255,31*62
$BDGSV,5,5,17,09,15,189,28*59
$BDRMC,132117.000,A,3018.4896,N,12004.7272,E,0.08,315.04,270326,,,A*7F
$BDVTG,315.04,T,,M,0.08,N,0.14,K,A*22
$BDGGA,132118.000,3018.4895,N,12004.7272,E,1,12,0.88,-31.5,M,7.0,M,,*56
$BDGLL,3018.4895,N,12004.7272,E,132118.000,A,A*4D
$BDGSA,A,3,06,30,07,02,29,03,19,13,08,20,23,10,1.24,0.88,0.87*13
$BDGSV,5,1,17,03,55,199,41,20,54,325,45,08,52,350,36,13,48,332,40*6F
$BDGSV,5,2,17,01,47,137,,29,44,269,43,02,39,238,37,04,37,118,*62
$BDGSV,5,3,17,30,35,199,42,16,31,176,,06,25,183,38,10,22,217,36*6F
$BDGSV,5,4,17,19,21,278,33,07,20,205,28,23,20,066,20,05,17,255,31*63
$BDGSV,5,5,17,09,15,189,28*59
$BDRMC,132118.000,A,3018.4895,N,12004.7272,E,0.12,315.04,270326,,,A*78
$BDVTG,315.04,T,,M,0.12,N,0.22,K,A*2C
$BDGGA,132119.000,3018.4895,N,12004.7272,E,1,12,0.88,-31.6,M,7.0,M,,*54
$BDGLL,3018.4895,N,12004.7272,E,132119.000,A,A*4C
$BDGSA,A,3,06,30,07,02,29,03,19,13,08,20,23,10,1.24,0.88,0.87*13
$BDGSV,5,1,17,03,55,199,41,20,54,325,45,08,52,350,36,13,48,332,40*6F
$BDGSV,5,2,17,01,47,137,,29,44,269,43,02,39,238,37,04,37,118,*62
$BDGSV,5,3,17,30,35,199,42,16,31,176,,06,25,183,37,10,22,217,36*60
$BDGSV,5,4,17,19,21,278,33,07,20,205,29,23,20,066,20,05,17,255,31*62
$BDGSV,5,5,17,09,15,189,26*57
$BDRMC,132119.000,A,3018.4895,N,12004.7272,E,0.17,315.04,270326,,,A*7C
$BDVTG,315.04,T,,M,0.17,N,0.32,K,A*28
$BDGGA,132120.000,3018.4895,N,12004.7271,E,1,12,0.88,-31.6,M,7.0,M,,*5D
$BDGLL,3018.4895,N,12004.7271,E,132120.000,A,A*45
$BDGSA,A,3,06,30,07,02,29,03,19,13,08,20,23,10,1.24,0.88,0.87*13
$BDGSV,5,1,17,03,55,199,41,20,54,325,45,08,52,350,36,13,48,332,40*6F
$BDGSV,5,2,17,01,47,137,,29,44,269,43,02,39,238,37,04,37,118,*62
$BDGSV,5,3,17,30,35,199,41,16,31,176,,06,25,183,26,10,22,217,35*60
$BDGSV,5,4,17,19,21,278,33,07,20,205,28,23,20,066,20,05,17,255,31*63
$BDGSV,5,5,17,09,15,189,25*54
$BDRMC,132120.000,A,3018.4895,N,12004.7271,E,0.07,315.04,270326,,,A*74
$BDVTG,315.04,T,,M,0.07,N,0.13,K,A*2A
$BDGGA,132121.000,3018.4894,N,12004.7272,E,1,12,0.88,-31.6,M,7.0,M,,*5E
$BDGLL,3018.4894,N,12004.7272,E,132121.000,A,A*46
$BDGSA,A,3,06,30,07,02,29,03,19,13,08,20,23,10,1.24,0.88,0.87*13
$BDGSV,5,1,17,03,55,199,40,20,54,325,45,08,52,350,36,13,48,332,40*6E
$BDGSV,5,2,17,01,47,137,,29,44,269,44,02,39,238,30,04,37,118,*62
$BDGSV,5,3,17,30,35,199,28,16,31,176,,06,25,183,34,10,22,217,34*6D
$BDGSV,5,4,17,19,21,278,33,07,20,205,28,23,20,066,20,05,17,255,31*63
$BDGSV,5,5,17,09,15,189,26*57
$BDRMC,132121.000,A,3018.4894,N,12004.7272,E,0.13,315.04,270326,,,A*72
$BDVTG,315.04,T,,M,0.13,N,0.25,K,A*2A
$BDGGA,132122.000,3018.4893,N,12004.7272,E,1,12,0.88,-31.6,M,7.0,M,,*5A
$BDGLL,3018.4893,N,12004.7272,E,132122.000,A,A*42
$BDGSA,A,3,06,30,07,02,29,03,19,13,08,20,23,10,1.24,0.88,0.87*13
$BDGSV,5,1,17,03,55,199,40,20,54,325,45,08,52,350,35,13,48,332,41*6C
$BDGSV,5,2,17,01,47,137,,29,44,269,43,02,39,238,32,04,37,118,*67
$BDGSV,5,3,17,30,35,199,43,16,31,176,,06,25,183,35,10,22,217,35*60
$BDGSV,5,4,17,19,21,278,33,07,20,205,28,23,20,066,20,05,17,255,31*63
$BDGSV,5,5,17,09,15,189,34*54
$BDRMC,132122.000,A,3018.4893,N,12004.7272,E,0.05,315.04,270326,,,A*71
$BDVTG,315.04,T,,M,0.05,N,0.09,K,A*23
$BDGGA,132123.000,3018.4892,N,12004.7273,E,1,12,0.88,-31.6,M,7.0,M,,*5B
$BDGLL,3018.4892,N,12004.7273,E,132123.000,A,A*43
$BDGSA,A,3,06,30,07,02,29,03,19,13,08,20,23,10,1.24,0.88,0.87*13
$BDGSV,5,1,17,03,55,199,40,20,54,325,45,08,52,350,35,13,48,332,40*6D
$BDGSV,5,2,17,01,47,137,,29,44,269,44,02,39,238,34,04,37,118,*66
$BDGSV,5,3,17,30,35,199,43,16,31,176,,06,25,183,36,10,22,217,35*63
$BDGSV,5,4,17,19,21,278,33,07,20,205,28,23,20,066,20,05,17,255,32*60
$BDGSV,5,5,17,09,15,189,25*54
$BDRMC,132123.000,A,3018.4892,N,12004.7273,E,0.13,315.04,270326,,,A*77
$BDVTG,315.04,T,,M,0.13,N,0.23,K,A*2C
$BDGGA,132124.000,3018.4892,N,12004.7273,E,1,12,0.88,-31.6,M,7.0,M,,*5C
$BDGLL,3018.4892,N,12004.7273,E,132124.000,A,A*44
$BDGSA,A,3,06,30,07,02,29,03,19,13,08,20,23,10,1.24,0.88,0.87*13
$BDGSV,5,1,17,03,55,199,41,20,54,325,45,08,52,350,28,13,48,332,40*60
$BDGSV,5,2,17,01,47,137,,29,44,269,44,02,39,238,34,04,37,118,*66
$BDGSV,5,3,17,30,35,199,43,16,31,176,,06,25,183,36,10,22,217,35*63
$BDGSV,5,4,17,19,21,278,34,07,20,205,27,23,20,066,20,05,17,255,31*6B
$BDGSV,5,5,17,09,15,189,24*55
$BDRMC,132124.000,A,3018.4892,N,12004.7273,E,0.18,315.04,270326,,,A*7B
$BDVTG,315.04,T,,M,0.18,N,0.33,K,A*26
$BDGGA,132125.000,3018.4892,N,12004.7272,E,1,12,0.88,-31.6,M,7.0,M,,*5C
$BDGLL,3018.4892,N,12004.7272,E,132125.000,A,A*44
$BDGSA,A,3,06,30,07,02,29,03,19,13,08,20,23,10,1.24,0.88,0.87*13
$BDGSV,5,1,17,03,55,199,41,20,54,325,37,08,52,350,29,13,48,332,39*6A
$BDGSV,5,2,17,01,47,137,,29,44,269,44,02,39,238,35,04,37,118,*67
$BDGSV,5,3,17,30,35,199,42,16,31,176,,06,25,183,35,10,22,217,35*61
$BDGSV,5,4,17,19,21,278,35,07,20,205,37,23,20,066,20,05,17,255,32*68
$BDGSV,5,5,17,09,15,189,26*57
$BDRMC,132125.000,A,3018.4892,N,12004.7272,E,0.18,315.04,270326,,,A*7B
$BDVTG,315.04,T,,M,0.18,N,0.34,K,A*21
$BDGGA,132126.000,3018.4891,N,12004.7272,E,1,11,1.34,-31.6,M,7.0,M,,*59
$BDGLL,3018.4891,N,12004.7272,E,132126.000,A,A*44
$BDGSA,A,3,06,30,07,02,29,03,19,13,08,20,10,,1.63,1.34,0.93*12
$BDGSV,5,1,17,03,55,199,40,20,54,325,38,08,52,350,38,13,48,332,40*6A
$BDGSV,5,2,17,01,47,137,,29,44,269,44,02,39,238,35,04,37,118,*67
$BDGSV,5,3,17,30,35,199,32,16,31,176,,06,25,183,36,10,22,217,35*65
$BDGSV,5,4,17,19,21,278,36,07,20,205,25,23,20,066,21,05,17,255,31*6A
$BDGSV,5,5,17,09,15,189,27*56
$BDRMC,132126.000,A,3018.4891,N,12004.7272,E,0.07,315.04,270326,,,A*75
$BDVTG,315.04,T,,M,0.07,N,0.13,K,A*2A
$BDGGA,132127.000,3018.4891,N,12004.7272,E,1,12,0.88,-31.7,M,7.0,M,,*5C
$BDGLL,3018.4891,N,12004.7272,E,132127.000,A,A*45
$BDGSA,A,3,06,30,07,02,29,03,19,13,08,20,23,10,1.24,0.88,0.87*13
$BDGSV,5,1,17,03,55,199,33,20,54,325,39,08,52,350,37,13,48,332,41*61
$BDGSV,5,2,17,01,47,137,,29,44,269,43,02,39,238,36,04,37,118,*63
$BDGSV,5,3,17,30,35,199,39,16,31,176,,06,25,183,29,10,22,217,36*63
$BDGSV,5,4,17,19,21,278,36,07,20,205,27,23,20,066,23,05,17,255,30*6B
$BDGSV,5,5,17,09,15,189,27*56
$BDRMC,132127.000,A,3018.4891,N,12004.7272,E,0.03,315.04,270326,,,A*70
$BDVTG,315.04,T,,M,0.03,N,0.06,K,A*2A
$BDGGA,132128.000,3018.4890,N,12004.7273,E,1,12,0.88,-31.7,M,7.0,M,,*53
$BDGLL,3018.4890,N,12004.7273,E,132128.000,A,A*4A
$BDGSA,A,3,06,30,07,02,29,03,19,13,08,20,23,10,1.24,0.88,0.87*13
$BDGSV,5,1,17,03,55,199,35,20,54,325,39,08,52,350,37,13,48,332,41*67
$BDGSV,5,2,17,01,47,137,,29,44,269,43,02,39,238,35,04,37,118,*60
$BDGSV,5,3,17,30,35,199,40,16,31,176,,06,25,183,29,10,22,217,36*6D
$BDGSV,5,4,17,19,21,278,36,07,20,205,29,23,20,066,20,05,17,255,31*67
$BDGSV,5,5,17,09,15,189,27*56
$BDRMC,132128.000,A,3018.4890,N,12004.7273,E,0.09,315.04,270326,,,A*75
$BDVTG,315.04,T,,M,0.09,N,0.17,K,A*20
$BDGGA,132129.000,3018.4890,N,12004.7273,E,1,12,0.88,-31.7,M,7.0,M,,*52
$BDGLL,3018.4890,N,12004.7273,E,132129.000,A,A*4B
$BDGSA,A,3,06,30,07,02,29,03,19,13,08,20,23,10,1.24,0.88,0.87*13
$BDGSV,5,1,17,03,55,199,36,20,54,325,39,08,52,350,37,13,48,332,42*67
$BDGSV,5,2,17,01,47,137,,29,44,269,43,02,39,238,36,04,37,118,*63
$BDGSV,5,3,17,30,35,199,40,16,31,176,,06,25,183,38,10,22,217,37*6C
$BDGSV,5,4,17,19,21,278,28,07,20,205,28,23,20,066,22,05,17,255,31*6B
$BDGSV,5,5,17,09,15,189,28*59
$BDRMC,132129.000,A,3018.4890,N,12004.7273,E,0.09,315.04,270326,,,A*74
$BDVTG,315.04,T,,M,0.09,N,0.17,K,A*20
$BDGGA,132130.000,3018.4889,N,12004.7273,E,1,12,0.88,-31.7,M,7.0,M,,*52
$BDGLL,3018.4889,N,12004.7273,E,132130.000,A,A*4B
$BDGSA,A,3,06,30,07,02,29,03,19,13,08,20,23,10,1.24,0.88,0.87*13
$BDGSV,5,1,17,03,55,199,36,20,54,325,39,08,52,350,37,13,48,332,42*67
$BDGSV,5,2,17,01,47,137,,29,44,269,44,02,39,238,36,04,37,118,*64
$BDGSV,5,3,17,30,35,199,40,16,31,176,,06,25,183,38,10,22,217,38*63
$BDGSV,5,4,17,19,21,278,29,07,20,205,28,23,20,066,22,05,17,255,30*6B
$BDGSV,5,5,17,09,15,189,30*50
$BDRMC,132130.000,A,3018.4889,N,12004.7273,E,0.06,315.04,270326,,,A*7B
$BDVTG,315.04,T,,M,0.06,N,0.11,K,A*29
$BDGGA,132131.000,3018.4888,N,12004.7274,E,1,12,0.88,-31.8,M,7.0,M,,*5A
$BDGLL,3018.4888,N,12004.7274,E,132131.000,A,A*4C
$BDGSA,A,3,06,30,07,02,29,03,19,13,08,20,23,10,1.24,0.88,0.87*13
$BDGSV,5,1,17,03,55,199,36,20,54,325,39,08,52,350,37,13,48,332,42*67
$BDGSV,5,2,17,01,47,137,,29,44,269,44,02,39,238,36,04,37,118,*64
$BDGSV,5,3,17,30,35,199,40,16,31,176,,06,25,183,38,10,22,217,38*63
$BDGSV,5,4,17,19,21,278,29,07,20,205,28,23,20,066,23,05,17,255,29*62
$BDGSV,5,5,17,09,15,189,31*51
$BDRMC,132131.000,A,3018.4888,N,12004.7274,E,0.05,315.04,270326,,,A*7F
$BDVTG,315.04,T,,M,0.05,N,0.09,K,A*23
$BDGGA,132132.000,3018.4887,N,12004.7275,E,1,12,0.88,-31.7,M,7.0,M,,*58
$BDGLL,3018.4887,N,12004.7275,E,132132.000,A,A*41
$BDGSA,A,3,06,30,07,02,29,03,19,13,08,20,23,10,1.24,0.88,0.87*13
$BDGSV,5,1,17,03,55,199,36,20,54,325,39,08,52,350,37,13,48,332,42*67
$BDGSV,5,2,17,01,47,137,,29,44,269,44,02,39,238,37,04,37,118,*65
$BDGSV,5,3,17,30,35,199,40,16,31,176,,06,25,183,38,10,22,217,38*63
$BDGSV,5,4,17,19,21,278,27,07,20,205,29,23,20,066,23,05,17,255,30*65
$BDGSV,5,5,17,09,15,189,31*51
$BDRMC,132132.000,A,3018.4887,N,12004.7275,E,0.05,315.04,270326,,,A*72
$BDVTG,315.04,T,,M,0.05,N,0.08,K,A*22
$BDGGA,132133.000,3018.4886,N,12004.7275,E,1,12,0.88,-31.8,M,7.0,M,,*57
$BDGLL,3018.4886,N,12004.7275,E,132133.000,A,A*41
$BDGSA,A,3,06,30,07,02,29,03,19,13,08,20,23,10,1.24,0.88,0.87*13
$BDGSV,5,1,17,03,55,199,36,20,54,325,39,08,52,350,36,13,48,332,42*66
$BDGSV,5,2,17,01,47,137,,29,44,269,44,02,39,238,37,04,37,118,*65
$BDGSV,5,3,17,30,35,199,40,16,31,176,,06,25,183,37,10,22,217,38*6C
$BDGSV,5,4,17,19,21,278,29,07,20,205,29,23,20,066,23,05,17,255,30*6B
$BDGSV,5,5,17,09,15,189,31*51
$BDRMC,132133.000,A,3018.4886,N,12004.7275,E,0.14,315.04,270326,,,A*72
$BDVTG,315.04,T,,M,0.14,N,0.26,K,A*2E
$BDGGA,132134.000,3018.4886,N,12004.7275,E,1,12,0.88,-31.8,M,7.0,M,,*50
$BDGLL,3018.4886,N,12004.7275,E,132134.000,A,A*46
$BDGSA,A,3,06,30,07,02,29,03,19,13,08,20,23,10,1.24,0.88,0.87*13
$BDGSV,5,1,17,03,55,199,36,20,54,325,39,08,52,350,36,13,48,332,42*66
$BDGSV,5,2,17,01,47,137,,29,44,269,44,02,39,238,37,04,37,118,*65
$BDGSV,5,3,17,30,35,199,39,16,31,176,,06,25,183,36,10,22,217,38*63
$BDGSV,5,4,17,19,21,278,30,07,20,205,22,23,20,066,23,05,17,255,30*68
$BDGSV,5,5,17,09,15,189,32*52
$BDRMC,132134.000,A,3018.4886,N,12004.7275,E,0.14,315.04,270326,,,A*75
$BDVTG,315.04,T,,M,0.14,N,0.25,K,A*2D
$BDGGA,132135.000,3018.4885,N,12004.7275,E,1,12,0.88,-31.8,M,7.0,M,,*52
$BDGLL,3018.4885,N,12004.7275,E,132135.000,A,A*44
$BDGSA,A,3,06,30,07,02,29,03,19,13,08,20,23,10,1.24,0.88,0.87*13
$BDGSV,5,1,17,03,55,199,37,20,54,325,39,08,52,350,36,13,48,332,42*67
$BDGSV,5,2,17,01,47,137,,29,44,269,44,02,39,238,37,04,37,118,*65
$BDGSV,5,3,17,30,35,199,39,16,31,176,,06,25,183,35,10,22,217,38*60
$BDGSV,5,4,17,19,21,278,29,07,20,205,23,23,20,066,23,05,17,255,31*60
$BDGSV,5,5,17,09,15,189,33*53
$BDRMC,132135.000,A,3018.4885,N,12004.7275,E,0.11,315.04,270326,,,A*72
$BDVTG,315.04,T,,M,0.11,N,0.20,K,A*2D
$BDGGA,132136.000,3018.4884,N,12004.7276,E,1,12,0.88,-31.8,M,7.0,M,,*53
$BDGLL,3018.4884,N,12004.7276,E,132136.000,A,A*45
$BDGSA,A,3,06,30,07,02,29,03,19,13,08,20,23,10,1.24,0.88,0.87*13
$BDGSV,5,1,17,03,55,199,37,20,54,325,39,08,52,350,36,13,48,332,42*67
$BDGSV,5,2,17,01,47,137,,29,44,269,43,02,39,238,37,04,37,118,*62
$BDGSV,5,3,17,30,35,199,39,16,31,176,,06,25,183,35,10,22,217,38*60
$BDGSV,5,4,17,19,21,278,31,07,20,205,23,23,20,066,23,05,17,255,31*69
$BDGSV,5,5,17,09,15,189,33*53
$BDRMC,132136.000,A,3018.4884,N,12004.7276,E,0.14,315.04,270326,,,A*76
$BDVTG,315.04,T,,M,0.14,N,0.25,K,A*2D
$BDGGA,132137.000,3018.4884,N,12004.7277,E,1,12,0.88,-31.8,M,7.0,M,,*53
$BDGLL,3018.4884,N,12004.7277,E,132137.000,A,A*45
$BDGSA,A,3,06,30,07,02,29,03,19,13,08,20,23,10,1.24,0.88,0.87*13
$BDGSV,5,1,17,03,55,199,37,20,54,325,39,08,52,350,36,13,48,332,42*67
$BDGSV,5,2,17,01,47,137,,29,44,269,43,02,39,238,37,04,37,118,*62
$BDGSV,5,3,17,30,35,199,39,16,31,176,,06,25,183,35,10,22,217,38*60
$BDGSV,5,4,17,19,21,278,31,07,20,205,22,23,20,066,23,05,17,255,31*68
$BDGSV,5,5,17,09,15,189,33*53
$BDRMC,132137.000,A,3018.4884,N,12004.7277,E,0.11,315.04,270326,,,A*73
$BDVTG,315.04,T,,M,0.11,N,0.20,K,A*2D
$BDGGA,132138.000,3018.4883,N,12004.7277,E,1,12,0.88,-31.8,M,7.0,M,,*5B
$BDGLL,3018.4883,N,12004.7277,E,132138.000,A,A*4D
$BDGSA,A,3,06,30,07,02,29,03,19,13,08,20,23,10,1.24,0.88,0.87*13
$BDGSV,5,1,17,03,55,199,38,20,54,325,39,08,52,350,36,13,48,332,42*68
$BDGSV,5,2,17,01,47,137,,29,44,269,43,02,39,238,36,04,37,118,*63
$BDGSV,5,3,17,30,35,199,40,16,31,176,,06,25,183,34,10,22,217,38*6F
$BDGSV,5,4,17,19,21,278,32,07,20,205,35,23,20,066,23,05,17,255,31*6D
$BDGSV,5,5,17,09,15,189,33*53
$BDRMC,132138.000,A,3018.4883,N,12004.7277,E,0.05,315.04,270326,,,A*7E
$BDVTG,315.04,T,,M,0.05,N,0.08,K,A*22
$BDGGA,132139.000,3018.4882,N,12004.7277,E,1,13,0.88,-31.8,M,7.0,M,,*5A
$BDGLL,3018.4882,N,12004.7277,E,132139.000,A,A*4D
$BDGSA,A,3,06,30,07,02,29,03,19,13,08,20,23,10,1.24,0.88,0.87*13
$BDGSV,5,1,17,03,55,199,38,20,54,325,39,08,52,350,36,13,48,332,42*68
$BDGSV,5,2,17,01,47,137,,29,44,269,43,02,39,238,35,04,37,118,*60
$BDGSV,5,3,17,30,35,199,41,16,31,176,,06,25,183,33,10,22,217,38*69
$BDGSV,5,4,17,19,21,278,22,07,20,205,35,23,20,066,23,05,17,255,31*6C
$BDGSV,5,5,17,09,15,189,33*53
$BDRMC,132139.000,A,3018.4882,N,12004.7277,E,0.36,315.04,270326,,,A*7E
$BDVTG,315.04,T,,M,0.36,N,0.67,K,A*2B
$BDGGA,132140.000,3018.4881,N,12004.7277,E,1,13,0.88,-31.8,M,7.0,M,,*57
$BDGLL,3018.4881,N,12004.7277,E,132140.000,A,A*40
$BDGSA,A,3,06,30,07,02,29,03,19,13,08,20,23,10,1.24,0.88,0.87*13
$BDGSV,5,1,17,03,55,199,38,20,54,325,39,08,52,350,36,13,48,332,42*68
$BDGSV,5,2,17,01,47,137,,29,44,269,43,02,39,238,35,04,37,118,*60
$BDGSV,5,3,17,30,35,199,41,16,31,176,,06,25,183,34,10,22,217,38*6E
$BDGSV,5,4,17,19,21,278,32,07,20,205,35,23,20,066,23,05,17,255,31*6D
$BDGSV,5,5,17,09,15,189,31*51
$BDRMC,132140.000,A,3018.4881,N,12004.7277,E,0.02,315.04,270326,,,A*74
$BDVTG,315.04,T,,M,0.02,N,0.03,K,A*2E
$BDGGA,132141.000,3018.4880,N,12004.7278,E,1,13,0.88,-31.8,M,7.0,M,,*58
$BDGLL,3018.4880,N,12004.7278,E,132141.000,A,A*4F
$BDGSA,A,3,06,30,07,02,29,03,19,13,08,20,23,10,1.24,0.88,0.87*13
$BDGSV,5,1,17,03,55,199,38,20,54,325,40,08,52,350,36,13,48,332,42*66
$BDGSV,5,2,17,01,47,137,,29,44,269,43,02,39,238,35,04,37,118,*60
$BDGSV,5,3,17,30,35,199,41,16,31,176,,06,25,183,34,10,22,217,38*6E
$BDGSV,5,4,17,19,21,278,32,07,20,205,34,23,20,066,23,05,17,255,31*6C
$BDGSV,5,5,17,09,15,189,30*50
$BDRMC,132141.000,A,3018.4880,N,12004.7278,E,0.05,315.04,270326,,,A*7C
$BDVTG,315.04,T,,M,0.05,N,0.09,K,A*23
$BDGGA,132142.000,3018.4879,N,12004.7279,E,1,13,0.88,-31.8,M,7.0,M,,*5C
$BDGLL,3018.4879,N,12004.7279,E,132142.000,A,A*4B
$BDGSA,A,3,06,30,07,02,29,03,19,13,08,20,23,10,1.24,0.88,0.87*13
$BDGSV,5,1,17,03,55,199,38,20,54,325,40,08,52,350,36,13,48,332,42*66
$BDGSV,5,2,17,01,47,137,,29,44,269,43,02,39,238,35,04,37,118,*60
$BDGSV,5,3,17,30,35,199,41,16,31,176,,06,25,183,34,10,22,217,38*6E
$BDGSV,5,4,17,19,21,278,31,07,20,205,34,23,20,066,23,05,17,255,31*6F
$BDGSV,5,5,17,09,15,189,29*58
$BDRMC,132142.000,A,3018.4879,N,12004.7279,E,0.10,315.04,270326,,,A*7C
$BDVTG,315.04,T,,M,0.10,N,0.19,K,A*26
$BDGGA,132143.000,3018.4879,N,12004.7280,E,1,13,0.88,-31.9,M,7.0,M,,*5A
$BDGLL,3018.4879,N,12004.7280,E,132143.000,A,A*4C
$BDGSA,A,3,06,30,07,02,29,03,19,13,08,20,23,10,1.24,0.88,0.87*13
$BDGSV,5,1,17,03,55,199,38,20,54,325,41,08,52,350,37,13,48,332,42*66
$BDGSV,5,2,17,01,47,137,,29,44,269,43,02,39,238,35,04,37,118,*60
$BDGSV,5,3,17,30,35,199,41,16,31,176,,06,25,183,34,10,22,217,38*6E
$BDGSV,5,4,17,19,21,278,31,07,20,205,34,23,20,066,24,05,17,255,32*6B
$BDGSV,5,5,17,09,15,189,29*58
$BDRMC,132143.000,A,3018.4879,N,12004.7280,E,0.04,315.04,270326,,,A*7E
$BDVTG,315.04,T,,M,0.04,N,0.08,K,A*23
$BDGGA,132144.000,3018.4878,N,12004.7281,E,1,13,0.88,-31.9,M,7.0,M,,*5D
$BDGLL,3018.4878,N,12004.7281,E,132144.000,A,A*4B
$BDGSA,A,3,06,30,07,02,29,03,19,13,08,20,23,10,1.24,0.88,0.87*13
$BDGSV,5,1,17,03,55,199,39,20,54,325,41,08,52,350,37,13,48,332,42*67
$BDGSV,5,2,17,01,47,137,,29,44,269,43,02,39,238,36,04,37,118,*63
$BDGSV,5,3,17,30,35,199,41,16,31,176,,06,25,183,33,10,22,217,37*66
$BDGSV,5,4,17,19,21,278,31,07,20,205,23,23,20,066,24,05,17,255,32*6D
$BDGSV,5,5,17,09,15,189,36*56
$BDRMC,132144.000,A,3018.4878,N,12004.7281,E,0.03,315.04,270326,,,A*7E
$BDVTG,315.04,T,,M,0.03,N,0.05,K,A*29
$BDGGA,132145.000,3018.4878,N,12004.7282,E,1,13,0.88,-31.9,M,7.0,M,,*5F
$BDGLL,3018.4878,N,12004.7282,E,132145.000,A,A*49
$BDGSA,A,3,06,30,07,02,29,03,19,13,08,20,23,10,1.24,0.88,0.87*13
$BDGSV,5,1,17,03,55,199,39,20,54,325,41,08,52,350,37,13,48,332,42*67
$BDGSV,5,2,17,01,47,137,,29,44,269,43,02,39,238,36,04,37,118,*63
$BDGSV,5,3,17,30,35,199,41,16,31,176,,06,25,183,34,10,22,217,38*6E
$BDGSV,5,4,17,19,21,278,30,07,20,205,32,23,20,066,24,05,17,255,30*6E
$BDGSV,5,5,17,09,15,189,35*55
$BDRMC,132145.000,A,3018.4878,N,12004.7282,E,0.08,315.04,270326,,,A*77
$BDVTG,315.04,T,,M,0.08,N,0.16,K,A*20
$BDGGA,132146.000,3018.4877,N,12004.7282,E,1,13,0.88,-32.0,M,7.0,M,,*59
$BDGLL,3018.4877,N,12004.7282,E,132146.000,A,A*45
$BDGSA,A,3,06,30,07,02,29,03,19,13,08,20,23,10,1.24,0.88,0.87*13
$BDGSV,5,1,17,03,55,199,38,20,54,325,41,08,52,350,37,13,48,332,42*66
$BDGSV,5,2,17,01,47,137,,29,44,269,43,02,39,238,36,04,37,118,*63
$BDGSV,5,3,17,30,35,199,41,16,31,176,,06,25,183,35,10,22,217,39*6E
$BDGSV,5,4,17,19,21,278,30,07,20,205,31,23,20,066,26,05,17,255,29*67
$BDGSV,5,5,17,09,15,189,34*54
$BDRMC,132146.000,A,3018.4877,N,12004.7282,E,0.08,315.04,270326,,,A*7B
$BDVTG,315.04,T,,M,0.08,N,0.16,K,A*20
$BDGGA,132147.000,3018.4877,N,12004.7283,E,1,13,0.88,-32.0,M,7.0,M,,*59
$BDGLL,3018.4877,N,12004.7283,E,132147.000,A,A*45
$BDGSA,A,3,06,30,07,02,29,03,19,13,08,20,23,10,1.24,0.88,0.87*13
$BDGSV,5,1,17,03,55,199,38,20,54,325,42,08,52,350,37,13,48,332,42*65
$BDGSV,5,2,17,01,47,137,,29,44,269,43,02,39,238,37,04,37,118,*62
$BDGSV,5,3,17,30,35,199,41,16,31,176,,06,25,183,36,10,22,217,39*6D
$BDGSV,5,4,17,19,21,278,31,07,20,205,31,23,20,066,24,05,17,255,30*6C
$BDGSV,5,5,17,09,15,189,33*53
$BDRMC,132147.000,A,3018.4877,N,12004.7283,E,0.23,315.04,270326,,,A*72
$BDVTG,315.04,T,,M,0.23,N,0.42,K,A*28
$BDGGA,132148.000,3018.4876,N,12004.7284,E,1,13,0.88,-32.0,M,7.0,M,,*50
$BDGLL,3018.4876,N,12004.7284,E,132148.000,A,A*4C
$BDGSA,A,3,06,30,07,02,29,03,19,13,08,20,23,10,1.24,0.88,0.87*13
$BDGSV,5,1,17,03,55,199,37,20,54,325,42,08,52,350,37,13,48,332,42*6A
$BDGSV,5,2,17,01,47,137,,29,44,269,43,02,39,238,37,04,37,118,*62
$BDGSV,5,3,17,30,35,199,40,16,31,176,,06,25,183,36,10,22,217,39*6C
$BDGSV,5,4,17,19,21,278,38,07,20,205,24,23,20,066,25,05,17,255,30*60
$BDGSV,5,5,17,09,15,189,33*53
$BDRMC,132148.000,A,3018.4876,N,12004.7284,E,0.05,315.04,270326,,,A*7F
$BDVTG,315.04,T,,M,0.05,N,0.10,K,A*2B
$BDGGA,132149.000,3018.4876,N,12004.7284,E,1,13,0.88,-32.0,M,7.0,M,,*51
$BDGLL,3018.4876,N,12004.7284,E,132149.000,A,A*4D
$BDGSA,A,3,06,30,07,02,29,03,19,13,08,20,23,10,1.24,0.88,0.87*13
$BDGSV,5,1,17,03,55,199,36,20,54,325,42,08,52,350,37,13,48,332,42*6B
$BDGSV,5,2,17,01,47,137,,29,44,269,43,02,39,238,36,04,37,118,*63
$BDGSV,5,3,17,30,35,199,40,16,31,176,,06,25,183,36,10,22,217,39*6C
$BDGSV,5,4,17,19,21,278,37,07,20,205,26,23,20,066,25,05,17,255,30*6D
$BDGSV,5,5,17,09,15,189,32*52
$BDRMC,132149.000,A,3018.4876,N,12004.7284,E,0.19,315.04,270326,,,A*73
$BDVTG,315.04,T,,M,0.19,N,0.34,K,A*20
$BDGGA,132150.000,3018.4875,N,12004.7286,E,1,13,0.88,-32.1,M,7.0,M,,*59
$BDGLL,3018.4875,N,12004.7286,E,132150.000,A,A*44
$BDGSA,A,3,06,30,07,02,29,03,19,13,08,20,23,10,1.24,0.88,0.87*13
$BDGSV,5,1,17,03,55,199,36,20,54,325,41,08,52,350,37,13,48,332,42*68
$BDGSV,5,2,17,01,47,137,,29,44,269,43,02,39,238,36,04,37,118,*63
$BDGSV,5,3,17,30,35,199,40,16,31,176,,06,25,183,36,10,22,217,39*6C
$BDGSV,5,4,17,19,21,278,37,07,20,205,28,23,20,066,25,05,17,255,31*62
$BDGSV,5,5,17,09,15,189,32*52
$BDRMC,132150.000,A,3018.4875,N,12004.7286,E,0.05,315.04,270326,,,A*77
$BDVTG,315.04,T,,M,0.05,N,0.10,K,A*2B
$BDGGA,132151.000,3018.4874,N,12004.7287,E,1,13,0.88,-32.1,M,7.0,M,,*58
$BDGLL,3018.4874,N,12004.7287,E,132151.000,A,A*45
$BDGSA,A,3,06,30,07,02,29,03,19,13,08,20,23,10,1.24,0.88,0.87*13
$BDGSV,5,1,17,03,55,199,36,20,54,325,41,08,52,350,37,13,48,332,42*68
$BDGSV,5,2,17,01,47,137,,29,44,269,43,02,39,238,36,04,37,118,*63
$BDGSV,5,3,17,30,35,199,40,16,31,176,,06,25,183,36,10,22,217,39*6C
$BDGSV,5,4,17,19,21,278,35,07,20,205,29,23,20,066,25,05,17,255,31*61
$BDGSV,5,5,17,09,15,189,32*52
$BDRMC,132151.000,A,3018.4874,N,12004.7287,E,0.05,315.04,270326,,,A*76
$BDVTG,315.04,T,,M,0.05,N,0.09,K,A*23
$BDGGA,132152.000,3018.4873,N,12004.7288,E,1,13,0.88,-32.1,M,7.0,M,,*53
$BDGLL,3018.4873,N,12004.7288,E,132152.000,A,A*4E
$BDGSA,A,3,06,30,07,02,29,03,19,13,08,20,23,10,1.24,0.88,0.87*13
$BDGSV,5,1,17,03,55,199,35,20,54,325,41,08,52,350,37,13,48,332,42*6B
$BDGSV,5,2,17,01,47,137,,29,44,269,43,02,39,238,36,04,37,118,*63
$BDGSV,5,3,17,30,35,199,40,16,31,176,,06,25,183,34,10,22,217,39*6E
$BDGSV,5,4,17,19,21,278,36,07,20,205,30,23,20,066,26,05,17,255,31*69
$BDGSV,5,5,17,09,15,189,31*51
$BDRMC,132152.000,A,3018.4873,N,12004.7288,E,0.04,315.04,270326,,,A*7C
$BDVTG,315.04,T,,M,0.04,N,0.08,K,A*23
$BDGGA,132153.000,3018.4872,N,12004.7289,E,1,12,0.87,-32.1,M,7.0,M,,*5C
$BDGLL,3018.4872,N,12004.7289,E,132153.000,A,A*4F
$BDGSA,A,3,06,30,07,02,29,03,19,13,08,20,23,10,1.23,0.87,0.87*1B
$BDGSV,5,1,17,03,55,199,35,20,54,325,40,08,52,350,37,13,48,332,43*6B
$BDGSV,5,2,17,01,47,137,,29,44,269,43,02,39,238,37,04,37,118,*62
$BDGSV,5,3,17,30,35,199,40,16,31,176,,06,25,183,23,10,22,217,38*69
$BDGSV,5,4,17,19,21,278,34,07,20,205,30,23,20,066,26,05,17,255,31*6B
$BDGSV,5,5,17,09,15,189,29*58
$BDRMC,132153.000,A,3018.4872,N,12004.7289,E,0.18,315.04,270326,,,A*70
$BDVTG,315.04,T,,M,0.18,N,0.34,K,A*21
$BDGGA,132154.000,3018.4871,N,12004.7290,E,1,13,0.88,-32.2,M,7.0,M,,*5D
$BDGLL,3018.4871,N,12004.7290,E,132154.000,A,A*43
$BDGSA,A,3,06,30,07,02,29,03,19,13,08,20,23,10,1.24,0.88,0.87*13
$BDGSV,5,1,17,03,55,199,35,20,54,325,40,08,52,350,37,13,48,332,43*6B
$BDGSV,5,2,17,01,47,137,,29,44,269,43,02,39,238,37,04,37,118,*62
$BDGSV,5,3,17,30,35,199,41,16,31,176,,06,25,183,32,10,22,217,38*68
$BDGSV,5,4,17,19,21,278,22,07,20,205,37,23,20,066,26,05,17,255,33*69
$BDGSV,5,5,17,09,15,189,30*50
$BDRMC,132154.000,A,3018.4871,N,12004.7290,E,0.17,315.04,270326,,,A*73
$BDVTG,315.04,T,,M,0.17,N,0.31,K,A*2B
$BDGGA,132155.000,3018.4870,N,12004.7292,E,1,13,0.88,-32.2,M,7.0,M,,*5F
$BDGLL,3018.4870,N,12004.7292,E,132155.000,A,A*41
$BDGSA,A,3,06,30,07,02,29,03,19,13,08,20,23,10,1.24,0.88,0.87*13
$BDGSV,5,1,17,03,55,199,35,20,54,325,40,08,52,350,37,13,48,332,43*6B
$BDGSV,5,2,17,01,47,137,,29,44,269,43,02,39,238,37,04,37,118,*62
$BDGSV,5,3,17,30,35,199,41,16,31,176,,06,25,183,31,10,22,217,38*6B
$BDGSV,5,4,17,19,21,278,23,07,20,205,37,23,20,066,26,05,17,255,33*68
$BDGSV,5,5,17,09,15,189,30*50
$BDRMC,132155.000,A,3018.4870,N,12004.7292,E,0.30,315.04,270326,,,A*74
$BDVTG,315.04,T,,M,0.30,N,0.56,K,A*2F
$BDGGA,132156.000,3018.4870,N,12004.7292,E,1,13,0.88,-32.2,M,7.0,M,,*5C
$BDGLL,3018.4870,N,12004.7292,E,132156.000,A,A*42
$BDGSA,A,3,06,30,07,02,29,03,19,13,08,20,23,10,1.24,0.88,0.87*13
$BDGSV,5,1,17,03,55,199,35,20,54,325,41,08,52,350,37,13,48,332,43*6A
$BDGSV,5,2,17,01,47,137,,29,44,269,43,02,39,238,38,04,37,118,*6D
$BDGSV,5,3,17,30,35,199,41,16,31,176,,06,25,183,24,10,22,217,38*6F
$BDGSV,5,4,17,19,21,278,31,07,20,205,36,23,20,066,27,05,17,255,33*6B
$BDGSV,5,5,17,09,15,189,29*58
$BDRMC,132156.000,A,3018.4870,N,12004.7292,E,0.06,315.04,270326,,,A*72
$BDVTG,315.04,T,,M,0.06,N,0.12,K,A*2A
$BDGGA,132157.000,3018.4869,N,12004.7292,E,1,13,0.88,-32.2,M,7.0,M,,*55
$BDGLL,3018.4869,N,12004.7292,E,132157.000,A,A*4B
$BDGSA,A,3,06,30,07,02,29,03,19,13,08,20,23,10,1.24,0.88,0.87*13
$BDGSV,5,1,17,03,55,199,34,20,54,325,41,08,52,350,37,13,48,332,43*6B
$BDGSV,5,2,17,01,47,137,,29,44,269,43,02,39,238,38,04,37,118,*6D
$BDGSV,5,3,17,30,35,199,41,16,31,176,,06,25,183,36,10,22,217,38*6C
$BDGSV,5,4,17,19,21,278,32,07,20,205,26,23,20,066,26,05,17,255,32*69
$BDGSV,5,5,17,09,15,189,30*50
$BDRMC,132157.000,A,3018.4869,N,12004.7292,E,0.06,315.04,270326,,,A*7B
$BDVTG,315.04,T,,M,0.06,N,0.12,K,A*2A
$BDGGA,132158.000,3018.4869,N,12004.7293,E,1,13,0.88,-32.2,M,7.0,M,,*5B
$BDGLL,3018.4869,N,12004.7293,E,132158.000,A,A*45
$BDGSA,A,3,06,30,07,02,29,03,19,13,08,20,23,10,1.24,0.88,0.87*13
$BDGSV,5,1,17,03,55,199,34,20,54,325,41,08,52,350,37,13,48,332,43*6B
$BDGSV,5,2,17,01,47,137,,29,44,269,43,02,39,238,38,04,37,118,*6D
$BDGSV,5,3,17,30,35,199,40,16,31,176,,06,25,183,36,10,22,217,38*6D
$BDGSV,5,4,17,19,21,278,32,07,20,205,24,23,20,066,26,05,17,255,32*6B
$BDGSV,5,5,17,09,15,189,31*51
$BDRMC,132158.000,A,3018.4869,N,12004.7293,E,0.20,315.04,270326,,,A*71
$BDVTG,315.04,T,,M,0.20,N,0.36,K,A*28
$BDGGA,132159.000,3018.4868,N,12004.7293,E,1,13,0.88,-32.2,M,7.0,M,,*5B
$BDGLL,3018.4868,N,12004.7293,E,132159.000,A,A*45
$BDGSA,A,3,06,30,07,02,29,03,19,13,08,20,23,10,1.24,0.88,0.87*13
$BDGSV,5,1,17,03,55,199,34,20,54,325,41,08,52,350,37,13,48,332,42*6A
$BDGSV,5,2,17,01,47,137,,29,44,269,43,02,39,238,38,04,37,118,*6D
$BDGSV,5,3,17,30,35,199,40,16,31,176,,06,25,183,36,10,22,217,38*6D
$BDGSV,5,4,17,19,21,278,31,07,20,205,23,23,20,066,25,05,17,255,33*6D
$BDGSV,5,5,17,09,15,189,31*51
$BDRMC,132159.000,A,3018.4868,N,12004.7293,E,0.14,315.04,270326,,,A*76
$BDVTG,315.04,T,,M,0.14,N,0.26,K,A*2E
$BDGGA,132200.000,3018.4867,N,12004.7293,E,1,13,0.88,-32.2,M,7.0,M,,*5B
$BDGLL,3018.4867,N,12004.7293,E,132200.000,A,A*45
$BDGSA,A,3,06,30,07,02,29,03,19,13,08,20,23,10,1.24,0.88,0.87*13
$BDGSV,5,1,17,03,55,199,34,20,54,325,41,08,52,350,37,13,48,332,42*6A
$BDGSV,5,2,17,01,47,137,,29,44,269,43,02,39,238,38,04,37,118,*6D
$BDGSV,5,3,17,30,35,199,40,16,31,176,,06,25,183,36,10,22,217,38*6D
$BDGSV,5,4,17,19,21,278,31,07,20,205,22,23,20,066,25,05,17,255,33*6C
$BDGSV,5,5,17,09,15,189,32*52
$BDRMC,132200.000,A,3018.4867,N,12004.7293,E,0.13,315.04,270326,,,A*71
$BDVTG,315.04,T,,M,0.13,N,0.23,K,A*2C
$BDGGA,132201.000,3018.4866,N,12004.7294,E,1,12,0.91,-32.2,M,7.0,M,,*55
$BDGLL,3018.4866,N,12004.7294,E,132201.000,A,A*42
$BDGSA,A,3,06,30,02,29,03,19,13,08,20,23,10,09,1.27,0.91,0.89*18
$BDGSV,5,1,17,03,55,199,33,20,54,325,41,08,52,350,37,13,48,332,42*6D
$BDGSV,5,2,17,01,47,137,,29,44,269,43,02,39,238,37,04,37,118,*62
$BDGSV,5,3,17,30,35,199,40,16,31,176,,06,25,183,36,10,22,217,38*6D
$BDGSV,5,4,17,19,21,278,31,07,20,205,21,23,20,066,25,05,17,255,33*6F
$BDGSV,5,5,17,09,15,189,32*52
$BDRMC,132201.000,A,3018.4866,N,12004.7294,E,0.11,315.04,270326,,,A*74
$BDVTG,315.04,T,,M,0.11,N,0.21,K,A*2C
$BDGGA,132202.000,3018.4866,N,12004.7294,E,1,12,0.91,-32.2,M,7.0,M,,*56
$BDGLL,3018.4866,N,12004.7294,E,132202.000,A,A*41
$BDGSA,A,3,06,30,02,29,03,19,13,08,20,23,10,09,1.27,0.91,0.89*18
$BDGSV,5,1,17,03,55,199,33,20,54,325,41,08,52,350,37,13,48,332,42*6D
$BDGSV,5,2,17,01,47,137,,29,44,269,43,02,39,238,37,04,37,118,*62
$BDGSV,5,3,17,30,35,199,40,16,31,176,,06,25,183,36,10,22,217,38*6D
$BDGSV,5,4,17,19,21,278,31,07,20,205,20,23,20,066,25,05,17,255,33*6E
$BDGSV,5,5,17,09,15,189,32*52
$BDRMC,132202.000,A,3018.4866,N,12004.7294,E,0.08,315.04,270326,,,A*7F
$BDVTG,315.04,T,,M,0.08,N,0.14,K,A*22
$BDGGA,132203.000,3018.4865,N,12004.7294,E,1,12,0.91,-32.2,M,7.0,M,,*54
$BDGLL,3018.4865,N,12004.7294,E,132203.000,A,A*43
$BDGSA,A,3,06,30,02,29,03,19,13,08,20,23,10,09,1.27,0.91,0.89*18
$BDGSV,5,1,17,03,55,199,33,20,54,325,41,08,52,350,37,13,48,332,42*6D
$BDGSV,5,2,17,01,47,137,,29,44,269,43,02,39,238,37,04,37,118,*62
$BDGSV,5,3,17,30,35,199,40,16,31,176,,06,25,183,36,10,22,217,38*6D
$BDGSV,5,4,17,19,21,278,31,07,20,205,17,23,20,066,24,05,17,255,33*6B
$BDGSV,5,5,17,09,15,189,32*52
$BDRMC,132203.000,A,3018.4865,N,12004.7294,E,0.08,315.04,270326,,,A*7D
$BDVTG,315.04,T,,M,0.08,N,0.14,K,A*22
$BDGGA,132204.000,3018.4865,N,12004.7294,E,1,12,0.91,-32.2,M,7.0,M,,*53
$BDGLL,3018.4865,N,12004.7294,E,132204.000,A,A*44
$BDGSA,A,3,06,30,02,29,03,19,13,08,20,23,10,09,1.27,0.91,0.89*18
$BDGSV,5,1,17,03,55,199,32,20,54,325,41,08,52,350,37,13,48,332,42*6C
$BDGSV,5,2,17,01,47,137,,29,44,269,43,02,39,238,37,04,37,118,*62
$BDGSV,5,3,17,30,35,199,40,16,31,176,,06,25,183,36,10,22,217,37*62
$BDGSV,5,4,17,19,21,278,31,07,20,205,19,23,20,066,24,05,17,255,33*65
$BDGSV,5,5,17,09,15,189,32*52
$BDRMC,132204.000,A,3018.4865,N,12004.7294,E,0.09,315.04,270326,,,A*7B
$BDVTG,315.04,T,,M,0.09,N,0.17,K,A*20
$BDGGA,132205.000,3018.4864,N,12004.7294,E,1,11,0.94,-32.2,M,7.0,M,,*55
$BDGLL,3018.4864,N,12004.7294,E,132205.000,A,A*44
$BDGSA,A,3,06,30,02,29,19,13,08,20,23,10,09,,1.31,0.94,0.91*10
$BDGSV,5,1,17,03,55,199,,20,54,325,41,08,52,350,37,13,48,332,42*6D
$BDGSV,5,2,17,01,47,137,,29,44,269,43,02,39,238,37,04,37,118,*62
$BDGSV,5,3,17,30,35,199,40,16,31,176,,06,25,183,36,10,22,217,37*62
$BDGSV,5,4,17,19,21,278,31,07,20,205,20,23,20,066,23,05,17,255,32*69
$BDGSV,5,5,17,09,15,189,32*52
$BDRMC,132205.000,A,3018.4864,N,12004.7294,E,0.17,315.04,270326,,,A*74
$BDVTG,315.04,T,,M,0.17,N,0.32,K,A*28
$BDGGA,132206.000,3018.4864,N,12004.7295,E,1,11,0.94,-32.2,M,7.0,M,,*57
$BDGLL,3018.4864,N,12004.7295,E,132206.000,A,A*46
$BDGSA,A,3,06,30,02,29,19,13,08,20,23,10,09,,1.31,0.94,0.91*10
$BDGSV,5,1,17,03,55,199,,20,54,325,41,08,52,350,37,13,48,332,42*6D
$BDGSV,5,2,17,01,47,137,,29,44,269,43,02,39,238,37,04,37,118,*62
$BDGSV,5,3,17,30,35,199,40,16,31,176,,06,25,183,36,10,22,217,37*62
$BDGSV,5,4,17,19,21,278,31,07,20,205,19,23,20,066,23,05,17,255,31*60
$BDGSV,5,5,17,09,15,189,32*52
$BDRMC,132206.000,A,3018.4864,N,12004.7295,E,0.20,315.04,270326,,,A*72
$BDVTG,315.04,T,,M,0.20,N,0.37,K,A*29
$BDGGA,132207.000,3018.4863,N,12004.7295,E,1,12,0.86,-32.3,M,7.0,M,,*50
$BDGLL,3018.4863,N,12004.7295,E,132207.000,A,A*40
$BDGSA,A,3,06,30,07,02,29,19,13,08,20,23,10,09,1.25,0.86,0.90*10
$BDGSV,5,1,17,03,55,199,,20,54,325,41,08,52,350,37,13,48,332,42*6D
$BDGSV,5,2,17,01,47,137,,29,44,269,42,02,39,238,37,04,37,118,*63
$BDGSV,5,3,17,30,35,199,39,16,31,176,,06,25,183,25,10,22,217,37*6E
$BDGSV,5,4,17,19,21,278,32,07,20,205,30,23,20,066,22,05,17,255,32*6A
$BDGSV,5,5,17,09,15,189,25*54
$BDRMC,132207.000,A,3018.4863,N,12004.7295,E,0.12,315.04,270326,,,A*75
$BDVTG,315.04,T,,M,0.12,N,0.22,K,A*2C
$BDGGA,132208.000,3018.4863,N,12004.7296,E,1,11,0.89,-32.3,M,7.0,M,,*50
$BDGLL,3018.4863,N,12004.7296,E,132208.000,A,A*4C
$BDGSA,A,3,06,30,07,02,29,19,13,08,20,23,10,,1.27,0.89,0.90*14
$BDGSV,5,1,17,03,55,199,35,20,54,325,41,08,52,350,37,13,48,332,42*6B
$BDGSV,5,2,17,01,47,137,,29,44,269,42,02,39,238,37,04,37,118,*63
$BDGSV,5,3,17,30,35,199,39,16,31,176,,06,25,183,25,10,22,217,37*6E
$BDGSV,5,4,17,19,21,278,31,07,20,205,32,23,20,066,22,05,17,255,31*68
$BDGSV,5,5,17,09,15,189,24*55
$BDRMC,132208.000,A,3018.4863,N,12004.7296,E,0.11,315.04,270326,,,A*7A
$BDVTG,315.04,T,,M,0.11,N,0.21,K,A*2C
$BDGGA,132209.000,3018.4862,N,12004.7295,E,1,12,0.87,-32.3,M,7.0,M,,*5E
$BDGLL,3018.4862,N,12004.7295,E,132209.000,A,A*4F
$BDGSA,A,3,06,30,07,02,29,19,13,08,20,23,10,03,1.23,0.87,0.87*1B
$BDGSV,5,1,17,03,55,199,36,20,54,325,41,08,52,350,37,13,48,332,42*68
$BDGSV,5,2,17,01,47,137,,29,44,269,42,02,39,238,37,04,37,118,*63
$BDGSV,5,3,17,30,35,199,39,16,31,176,,06,25,183,26,10,22,217,37*6D
$BDGSV,5,4,17,19,21,278,31,07,20,205,34,23,20,066,21,05,17,255,30*6C
$BDGSV,5,5,17,09,15,189,24*55
$BDRMC,132209.000,A,3018.4862,N,12004.7295,E,0.05,315.04,270326,,,A*7C
$BDVTG,315.04,T,,M,0.05,N,0.08,K,A*22
$BDGGA,132210.000,3018.4862,N,12004.7296,E,1,12,0.87,-32.3,M,7.0,M,,*55
$BDGLL,3018.4862,N,12004.7296,E,132210.000,A,A*44
$BDGSA,A,3,06,30,07,02,29,19,13,08,20,23,10,03,1.23,0.87,0.87*1B
$BDGSV,5,1,17,03,55,199,34,20,54,325,41,08,52,350,37,13,48,332,42*6A
$BDGSV,5,2,17,01,47,137,,29,44,269,43,02,39,238,37,04,37,118,*62
$BDGSV,5,3,17,30,35,199,39,16,31,176,,06,25,183,25,10,22,217,37*6E
$BDGSV,5,4,17,19,21,278,32,07,20,205,30,23,20,066,21,05,17,255,31*6A
$BDGSV,5,5,17,09,15,189,23*52
$BDRMC,132210.000,A,3018.4862,N,12004.7296,E,0.04,315.04,270326,,,A*76
$BDVTG,315.04,T,,M,0.04,N,0.08,K,A*23
$BDGGA,132211.000,3018.4861,N,12004.7296,E,1,12,0.88,-32.3,M,7.0,M,,*58
$BDGLL,3018.4861,N,12004.7296,E,132211.000,A,A*46
$BDGSA,A,3,06,30,07,02,29,19,13,08,20,23,10,03,1.24,0.88,0.87*13
$BDGSV,5,1,17,03,55,199,34,20,54,325,42,08,52,350,37,13,48,332,42*69
$BDGSV,5,2,17,01,47,137,,29,44,269,43,02,39,238,37,04,37,118,*62
$BDGSV,5,3,17,30,35,199,38,16,31,176,,06,25,183,35,10,22,217,37*6E
$BDGSV,5,4,17,19,21,278,31,07,20,205,21,23,20,066,20,05,17,255,31*68
$BDGSV,5,5,17,09,15,189,25*54
$BDRMC,132211.000,A,3018.4861,N,12004.7296,E,0.23,315.04,270326,,,A*71
$BDVTG,315.04,T,,M,0.23,N,0.43,K,A*29
$BDGGA,132212.000,3018.4860,N,12004.7297,E,1,13,0.88,-32.2,M,7.0,M,,*5B
$BDGLL,3018.4860,N,12004.7297,E,132212.000,A,A*45
$BDGSA,A,3,06,30,07,02,29,19,13,08,20,23,10,09,1.24,0.88,0.87*19
$BDGSV,5,1,17,03,55,199,36,20,54,325,42,08,52,350,37,13,48,332,42*6B
$BDGSV,5,2,17,01,47,137,,29,44,269,44,02,39,238,36,04,37,118,*64
$BDGSV,5,3,17,30,35,199,38,16,31,176,,06,25,183,33,10,22,217,37*68
$BDGSV,5,4,17,19,21,278,32,07,20,205,31,23,20,066,20,05,17,255,31*6A
$BDGSV,5,5,17,09,15,189,27*56
$BDRMC,132212.000,A,3018.4860,N,12004.7297,E,0.26,315.04,270326,,,A*77
$BDVTG,315.04,T,,M,0.26,N,0.49,K,A*26
$BDGGA,132213.000,3018.4860,N,12004.7298,E,1,12,0.91,-32.3,M,7.0,M,,*5D
$BDGLL,3018.4860,N,12004.7298,E,132213.000,A,A*4B
$BDGSA,A,3,06,30,02,29,19,13,08,20,23,10,09,03,1.27,0.91,0.89*18
$BDGSV,5,1,17,03,55,199,34,20,54,325,42,08,52,350,37,13,48,332,42*69
$BDGSV,5,2,17,01,47,137,,29,44,269,44,02,39,238,36,04,37,118,*64
$BDGSV,5,3,17,30,35,199,37,16,31,176,,06,25,183,34,10,22,217,36*61
$BDGSV,5,4,17,19,21,278,32,07,20,205,22,23,20,066,21,05,17,255,31*69
$BDGSV,5,5,17,09,15,189,29*58
$BDRMC,132213.000,A,3018.4860,N,12004.7298,E,0.04,315.04,270326,,,A*79
$BDVTG,315.04,T,,M,0.04,N,0.08,K,A*23
$BDGGA,132214.000,3018.4860,N,12004.7296,E,1,13,0.88,-32.3,M,7.0,M,,*5D
$BDGLL,3018.4860,N,12004.7296,E,132214.000,A,A*42
$BDGSA,A,3,06,30,07,02,29,19,13,08,20,23,10,09,1.24,0.88,0.87*19
$BDGSV,5,1,17,03,55,199,34,20,54,325,42,08,52,350,37,13,48,332,42*69
$BDGSV,5,2,17,01,47,137,,29,44,269,42,02,39,238,36,04,37,118,*62
$BDGSV,5,3,17,30,35,199,39,16,31,176,,06,25,183,34,10,22,217,37*6E
$BDGSV,5,4,17,19,21,278,30,07,20,205,24,23,20,066,21,05,17,255,32*6E
$BDGSV,5,5,17,09,15,189,30*50
$BDRMC,132214.000,A,3018.4860,N,12004.7296,E,0.12,315.04,270326,,,A*77
$BDVTG,315.04,T,,M,0.12,N,0.22,K,A*2C
$BDGGA,132215.000,3018.4859,N,12004.7297,E,1,13,0.88,-32.3,M,7.0,M,,*57
$BDGLL,3018.4859,N,12004.7297,E,132215.000,A,A*48
$BDGSA,A,3,06,30,07,02,29,19,13,08,20,23,10,09,1.24,0.88,0.87*19
$BDGSV,5,1,17,03,55,199,34,20,54,325,41,08,52,350,36,13,48,332,42*6B
$BDGSV,5,2,17,01,47,137,,29,44,269,42,02,39,238,36,04,37,118,*62
$BDGSV,5,3,17,30,35,199,39,16,31,176,,06,25,183,34,10,22,217,37*6E
$BDGSV,5,4,17,19,21,278,37,07,20,205,23,23,20,066,21,05,17,255,32*6E
$BDGSV,5,5,17,09,15,189,30*50
$BDRMC,132215.000,A,3018.4859,N,12004.7297,E,0.56,315.04,270326,,,A*7D
$BDVTG,315.04,T,,M,0.56,N,1.04,K,A*29
$BDGGA,132216.000,3018.4858,N,12004.7299,E,1,13,0.88,-32.2,M,7.0,M,,*5A
$BDGLL,3018.4858,N,12004.7299,E,132216.000,A,A*44
$BDGSA,A,3,06,30,07,02,29,19,13,08,20,23,10,09,1.24,0.88,0.87*19
$BDGSV,5,1,17,03,55,199,34,20,54,325,42,08,52,350,37,13,48,332,42*69
$BDGSV,5,2,17,01,47,137,,29,44,269,43,02,39,238,37,04,37,118,*62
$BDGSV,5,3,17,30,35,199,39,16,31,176,,06,25,183,34,10,22,217,37*6E
$BDGSV,5,4,17,19,21,278,28,07,20,205,25,23,20,066,21,05,17,255,31*65
$BDGSV,5,5,17,09,15,189,31*51
$BDRMC,132216.000,A,3018.4858,N,12004.7299,E,0.34,315.04,270326,,,A*75
$BDVTG,315.04,T,,M,0.34,N,0.63,K,A*2D
$BDGGA,132217.000,3018.4858,N,12004.7300,E,1,13,0.88,-32.2,M,7.0,M,,*5A
$BDGLL,3018.4858,N,12004.7300,E,132217.000,A,A*44
$BDGSA,A,3,06,30,07,02,29,19,13,08,20,23,10,09,1.24,0.88,0.87*19
$BDGSV,5,1,17,03,55,199,33,20,54,325,42,08,52,350,37,13,48,332,42*6E
$BDGSV,5,2,17,01,47,137,,29,44,269,43,02,39,238,37,04,37,118,*62
$BDGSV,5,3,17,30,35,199,40,16,31,176,,06,25,183,34,10,22,217,37*60
$BDGSV,5,4,17,19,21,278,30,07,20,205,23,23,20,066,21,05,17,255,31*6A
$BDGSV,5,5,17,09,15,189,31*51
$BDRMC,132217.000,A,3018.4858,N,12004.7300,E,0.28,315.04,270326,,,A*78
$BDVTG,315.04,T,,M,0.28,N,0.52,K,A*22
$BDGGA,132218.000,3018.4857,N,12004.7301,E,1,13,0.88,-32.2,M,7.0,M,,*5B
$BDGLL,3018.4857,N,12004.7301,E,132218.000,A,A*45
$BDGSA,A,3,06,30,07,02,29,19,13,08,20,23,10,09,1.24,0.88,0.87*19
$BDGSV,5,1,17,03,55,199,33,20,54,325,42,08,52,350,37,13,48,332,42*6E
$BDGSV,5,2,17,01,47,137,,29,44,269,43,02,39,238,37,04,37,118,*62
$BDGSV,5,3,17,30,35,199,40,16,31,176,,06,26,183,33,10,22,217,37*64
$BDGSV,5,4,17,19,21,278,31,07,20,205,27,23,20,066,21,05,17,255,32*6C
$BDGSV,5,5,17,09,15,189,31*51
$BDRMC,132218.000,A,3018.4857,N,12004.7301,E,0.25,315.04,270326,,,A*74
$BDVTG,315.04,T,,M,0.25,N,0.46,K,A*2A
$BDGGA,132219.000,3018.4856,N,12004.7302,E,1,12,0.87,-32.2,M,7.0,M,,*56
$BDGLL,3018.4856,N,12004.7302,E,132219.000,A,A*46
$BDGSA,A,3,06,30,07,02,29,19,13,08,20,23,10,03,1.23,0.87,0.87*1B
$BDGSV,5,1,17,03,55,199,33,20,54,325,43,08,52,350,37,13,48,332,42*6F
$BDGSV,5,2,17,01,47,137,,29,44,269,43,02,39,238,37,04,37,118,*62
$BDGSV,5,3,17,30,35,199,39,16,31,176,,06,26,183,24,10,22,217,38*63
$BDGSV,5,4,17,19,21,278,24,07,20,205,29,23,20,066,21,05,17,255,33*67
$BDGSV,5,5,17,09,15,189,18*5A
$BDRMC,132219.000,A,3018.4856,N,12004.7302,E,0.18,315.04,270326,,,A*79
$BDVTG,315.04,T,,M,0.18,N,0.34,K,A*21
$BDGGA,132220.000,3018.4856,N,12004.7302,E,1,11,0.93,-32.2,M,7.0,M,,*5A
$BDGLL,3018.4856,N,12004.7302,E,132220.000,A,A*4C
$BDGSA,A,3,30,07,02,29,19,13,08,20,23,10,03,,1.27,0.93,0.87*1C
$BDGSV,5,1,17,03,55,199,33,20,54,325,43,08,52,350,37,13,48,332,42*6F
$BDGSV,5,2,17,01,47,137,,29,44,269,43,02,39,238,38,04,37,118,*6D
$BDGSV,5,3,17,30,35,199,31,16,31,176,,06,26,183,23,10,22,217,37*63
$BDGSV,5,4,17,19,21,278,26,07,20,205,28,23,20,066,21,05,17,255,33*64
$BDGSV,5,5,17,09,15,189,19*5B
$BDRMC,132220.000,A,3018.4856,N,12004.7302,E,0.08,315.04,270326,,,A*72
$BDVTG,315.04,T,,M,0.08,N,0.15,K,A*23
$BDGGA,132221.000,3018.4855,N,12004.7301,E,1,12,0.87,-32.2,M,7.0,M,,*5D
$BDGLL,3018.4855,N,12004.7301,E,132221.000,A,A*4D
$BDGSA,A,3,06,30,07,02,29,19,13,08,20,23,10,03,1.23,0.87,0.87*1B
$BDGSV,5,1,17,03,55,199,33,20,54,325,43,08,52,350,37,13,48,332,42*6F
$BDGSV,5,2,17,01,47,137,,29,44,269,44,02,39,238,36,04,37,118,*64
$BDGSV,5,3,17,30,35,199,32,16,31,176,,06,26,183,24,10,22,217,37*67
$BDGSV,5,4,17,19,21,278,33,07,20,205,28,23,20,066,21,05,17,255,32*61
$BDGSV,5,5,17,09,14,189,21*51
$BDRMC,132221.000,A,3018.4855,N,12004.7301,E,0.21,315.04,270326,,,A*78
$BDVTG,315.04,T,,M,0.21,N,0.39,K,A*26
$BDGGA,132222.000,3018.4855,N,12004.7300,E,1,11,0.91,-32.2,M,7.0,M,,*5B
$BDGLL,3018.4855,N,12004.7300,E,132222.000,A,A*4F
$BDGSA,A,3,06,30,02,29,19,13,08,20,23,10,03,,1.27,0.91,0.89*11
$BDGSV,5,1,17,03,55,199,33,20,54,325,42,08,52,350,37,13,48,332,41*6D
$BDGSV,5,2,17,01,47,137,,29,44,269,44,02,39,238,36,04,37,118,*64
$BDGSV,5,3,17,30,35,199,34,16,31,176,,06,26,183,23,10,22,217,36*67
$BDGSV,5,4,17,19,21,278,33,07,20,205,20,23,20,066,21,05,17,255,30*6B
$BDGSV,5,5,17,09,14,189,23*53
$BDRMC,132222.000,A,3018.4855,N,12004.7300,E,0.38,315.04,270326,,,A*72
$BDVTG,315.04,T,,M,0.38,N,0.71,K,A*22
$BDGGA,132223.000,3018.4855,N,12004.7299,E,1,12,0.87,-32.3,M,7.0,M,,*5E
$BDGLL,3018.4855,N,12004.7299,E,132223.000,A,A*4F
$BDGSA,A,3,06,30,07,02,29,19,13,08,20,23,10,03,1.23,0.87,0.87*1B
$BDGSV,5,1,17,03,55,199,33,20,54,325,43,08,52,350,37,13,48,332,42*6F
$BDGSV,5,2,17,01,47,137,,29,44,269,43,02,39,238,36,04,37,118,*63
$BDGSV,5,3,17,30,35,199,36,16,31,176,,06,26,183,23,10,22,217,37*64
$BDGSV,5,4,17,19,21,278,33,07,20,205,30,23,20,066,22,05,17,255,29*61
$BDGSV,5,5,17,09,14,189,24*54
$BDRMC,132223.000,A,3018.4855,N,12004.7299,E,0.39,315.04,270326,,,A*73
$BDVTG,315.04,T,,M,0.39,N,0.72,K,A*20
$BDGGA,132224.000,3018.4855,N,12004.7300,E,1,12,0.87,-32.2,M,7.0,M,,*59
$BDGLL,3018.4855,N,12004.7300,E,132224.000,A,A*49
$BDGSA,A,3,06,30,07,02,29,19,13,08,20,23,10,03,1.23,0.87,0.87*1B
$BDGSV,5,1,17,03,55,199,34,20,54,325,44,08,52,350,37,13,48,332,42*6F
$BDGSV,5,2,17,01,47,137,,29,44,269,43,02,39,238,37,04,37,118,*62
$BDGSV,5,3,17,30,35,199,37,16,31,176,,06,26,183,23,10,22,217,37*65
$BDGSV,5,4,17,19,21,278,32,07,20,205,29,23,20,066,22,05,17,255,27*66
$BDGSV,5,5,17,09,14,189,24*54
$BDRMC,132224.000,A,3018.4855,N,12004.7300,E,0.04,315.04,270326,,,A*7B
$BDVTG,315.04,T,,M,0.04,N,0.08,K,A*23
$BDGGA,132225.000,3018.4854,N,12004.7300,E,1,13,0.88,-32.3,M,7.0,M,,*56
$BDGLL,3018.4854,N,12004.7300,E,132225.000,A,A*49
$BDGSA,A,3,06,30,07,02,29,19,13,08,20,23,10,09,1.24,0.88,0.87*19
$BDGSV,5,1,17,03,55,199,33,20,54,325,44,08,52,350,37,13,48,332,42*68
$BDGSV,5,2,17,01,47,137,,29,44,269,43,02,39,238,37,04,37,118,*62
$BDGSV,5,3,17,30,35,199,37,16,31,176,,06,26,183,22,10,22,217,37*64
$BDGSV,5,4,17,19,21,278,32,07,20,205,29,23,20,066,22,05,17,255,28*69
