756.000,3018.4435,N,12004.7438,E,1,10,1.50,-12.3,M,7.0,M,,*55
$BDGLL,3018.4435,N,12004.7438,E,123756.000,A,A*4F
$BDGSA,A,3,06,29,13,20,08,03,30,02,07,27,,,1.76,1.50,0.92*19
$BDGSV,5,1,19,03,55,199,37,30,53,211,39,08,50,340,37,20,50,295,45*69
$BDGSV,5,2,19,01,47,137,,13,46,323,40,29,42,294,42,02,39,237,34*6B
$BDGSV,5,3,19,04,37,118,,10,31,220,,07,28,207,38,16,22,173,*6C
$BDGSV,5,4,19,23,18,084,,06,17,180,28,05,16,255,32,27,12,163,24*63
$BDGSV,5,5,19,19,11,262,34,09,07,187,,25,01,042,*59
$BDRMC,123756.000,A,3018.4435,N,12004.7438,E,0.07,300.79,270326,,,A*70
$BDVTG,300.79,T,,M,0.07,N,0.13,K,A*24
$BDGGA,123757.000,3018.4435,N,12004.7437,E,1,10,1.50,-12.3,M,7.0,M,,*5B
$BDGLL,3018.4435,N,12004.7437,E,123757.000,A,A*41
$BDGSA,A,3,06,29,13,20,08,03,30,02,07,27,,,1.76,1.50,0.92*19
$BDGSV,5,1,19,03,55,199,35,30,53,211,37,08,50,340,37,20,50,295,45*65
$BDGSV,5,2,19,01,47,137,,13,46,323,40,29,42,294,42,02,39,237,34*6B
$BDGSV,5,3,19,04,37,118,,10,31,220,,07,28,207,36,16,22,173,*62
$BDGSV,5,4,19,23,18,084,,06,17,180,29,05,16,255,32,27,12,163,25*63
$BDGSV,5,5,19,19,11,262,35,09,07,187,,25,01,042,*58
$BDRMC,123757.000,A,3018.4435,N,12004.7437,E,0.26,300.79,270326,,,A*7D
$BDVTG,300.79,T,,M,0.26,N,0.48,K,A*29
$BDGGA,123758.000,3018.4435,N,12004.7438,E,1,10,1.50,-12.4,M,7.0,M,,*5C
$BDGLL,3018.4435,N,12004.7438,E,123758.000,A,A*41
$BDGSA,A,3,06,29,13,20,08,03,30,02,07,27,,,1.76,1.50,0.92*19
$BDGSV,5,1,19,03,55,199,36,30,53,211,38,08,50,340,35,20,50,295,43*6D
$BDGSV,5,2,19,01,47,137,,13,46,323,27,29,42,294,40,02,39,237,34*68
$BDGSV,5,3,19,04,37,118,,10,31,220,,07,28,207,37,16,22,173,*63
$BDGSV,5,4,19,23,18,084,,06,17,180,29,05,16,255,31,27,12,163,26*63
$BDGSV,5,5,19,19,11,262,34,09,07,187,,25,01,042,*59
$BDRMC,123758.000,A,3018.4435,N,12004.7438,E,0.66,309.36,270326,,,A*7B
$BDVTG,309.36,T,,M,0.66,N,1.21,K,A*21
$BDGGA,123759.000,3018.4436,N,12004.7437,E,1,10,1.50,-12.4,M,7.0,M,,*51
$BDGLL,3018.4436,N,12004.7437,E,123759.000,A,A*4C
$BDGSA,A,3,06,29,13,20,08,03,30,02,07,27,,,1.76,1.50,0.92*19
$BDGSV,5,1,19,03,55,199,36,30,53,211,38,08,50,340,35,20,50,295,44*6A
$BDGSV,5,2,19,01,47,137,,13,46,323,41,29,42,294,40,02,39,237,34*68
$BDGSV,5,3,19,04,37,118,,10,31,220,,07,28,207,37,16,22,173,*63
$BDGSV,5,4,19,23,18,084,,06,17,180,29,05,16,255,32,27,12,163,25*63
$BDGSV,5,5,19,19,11,262,35,09,07,187,,25,01,042,*58
$BDRMC,123759.000,A,3018.4436,N,12004.7437,E,0.19,309.36,270326,,,A*7E
$BDVTG,309.36,T,,M,0.19,N,0.35,K,A*2D
$BDGGA,123800.000,3018.4436,N,12004.7437,E,1,10,1.50,-12.4,M,7.0,M,,*52
$BDGLL,3018.4436,N,12004.7437,E,123800.000,A,A*4F
$BDGSA,A,3,06,29,13,20,08,03,30,02,07,27,,,1.76,1.50,0.92*19
$BDGSV,5,1,19,03,55,199,37,30,53,211,39,08,50,340,36,20,50,295,45*68
$BDGSV,5,2,19,01,47,137,,13,46,323,41,29,42,294,40,02,39,237,34*68
$BDGSV,5,3,19,04,37,118,,10,31,220,,07,28,207,37,16,22,173,*63
$BDGSV,5,4,19,23,18,084,,06,17,180,29,05,16,255,33,27,12,163,25*62
$BDGSV,5,5,19,19,11,262,35,09,07,187,,25,01,042,*58
$BDRMC,123800.000,A,3018.4436,N,12004.7437,E,0.15,309.36,270326,,,A*71
$BDVTG,309.36,T,,M,0.15,N,0.27,K,A*22
$BDGGA,123801.000,3018.4436,N,12004.7437,E,1,10,1.50,-12.4,M,7.0,M,,*53
$BDGLL,3018.4436,N,12004.7437,E,123801.000,A,A*4E
$BDGSA,A,3,06,29,13,20,08,03,30,02,07,27,,,1.76,1.50,0.92*19
$BDGSV,5,1,19,03,55,199,37,30,53,211,39,08,50,340,36,20,50,295,45*68
$BDGSV,5,2,19,01,47,137,,13,46,323,41,29,42,294,40,02,39,237,35*69
$BDGSV,5,3,19,04,37,118,,10,31,220,,07,28,207,37,16,22,173,*63
$BDGSV,5,4,19,23,18,084,18,06,17,180,29,05,16,255,33,27,12,163,25*6B
$BDGSV,5,5,19,19,11,262,36,09,07,187,,25,01,042,*5B
$BDRMC,123801.000,A,3018.4436,N,12004.7437,E,0.25,309.36,270326,,,A*73
$BDVTG,309.36,T,,M,0.25,N,0.46,K,A*26
$BDGGA,123802.000,3018.4436,N,12004.7436,E,1,11,0.92,-12.4,M,7.0,M,,*5F
$BDGLL,3018.4436,N,12004.7436,E,123802.000,A,A*4C
$BDGSA,A,3,06,23,29,13,20,08,03,30,02,07,27,,1.30,0.92,0.92*15
$BDGSV,5,1,19,03,55,199,37,30,53,211,39,08,50,340,36,20,50,295,45*68
$BDGSV,5,2,19,01,47,137,,13,46,323,41,29,42,294,40,02,39,237,35*69
$BDGSV,5,3,19,04,37,118,,10,31,220,,07,28,207,38,16,22,173,*6C
$BDGSV,5,4,19,23,18,084,18,06,17,180,29,05,16,255,32,27,12,163,25*6A
$BDGSV,5,5,19,19,11,262,35,09,07,187,,25,01,042,*58
$BDRMC,123802.000,A,3018.4436,N,12004.7436,E,0.17,309.36,270326,,,A*70
$BDVTG,309.36,T,,M,0.17,N,0.32,K,A*24
$BDGGA,123803.000,3018.4436,N,12004.7436,E,1,11,0.92,-12.4,M,7.0,M,,*5E
$BDGLL,3018.4436,N,12004.7436,E,123803.000,A,A*4D
$BDGSA,A,3,06,23,29,13,20,08,03,30,02,07,27,,1.30,0.92,0.92*15
$BDGSV,5,1,19,03,55,199,37,30,53,211,39,08,50,340,36,20,50,295,45*68
$BDGSV,5,2,19,01,47,137,,13,46,323,40,29,42,294,40,02,39,237,35*68
$BDGSV,5,3,19,04,37,118,,10,31,220,,07,28,207,38,16,22,173,*6C
$BDGSV,5,4,19,23,18,084,18,06,17,180,29,05,16,255,32,27,12,163,24*6B
$BDGSV,5,5,19,19,11,262,36,09,07,187,,25,01,042,*5B
$BDRMC,123803.000,A,3018.4436,N,12004.7436,E,0.11,309.36,270326,,,A*77
$BDVTG,309.36,T,,M,0.11,N,0.21,K,A*20
$BDGGA,123804.000,3018.4436,N,12004.7435,E,1,11,0.92,-12.4,M,7.0,M,,*5A
$BDGLL,3018.4436,N,12004.7435,E,123804.000,A,A*49
$BDGSA,A,3,06,23,29,13,20,08,03,30,02,07,27,,1.29,0.92,0.92*1D
$BDGSV,5,1,19,03,55,199,37,30,53,211,39,08,50,340,36,20,50,295,45*68
$BDGSV,5,2,19,01,47,137,,13,46,323,40,29,42,294,40,02,39,237,35*68
$BDGSV,5,3,19,04,37,118,,10,31,220,,07,28,207,38,16,22,173,*6C
$BDGSV,5,4,19,23,18,084,18,06,17,180,29,05,16,255,32,27,12,163,24*6B
$BDGSV,5,5,19,19,11,262,37,09,07,187,,25,01,042,*5A
$BDRMC,123804.000,A,3018.4436,N,12004.7435,E,0.42,309.36,270326,,,A*75
$BDVTG,309.36,T,,M,0.42,N,0.77,K,A*25
$BDGGA,123805.000,3018.4436,N,12004.7434,E,1,11,0.92,-12.4,M,7.0,M,,*5A
$BDGLL,3018.4436,N,12004.7434,E,123805.000,A,A*49
$BDGSA,A,3,06,23,29,13,20,08,03,30,02,07,27,,1.30,0.92,0.92*15
$BDGSV,5,1,19,03,55,199,37,30,53,211,39,08,50,340,36,20,50,295,45*68
$BDGSV,5,2,19,01,47,137,,13,46,323,40,29,42,294,41,02,39,237,35*69
$BDGSV,5,3,19,04,37,118,,10,31,220,,07,28,207,38,16,22,173,*6C
$BDGSV,5,4,19,23,18,084,18,06,17,180,29,05,16,255,32,27,12,163,24*6B
$BDGSV,5,5,19,19,11,262,38,09,07,187,,25,01,042,*55
$BDRMC,123805.000,A,3018.4436,N,12004.7434,E,0.25,309.36,270326,,,A*74
$BDVTG,309.36,T,,M,0.25,N,0.46,K,A*26
$BDGGA,123806.000,3018.4437,N,12004.7433,E,1,11,0.92,-12.4,M,7.0,M,,*5F
$BDGLL,3018.4437,N,12004.7433,E,123806.000,A,A*4C
$BDGSA,A,3,06,23,29,13,20,08,03,30,02,07,27,,1.29,0.92,0.92*1D
$BDGSV,5,1,19,03,55,199,37,30,53,211,39,08,50,340,36,20,50,295,45*68
$BDGSV,5,2,19,01,47,137,,13,46,323,40,29,42,294,41,02,39,237,35*69
$BDGSV,5,3,19,04,37,118,,10,31,220,,07,28,207,38,16,22,173,*6C
$BDGSV,5,4,19,23,18,084,19,06,17,180,29,05,16,255,32,27,12,163,24*6A
$BDGSV,5,5,19,19,11,262,38,09,07,187,,25,01,042,*55
$BDRMC,123806.000,A,3018.4437,N,12004.7433,E,0.19,309.36,270326,,,A*7E
$BDVTG,309.36,T,,M,0.19,N,0.36,K,A*2E
$BDGGA,123807.000,3018.4436,N,12004.7433,E,1,11,0.92,-12.4,M,7.0,M,,*5F
$BDGLL,3018.4436,N,12004.7433,E,123807.000,A,A*4C
$BDGSA,A,3,06,23,29,13,20,08,03,30,02,07,27,,1.30,0.92,0.92*15
$BDGSV,5,1,19,03,55,199,38,30,53,211,39,08,50,340,36,20,50,295,45*67
$BDGSV,5,2,19,01,47,137,,13,46,323,40,29,42,294,41,02,39,237,35*69
$BDGSV,5,3,19,04,37,118,,10,31,220,,07,28,207,38,16,22,173,*6C
$BDGSV,5,4,19,23,18,084,19,06,17,180,28,05,16,255,32,27,12,163,24*6B
$BDGSV,5,5,19,19,11,262,39,09,07,187,,25,01,042,*54
$BDRMC,123807.000,A,3018.4436,N,12004.7433,E,0.25,309.36,270326,,,A*71
$BDVTG,309.36,T,,M,0.25,N,0.46,K,A*26
$BDGGA,123808.000,3018.4436,N,12004.7433,E,1,11,0.92,-12.4,M,7.0,M,,*50
$BDGLL,3018.4436,N,12004.7433,E,123808.000,A,A*43
$BDGSA,A,3,06,23,29,13,20,08,03,30,02,07,27,,1.29,0.92,0.92*1D
$BDGSV,5,1,19,03,55,199,38,30,53,211,39,08,50,340,36,20,50,295,45*67
$BDGSV,5,2,19,01,47,137,,13,46,323,40,29,42,294,41,02,39,237,35*69
$BDGSV,5,3,19,04,37,118,,10,31,220,,07,28,207,38,16,22,173,*6C
$BDGSV,5,4,19,23,18,084,19,06,17,180,28,05,16,255,33,27,12,163,24*6A
$BDGSV,5,5,19,19,11,262,39,09,07,187,,25,01,042,*54
$BDRMC,123808.000,A,3018.4436,N,12004.7433,E,0.13,309.36,270326,,,A*7B
$BDVTG,309.36,T,,M,0.13,N,0.25,K,A*26
$BDGGA,123809.000,3018.4436,N,12004.7432,E,1,11,0.92,-12.4,M,7.0,M,,*50
$BDGLL,3018.4436,N,12004.7432,E,123809.000,A,A*43
$BDGSA,A,3,06,23,29,13,20,08,03,30,02,07,27,,1.29,0.92,0.92*1D
$BDGSV,5,1,19,03,55,199,38,30,53,211,39,08,50,340,36,20,50,295,45*67
$BDGSV,5,2,19,01,47,137,,13,46,323,40,29,42,294,41,02,39,237,35*69
$BDGSV,5,3,19,04,37,118,,10,31,220,,07,28,207,38,16,22,173,*6C
$BDGSV,5,4,19,23,18,084,19,06,17,180,28,05,16,255,33,27,12,163,24*6A
$BDGSV,5,5,19,19,11,262,39,09,07,187,,25,01,042,*54
$BDRMC,123809.000,A,3018.4436,N,12004.7432,E,0.07,309.36,270326,,,A*7E
$BDVTG,309.36,T,,M,0.07,N,0.13,K,A*26
$BDGGA,123810.000,3018.4436,N,12004.7432,E,1,11,0.92,-12.4,M,7.0,M,,*58
$BDGLL,3018.4436,N,12004.7432,E,123810.000,A,A*4B
$BDGSA,A,3,06,23,29,13,20,08,03,30,02,07,27,,1.30,0.92,0.91*16
$BDGSV,5,1,19,03,55,199,38,30,53,211,40,08,50,340,36,20,50,295,45*69
$BDGSV,5,2,19,01,47,137,,13,46,323,40,29,42,294,41,02,39,237,35*69
$BDGSV,5,3,19,04,37,118,,10,31,220,,07,28,207,36,16,22,173,*62
$BDGSV,5,4,19,23,18,084,19,06,17,180,28,05,16,255,31,27,12,163,24*68
$BDGSV,5,5,19,19,11,262,38,09,07,187,,25,01,042,*55
$BDRMC,123810.000,A,3018.4436,N,12004.7432,E,0.52,309.36,270326,,,A*76
$BDVTG,309.36,T,,M,0.52,N,0.96,K,A*2B
$BDGGA,123811.000,3018.4436,N,12004.7432,E,1,10,0.95,-12.3,M,7.0,M,,*58
$BDGLL,3018.4436,N,12004.7432,E,123811.000,A,A*4A
$BDGSA,A,3,06,23,29,13,20,08,03,30,02,07,,,1.33,0.95,0.92*14
$BDGSV,5,1,19,03,55,199,38,30,53,211,39,08,50,340,36,20,50,295,46*64
$BDGSV,5,2,19,01,47,137,,13,46,323,40,29,42,294,41,02,39,237,33*6F
$BDGSV,5,3,19,04,37,118,,10,31,220,,07,28,207,35,16,22,173,*61
$BDGSV,5,4,19,23,18,084,19,06,17,180,26,05,16,255,29,27,12,163,23*68
$BDGSV,5,5,19,19,11,262,36,09,07,187,,25,01,042,*5B
$BDRMC,123811.000,A,3018.4436,N,12004.7432,E,0.30,309.36,270326,,,A*73
$BDVTG,309.36,T,,M,0.30,N,0.56,K,A*23
$BDGGA,123812.000,3018.4436,N,12004.7431,E,1,10,0.95,-12.3,M,7.0,M,,*58
$BDGLL,3018.4436,N,12004.7431,E,123812.000,A,A*4A
$BDGSA,A,3,06,23,29,13,20,08,03,30,02,07,,,1.33,0.95,0.92*14
$BDGSV,5,1,19,03,55,199,38,30,53,211,37,08,50,340,35,20,50,295,47*68
$BDGSV,5,2,19,01,47,137,,13,46,323,39,29,42,294,40,02,39,237,34*67
$BDGSV,5,3,19,04,37,118,,10,31,220,,07,28,207,24,16,22,173,*61
$BDGSV,5,4,19,23,18,084,19,06,17,180,24,05,16,255,29,27,12,163,23*6A
$BDGSV,5,5,19,19,11,262,37,09,07,187,,25,01,042,*5A
$BDRMC,123812.000,A,3018.4436,N,12004.7431,E,0.33,309.36,270326,,,A*70
$BDVTG,309.36,T,,M,0.33,N,0.60,K,A*25
$BDGGA,123813.000,3018.4436,N,12004.7431,E,1,9,1.83,-12.3,M,7.0,M,,*67
$BDGLL,3018.4436,N,12004.7431,E,123813.000,A,A*4B
$BDGSA,A,3,06,29,13,20,08,03,30,02,07,,,,2.05,1.83,0.93*14
$BDGSV,5,1,19,03,55,199,39,30,53,211,36,08,50,340,34,20,50,295,47*69
$BDGSV,5,2,19,01,47,137,,13,46,323,39,29,42,294,41,02,39,237,32*60
$BDGSV,5,3,19,04,37,118,,10,31,220,,07,28,207,35,16,22,173,*61
$BDGSV,5,4,19,23,18,084,18,06,17,180,26,05,16,255,29,27,12,163,23*69
$BDGSV,5,5,19,19,11,262,37,09,07,187,,25,01,042,*5A
$BDRMC,123813.000,A,3018.4436,N,12004.7431,E,0.25,309.36,270326,,,A*76
$BDVTG,309.36,T,,M,0.25,N,0.46,K,A*26
$BDGGA,123814.000,3018.4436,N,12004.7430,E,1,11,0.92,-12.3,M,7.0,M,,*59
$BDGLL,3018.4436,N,12004.7430,E,123814.000,A,A*4D
$BDGSA,A,3,06,23,29,13,20,08,03,30,02,07,27,,1.29,0.92,0.92*1D
$BDGSV,5,1,19,03,55,199,40,30,53,211,37,08,50,340,32,20,50,295,46*61
$BDGSV,5,2,19,01,47,137,,13,46,323,29,29,42,294,39,02,39,237,33*6F
$BDGSV,5,3,19,04,37,118,,10,31,220,,07,28,207,36,16,22,173,*62
$BDGSV,5,4,19,23,18,084,17,06,17,180,28,05,16,255,30,27,12,163,23*60
$BDGSV,5,5,19,19,11,262,37,09,07,187,,25,01,042,*5A
$BDRMC,123814.000,A,3018.4436,N,12004.7430,E,0.22,309.36,270326,,,A*77
$BDVTG,309.36,T,,M,0.22,N,0.40,K,A*27
$BDGGA,123815.000,3018.4436,N,12004.7430,E,1,9,1.83,-12.3,M,7.0,M,,*60
$BDGLL,3018.4436,N,12004.7430,E,123815.000,A,A*4C
$BDGSA,A,3,06,29,13,20,08,03,30,02,07,,,,2.05,1.83,0.93*14
$BDGSV,5,1,19,03,55,199,40,30,53,211,39,08,50,340,30,20,50,295,47*6C
$BDGSV,5,2,19,01,47,137,,13,46,323,28,29,42,294,40,02,39,237,34*67
$BDGSV,5,3,19,04,37,118,,10,31,220,,07,28,207,20,16,22,173,*65
$BDGSV,5,4,19,23,18,084,17,06,17,180,36,05,16,255,31,27,12,163,23*6E
$BDGSV,5,5,19,19,11,262,37,09,07,187,,25,01,042,*5A
$BDRMC,123815.000,A,3018.4436,N,12004.7430,E,0.18,309.36,270326,,,A*7F
$BDVTG,309.36,T,,M,0.18,N,0.33,K,A*2A
$BDGGA,123816.000,3018.4437,N,12004.7431,E,1,10,0.95,-12.3,M,7.0,M,,*5D
$BDGLL,3018.4437,N,12004.7431,E,123816.000,A,A*4F
$BDGSA,A,3,06,23,29,13,20,08,03,30,02,07,,,1.33,0.95,0.92*14
$BDGSV,5,1,19,03,55,199,39,30,53,211,40,08,50,340,21,20,50,295,46*6D
$BDGSV,5,2,19,01,47,137,,13,46,323,28,29,42,294,40,02,39,237,27*65
$BDGSV,5,3,19,04,37,118,,10,31,220,,07,28,207,34,16,22,173,*60
$BDGSV,5,4,19,23,18,084,17,06,17,180,24,05,16,255,30,27,12,163,21*6E
$BDGSV,5,5,19,19,11,262,35,09,07,187,,25,01,042,*58
$BDRMC,123816.000,A,3018.4437,N,12004.7431,E,0.18,309.36,270326,,,A*7C
$BDVTG,309.36,T,,M,0.18,N,0.33,K,A*2A
$BDGGA,123817.000,3018.4437,N,12004.7430,E,1,11,0.92,-12.3,M,7.0,M,,*5B
$BDGLL,3018.4437,N,12004.7430,E,123817.000,A,A*4F
$BDGSA,A,3,06,23,29,13,20,08,03,30,02,07,27,,1.30,0.92,0.92*15
$BDGSV,5,1,19,03,55,199,31,30,53,211,40,08,50,340,22,20,50,295,32*65
$BDGSV,5,2,19,01,47,137,,13,46,323,30,29,42,294,25,02,39,237,27*6F
$BDGSV,5,3,19,04,37,118,,10,31,220,,07,28,207,33,16,22,173,*67
$BDGSV,5,4,19,23,18,084,16,06,17,180,22,05,16,255,28,27,12,163,14*66
$BDGSV,5,5,19,19,11,262,27,09,07,187,,25,01,042,*5B
$BDRMC,123817.000,A,3018.4437,N,12004.7430,E,0.14,309.36,270326,,,A*70
$BDVTG,309.36,T,,M,0.14,N,0.26,K,A*22
$BDGGA,123818.000,3018.4437,N,12004.7429,E,1,11,0.92,-12.3,M,7.0,M,,*5C
$BDGLL,3018.4437,N,12004.7429,E,123818.000,A,A*48
$BDGSA,A,3,06,23,29,13,20,08,03,30,02,07,27,,1.30,0.92,0.92*15
$BDGSV,5,1,19,03,55,199,31,30,53,211,40,08,50,340,24,20,50,295,33*62
$BDGSV,5,2,19,01,47,137,,13,46,323,31,29,42,294,26,02,39,237,26*6C
$BDGSV,5,3,19,04,37,118,,10,31,220,,07,28,207,25,16,22,173,*60
$BDGSV,5,4,19,23,18,084,15,06,17,180,21,05,16,255,26,27,12,163,12*6E
$BDGSV,5,5,19,19,11,262,27,09,07,187,,25,01,042,*5B
$BDRMC,123818.000,A,3018.4437,N,12004.7429,E,0.40,309.36,270326,,,A*76
$BDVTG,309.36,T,,M,0.40,N,0.74,K,A*24
$BDGGA,123819.000,3018.4437,N,12004.7427,E,1,11,0.92,-12.3,M,7.0,M,,*53
$BDGLL,3018.4437,N,12004.7427,E,123819.000,A,A*47
$BDGSA,A,3,06,23,29,13,20,08,03,30,02,07,27,,1.29,0.92,0.92*1D
$BDGSV,5,1,19,03,55,199,31,30,53,211,40,08,50,340,25,20,50,295,34*64
$BDGSV,5,2,19,01,47,137,,13,46,323,32,29,42,294,27,02,39,237,26*6E
$BDGSV,5,3,19,04,37,118,,10,31,220,,07,28,207,23,16,22,173,*66
$BDGSV,5,4,19,23,18,084,14,06,17,180,20,05,16,255,,27,12,163,11*69
$BDGSV,5,5,19,19,11,262,27,09,07,187,,25,01,042,*5B
$BDRMC,123819.000,A,3018.4437,N,12004.7427,E,0.38,309.36,270326,,,A*76
$BDVTG,309.36,T,,M,0.38,N,0.70,K,A*2F
$BDGGA,123820.000,3018.4436,N,12004.7425,E,1,11,0.92,-12.3,M,7.0,M,,*5A
$BDGLL,3018.4436,N,12004.7425,E,123820.000,A,A*4E
$BDGSA,A,3,06,23,29,13,20,08,03,30,02,07,27,,1.30,0.92,0.92*15
$BDGSV,5,1,19,03,55,199,29,30,53,211,39,08,50,340,25,20,50,295,35*62
$BDGSV,5,2,19,01,47,137,,13,46,323,32,29,42,294,34,02,39,237,26*6C
$BDGSV,5,3,19,04,37,118,,10,31,220,,07,28,207,22,16,22,173,*67
$BDGSV,5,4,19,23,18,084,13,06,17,180,19,05,16,255,,27,12,163,09*6D
$BDGSV,5,5,19,19,11,262,27,09,07,187,,25,01,042,*5B
$BDRMC,123820.000,A,3018.4436,N,12004.7425,E,0.41,309.36,270326,,,A*71
$BDVTG,309.36,T,,M,0.41,N,0.76,K,A*27
$BDGGA,123821.000,3018.4436,N,12004.7424,E,1,10,0.95,-12.3,M,7.0,M,,*5C
$BDGLL,3018.4436,N,12004.7424,E,123821.000,A,A*4E
$BDGSA,A,3,06,23,29,13,20,08,03,30,02,07,,,1.33,0.95,0.92*14
$BDGSV,5,1,19,03,55,199,30,30,53,211,38,08,50,340,25,20,50,295,36*68
$BDGSV,5,2,19,01,47,137,,13,46,323,32,29,42,294,34,02,39,237,25*6F
$BDGSV,5,3,19,04,37,118,,10,31,220,,07,28,207,31,16,22,173,*65
$BDGSV,5,4,19,23,18,084,13,06,17,180,19,05,16,255,,27,12,163,*64
$BDGSV,5,5,19,19,11,262,26,09,07,187,,25,01,042,*5A
$BDRMC,123821.000,A,3018.4436,N,12004.7424,E,0.38,309.36,270326,,,A*7F
$BDVTG,309.36,T,,M,0.38,N,0.70,K,A*2F
$BDGGA,123822.000,3018.4437,N,12004.7425,E,1,9,1.83,-12.3,M,7.0,M,,*61
$BDGLL,3018.4437,N,12004.7425,E,123822.000,A,A*4D
$BDGSA,A,3,06,29,13,20,08,03,30,02,07,,,,2.05,1.83,0.93*14
$BDGSV,5,1,19,03,55,199,31,30,53,211,38,08,50,340,25,20,50,295,28*66
$BDGSV,5,2,19,01,47,137,,13,46,323,31,29,42,294,27,02,39,237,26*6D
$BDGSV,5,3,19,04,37,118,,10,31,220,,07,28,207,30,16,22,173,*64
$BDGSV,5,4,19,23,18,084,14,06,17,180,18,05,16,255,,27,12,163,*62
$BDGSV,5,5,19,19,11,262,18,09,07,187,,25,01,042,*57
$BDRMC,123822.000,A,3018.4437,N,12004.7425,E,0.20,309.36,270326,,,A*75
$BDVTG,309.36,T,,M,0.20,N,0.38,K,A*2A
$BDGGA,123823.000,3018.4437,N,12004.7427,E,1,9,1.83,-12.3,M,7.0,M,,*62
$BDGLL,3018.4437,N,12004.7427,E,123823.000,A,A*4E
$BDGSA,A,3,06,29,13,20,08,03,30,02,07,,,,2.05,1.83,0.93*14
$BDGSV,5,1,19,03,55,199,31,30,53,211,38,08,50,340,25,20,50,295,29*67
$BDGSV,5,2,19,01,47,137,,13,46,323,25,29,42,294,27,02,39,237,27*69
$BDGSV,5,3,19,04,37,118,,10,31,220,,07,28,207,30,16,22,173,*64
$BDGSV,5,4,19,23,18,084,12,06,17,180,17,05,16,255,,27,12,163,*6B
$BDGSV,5,5,19,19,11,262,20,09,07,187,,25,01,042,*5C
$BDRMC,123823.000,A,3018.4437,N,12004.7427,E,0.14,309.36,270326,,,A*71
$BDVTG,309.36,T,,M,0.14,N,0.26,K,A*22
$BDGGA,123824.000,3018.4438,N,12004.7430,E,1,9,1.83,-12.3,M,7.0,M,,*6C
$BDGLL,3018.4438,N,12004.7430,E,123824.000,A,A*40
$BDGSA,A,3,06,29,13,20,08,03,30,02,07,,,,2.05,1.83,0.93*14
$BDGSV,5,1,19,03,55,199,31,30,53,211,38,08,50,340,25,20,50,295,37*68
$BDGSV,5,2,19,01,47,137,,13,46,323,27,29,42,294,28,02,39,237,27*64
$BDGSV,5,3,19,04,37,118,,10,31,220,,07,28,207,30,16,22,173,*64
$BDGSV,5,4,19,23,18,084,12,06,17,180,16,05,16,255,,27,12,163,*6A
$BDGSV,5,5,19,19,11,262,21,09,07,187,,25,01,042,*5D
$BDRMC,123824.000,A,3018.4438,N,12004.7430,E,0.13,309.36,270326,,,A*78
$BDVTG,309.36,T,,M,0.13,N,0.24,K,A*27
$BDGGA,123825.000,3018.4438,N,12004.7431,E,1,9,1.83,-12.3,M,7.0,M,,*6C
$BDGLL,3018.4438,N,12004.7431,E,123825.000,A,A*40
$BDGSA,A,3,06,29,13,20,08,03,30,02,07,,,,2.05,1.83,0.93*14
$BDGSV,5,1,19,03,55,199,31,30,53,211,38,08,50,340,24,20,50,295,37*69
$BDGSV,5,2,19,01,47,137,,13,46,323,32,29,42,294,30,02,39,237,27*69
$BDGSV,5,3,19,04,37,118,,10,31,220,,07,28,207,30,16,22,173,*64
$BDGSV,5,4,19,23,18,084,13,06,17,180,15,05,16,255,,27,12,163,*68
$BDGSV,5,5,19,19,11,262,23,09,07,187,,25,01,042,*5F
$BDRMC,123825.000,A,3018.4438,N,12004.7431,E,0.21,309.36,270326,,,A*79
$BDVTG,309.36,T,,M,0.21,N,0.38,K,A*2B
$BDGGA,123826.000,3018.4438,N,12004.7433,E,1,9,1.83,-12.3,M,7.0,M,,*6D
$BDGLL,3018.4438,N,12004.7433,E,123826.000,A,A*41
$BDGSA,A,3,06,29,13,20,08,03,30,02,07,,,,2.05,1.83,0.93*14
$BDGSV,5,1,19,03,55,199,31,30,53,211,38,08,50,340,24,20,50,295,37*69
$BDGSV,5,2,19,01,47,137,,13,46,323,30,29,42,294,31,02,39,237,27*6A
$BDGSV,5,3,19,04,37,118,,10,31,220,,07,28,207,30,16,22,173,*64
$BDGSV,5,4,19,23,18,084,13,06,17,180,15,05,16,255,,27,12,163,*68
$BDGSV,5,5,19,19,11,262,24,09,07,187,,25,01,042,*58
$BDRMC,123826.000,A,3018.4438,N,12004.7433,E,0.22,309.36,270326,,,A*7B
$BDVTG,309.36,T,,M,0.22,N,0.40,K,A*27
$BDGGA,123827.000,3018.4439,N,12004.7436,E,1,9,1.83,-12.3,M,7.0,M,,*68
$BDGLL,3018.4439,N,12004.7436,E,123827.000,A,A*44
$BDGSA,A,3,06,29,13,20,08,03,30,02,07,,,,2.05,1.83,0.93*14
$BDGSV,5,1,19,03,55,199,32,30,53,211,38,08,50,340,24,20,50,295,37*6A
$BDGSV,5,2,19,01,47,137,,13,46,323,30,29,42,294,32,02,39,237,27*69
$BDGSV,5,3,19,04,37,118,,10,31,220,,07,28,206,30,16,22,173,*65
$BDGSV,5,4,19,23,18,084,11,06,17,180,14,05,16,255,,27,12,163,*6B
$BDGSV,5,5,19,19,11,262,24,09,07,187,,25,01,042,*58
$BDRMC,123827.000,A,3018.4439,N,12004.7436,E,0.41,309.36,270326,,,A*7B
$BDVTG,309.36,T,,M,0.41,N,0.76,K,A*27
$BDGGA,123828.000,3018.4439,N,12004.7437,E,1,8,2.15,-12.3,M,7.0,M,,*6B
$BDGLL,3018.4439,N,12004.7437,E,123828.000,A,A*4A
$BDGSA,A,3,29,13,20,08,03,30,02,07,,,,,2.35,2.15,0.97*19
$BDGSV,5,1,19,03,55,199,32,30,53,211,38,08,50,340,24,20,50,295,37*6A
$BDGSV,5,2,19,01,47,137,,13,46,323,31,29,42,294,32,02,39,237,27*68
$BDGSV,5,3,19,04,37,118,,10,31,220,,07,28,206,29,16,22,173,*6D
$BDGSV,5,4,19,23,18,084,11,06,17,180,11,05,16,255,,27,12,163,*6E
$BDGSV,5,5,19,19,11,262,24,09,07,187,,25,01,042,*58
$BDRMC,123828.000,A,3018.4439,N,12004.7437,E,0.09,309.36,270326,,,A*79
$BDVTG,309.36,T,,M,0.09,N,0.17,K,A*2C
$BDGGA,123829.000,3018.4438,N,12004.7439,E,1,8,2.15,-12.3,M,7.0,M,,*65
$BDGLL,3018.4438,N,12004.7439,E,123829.000,A,A*44
$BDGSA,A,3,29,13,20,08,03,30,02,07,,,,,2.36,2.15,0.97*1A
$BDGSV,5,1,19,03,55,199,32,30,53,211,38,08,50,340,24,20,50,295,37*6A
$BDGSV,5,2,19,01,47,137,,13,46,323,30,29,42,294,32,02,39,237,27*69
$BDGSV,5,3,19,04,37,118,,10,31,220,,07,28,206,29,16,22,173,*6D
$BDGSV,5,4,19,23,18,084,11,06,17,180,13,05,16,255,,27,12,163,*6C
$BDGSV,5,5,19,19,11,262,23,09,08,187,,25,01,042,*50
$BDRMC,123829.000,A,3018.4438,N,12004.7439,E,0.15,309.36,270326,,,A*7A
$BDVTG,309.36,T,,M,0.15,N,0.28,K,A*2D
$BDGGA,123830.000,3018.4437,N,12004.7442,E,1,8,2.14,-12.3,M,7.0,M,,*6F
$BDGLL,3018.4437,N,12004.7442,E,123830.000,A,A*4F
$BDGSA,A,3,29,13,20,08,03,30,02,07,,,,,2.35,2.14,0.97*18
$BDGSV,5,1,19,03,55,199,32,30,53,211,38,08,50,340,24,20,50,295,37*6A
$BDGSV,5,2,19,01,47,137,,13,46,323,29,29,42,294,32,02,39,237,27*61
$BDGSV,5,3,19,04,37,118,,10,31,219,,07,28,206,28,16,22,173,*66
$BDGSV,5,4,19,23,18,084,,06,17,180,,05,16,255,,27,12,163,*6E
$BDGSV,5,5,19,19,11,262,,09,08,187,,25,01,042,*51
$BDRMC,123830.000,A,3018.4437,N,12004.7442,E,0.58,309.36,270326,,,A*78
$BDVTG,309.36,T,,M,0.58,N,1.08,K,A*27
$BDGGA,123831.000,3018.4437,N,12004.7439,E,1,7,2.52,-12.3,M,7.0,M,,*6F
$BDGLL,3018.4437,N,12004.7439,E,123831.000,A,A*42
$BDGSA,A,3,29,13,20,08,03,30,07,,,,,,2.70,2.52,0.97*19
$BDGSV,5,1,19,03,55,199,32,30,53,211,38,08,50,340,24,20,50,295,37*6A
$BDGSV,5,2,19,01,47,137,,13,46,323,30,29,42,294,32,02,39,237,*6C
$BDGSV,5,3,19,04,37,118,,10,31,219,,07,28,206,27,16,22,173,*69
$BDGSV,5,4,19,23,18,084,,06,17,180,,05,16,255,,27,12,163,*6E
$BDGSV,5,5,19,19,11,262,25,09,08,187,,25,01,042,*56
$BDRMC,123831.000,A,3018.4437,N,12004.7439,E,0.51,309.36,270326,,,A*7C
$BDVTG,309.36,T,,M,0.51,N,0.95,K,A*2B
$BDGGA,123832.000,3018.4437,N,12004.7441,E,1,7,2.52,-12.3,M,7.0,M,,*63
$BDGLL,3018.4437,N,12004.7441,E,123832.000,A,A*4E
$BDGSA,A,3,29,13,20,08,03,30,07,,,,,,2.70,2.52,0.97*19
$BDGSV,5,1,19,03,55,199,31,30,53,211,38,08,50,340,24,20,50,295,35*6B
$BDGSV,5,2,19,01,47,137,,13,46,323,31,29,42,294,30,02,39,237,*6F
$BDGSV,5,3,19,04,37,118,,10,31,219,,07,28,206,28,16,22,173,*66
$BDGSV,5,4,19,23,18,084,,06,17,180,,05,16,255,,27,12,163,*6E
$BDGSV,5,5,19,19,11,262,26,09,08,187,,25,01,042,*55
$BDRMC,123832.000,A,3018.4437,N,12004.7441,E,0.55,127.50,270326,,,A*7A
$BDVTG,127.50,T,,M,0.55,N,1.03,K,A*2F
$BDGGA,123833.000,3018.4435,N,12004.7442,E,1,7,2.52,-12.3,M,7.0,M,,*63
$BDGLL,3018.4435,N,12004.7442,E,123833.000,A,A*4E
$BDGSA,A,3,29,13,20,08,03,30,07,,,,,,2.70,2.52,0.97*19
$BDGSV,5,1,19,03,55,199,31,30,53,211,39,08,50,340,24,20,50,295,35*6A
$BDGSV,5,2,19,01,47,137,,13,46,323,30,29,42,294,30,02,39,237,*6E
$BDGSV,5,3,19,04,37,118,,10,31,219,,07,28,206,29,16,22,173,*67
$BDGSV,5,4,19,23,18,084,,06,17,180,,05,16,255,,27,12,163,*6E
$BDGSV,5,5,19,19,11,262,29,09,08,187,,25,01,042,*5A
$BDRMC,123833.000,A,3018.4435,N,12004.7442,E,0.53,127.50,270326,,,A*7C
$BDVTG,127.50,T,,M,0.53,N,0.98,K,A*2A
$BDGGA,123834.000,3018.4435,N,12004.7442,E,1,7,2.52,-12.3,M,7.0,M,,*64
$BDGLL,3018.4435,N,12004.7442,E,123834.000,A,A*49
$BDGSA,A,3,29,13,20,08,03,30,07,,,,,,2.70,2.52,0.97*19
$BDGSV,5,1,19,03,55,199,31,30,53,211,39,08,50,340,24,20,50,295,35*6A
$BDGSV,5,2,19,01,47,137,,13,46,323,31,29,42,294,32,02,39,237,*6D
$BDGSV,5,3,19,04,37,118,,10,31,219,,07,28,206,29,16,22,173,*67
$BDGSV,5,4,19,23,18,084,,06,17,180,,05,16,255,,27,12,163,*6E
$BDGSV,5,5,19,19,11,262,27,09,08,187,,25,01,042,*54
$BDRMC,123834.000,A,3018.4435,N,12004.7442,E,0.22,127.50,270326,,,A*7D
$BDVTG,127.50,T,,M,0.22,N,0.41,K,A*28
$BDGGA,123835.000,3018.4435,N,12004.7443,E,1,7,2.52,-12.3,M,7.0,M,,*64
$BDGLL,3018.4435,N,12004.7443,E,123835.000,A,A*49
$BDGSA,A,3,29,13,20,08,03,30,07,,,,,,2.70,2.52,0.97*19
$BDGSV,5,1,19,03,55,199,32,30,53,211,39,08,50,340,24,20,50,295,35*69
$BDGSV,5,2,19,01,47,137,,13,46,323,31,29,42,294,32,02,39,237,27*68
$BDGSV,5,3,19,04,37,118,,10,31,219,,07,28,206,29,16,22,173,*67
$BDGSV,5,4,19,23,18,084,,06,17,180,,05,16,255,,27,12,163,*6E
$BDGSV,5,5,19,19,11,262,25,09,08,187,,25,01,042,*56
$BDRMC,123835.000,A,3018.4435,N,12004.7443,E,0.15,127.50,270326,,,A*79
$BDVTG,127.50,T,,M,0.15,N,0.28,K,A*23
$BDGGA,123836.000,3018.4435,N,12004.7444,E,1,7,2.52,-12.3,M,7.0,M,,*60
$BDGLL,3018.4435,N,12004.7444,E,123836.000,A,A*4D
$BDGSA,A,3,29,13,20,08,03,30,07,,,,,,2.70,2.52,0.97*19
$BDGSV,5,1,19,03,55,199,32,30,53,211,39,08,50,340,24,20,50,295,35*69
$BDGSV,5,2,19,01,47,137,,13,46,323,31,29,42,294,33,02,39,237,26*68
$BDGSV,5,3,19,04,37,118,,10,31,219,,07,28,206,30,16,22,173,*6F
$BDGSV,5,4,19,23,18,084,,06,17,180,,05,16,255,,27,12,163,*6E
$BDGSV,5,5,19,19,11,262,26,09,08,187,,25,01,042,*55
$BDRMC,123836.000,A,3018.4435,N,12004.7444,E,0.33,127.50,270326,,,A*79
$BDVTG,127.50,T,,M,0.33,N,0.62,K,A*29
$BDGGA,123837.000,3018.4434,N,12004.7445,E,1,7,2.52,-12.3,M,7.0,M,,*61
$BDGLL,3018.4434,N,12004.7445,E,123837.000,A,A*4C
$BDGSA,A,3,29,13,20,08,03,30,07,,,,,,2.70,2.52,0.97*19
$BDGSV,5,1,19,03,55,199,32,30,53,211,39,08,50,340,25,20,50,295,35*68
$BDGSV,5,2,19,01,47,137,,13,46,323,32,29,42,294,34,02,39,237,27*6D
$BDGSV,5,3,19,04,37,118,,10,31,219,,07,28,206,31,16,22,173,*6E
$BDGSV,5,4,19,23,18,084,,06,17,180,,05,16,255,,27,12,163,*6E
$BDGSV,5,5,19,19,11,262,25,09,08,187,,25,01,042,*56
$BDRMC,123837.000,A,3018.4434,N,12004.7445,E,0.26,127.50,270326,,,A*7C
$BDVTG,127.50,T,,M,0.26,N,0.48,K,A*25
$BDGGA,123838.000,3018.4434,N,12004.7447,E,1,8,2.14,-12.3,M,7.0,M,,*61
$BDGLL,3018.4434,N,12004.7447,E,123838.000,A,A*41
$BDGSA,A,3,29,13,02,20,08,03,30,07,,,,,2.35,2.14,0.97*18
$BDGSV,5,1,19,03,55,199,32,30,53,211,39,08,50,340,25,20,50,295,35*68
$BDGSV,5,2,19,01,47,137,,13,46,323,33,29,42,294,34,02,39,237,27*6C
$BDGSV,5,3,19,04,37,118,,10,31,219,,07,28,206,30,16,22,173,*6F
$BDGSV,5,4,19,23,18,084,,06,17,180,,05,16,255,,27,12,163,*6E
$BDGSV,5,5,19,19,11,262,26,09,08,187,,25,01,042,*55
$BDRMC,123838.000,A,3018.4434,N,12004.7447,E,0.23,127.50,270326,,,A*74
$BDVTG,127.50,T,,M,0.23,N,0.43,K,A*2B
$BDGGA,123839.000,3018.4434,N,12004.7449,E,1,8,2.14,-12.3,M,7.0,M,,*6E
$BDGLL,3018.4434,N,12004.7449,E,123839.000,A,A*4E
$BDGSA,A,3,29,13,02,20,08,03,30,07,,,,,2.35,2.14,0.97*18
$BDGSV,5,1,19,03,55,199,33,30,53,211,39,08,50,340,25,20,50,295,35*69
$BDGSV,5,2,19,01,47,137,,13,46,323,33,29,42,294,34,02,39,237,26*6D
$BDGSV,5,3,19,04,37,118,,10,31,219,,07,28,206,31,16,22,173,*6E
$BDGSV,5,4,19,23,18,084,,06,17,180,,05,16,255,,27,12,163,*6E
$BDGSV,5,5,19,19,12,262,26,09,08,187,,25,01,042,*56
$BDRMC,123839.000,A,3018.4434,N,12004.7449,E,0.49,127.50,270326,,,A*77
$BDVTG,127.50,T,,M,0.49,N,0.91,K,A*28
$BDGGA,123840.000,3018.4435,N,12004.7451,E,1,8,2.15,-12.3,M,7.0,M,,*69
$BDGLL,3018.4435,N,12004.7451,E,123840.000,A,A*48
$BDGSA,A,3,29,13,02,20,08,03,30,07,,,,,2.35,2.15,0.97*19
$BDGSV,5,1,19,03,55,199,33,30,53,211,39,08,50,340,25,20,50,296,35*6A
$BDGSV,5,2,19,01,47,137,,13,46,323,32,29,42,294,33,02,39,237,26*6B
$BDGSV,5,3,19,04,37,118,,10,31,219,,07,28,206,30,16,22,173,*6F
$BDGSV,5,4,19,23,18,084,,06,17,180,,05,16,255,,27,12,163,*6E
$BDGSV,5,5,19,19,12,262,27,09,08,187,,25,01,042,*57
$BDRMC,123840.000,A,3018.4435,N,12004.7451,E,0.36,127.50,270326,,,A*79
$BDVTG,127.50,T,,M,0.36,N,0.67,K,A*29
$BDGGA,123841.000,3018.4435,N,12004.7452,E,1,8,2.15,-12.3,M,7.0,M,,*6B
$BDGLL,3018.4435,N,12004.7452,E,123841.000,A,A*4A
$BDGSA,A,3,29,13,02,20,08,03,30,07,,,,,2.35,2.15,0.97*19
$BDGSV,5,1,19,03,55,199,33,30,53,211,39,08,50,340,25,20,50,296,35*6A
$BDGSV,5,2,19,01,47,137,,13,46,323,33,29,42,294,34,02,39,237,26*6D
$BDGSV,5,3,19,04,37,118,,10,31,219,,07,28,206,30,16,22,173,*6F
$BDGSV,5,4,19,23,18,084,,06,17,180,,05,16,255,,27,12,163,*6E
$BDGSV,5,5,19,19,12,262,28,09,08,187,,25,01,042,*58
$BDRMC,123841.000,A,3018.4435,N,12004.7452,E,0.10,127.50,270326,,,A*7F
$BDVTG,127.50,T,,M,0.10,N,0.18,K,A*25
$BDGGA,123842.000,3018.4436,N,12004.7455,E,1,8,2.14,-12.3,M,7.0,M,,*6D
$BDGLL,3018.4436,N,12004.7455,E,123842.000,A,A*4D
$BDGSA,A,3,29,13,02,20,08,03,30,07,,,,,2.35,2.14,0.97*18
$BDGSV,5,1,19,03,55,199,32,30,53,211,38,08,50,340,27,20,50,296,35*68
$BDGSV,5,2,19,01,47,137,,13,46,323,33,29,42,294,33,02,39,237,25*69
$BDGSV,5,3,19,04,37,118,,10,31,219,,07,28,206,23,16,22,173,*6D
$BDGSV,5,4,19,23,18,084,,06,17,180,,05,16,255,,27,12,163,*6E
$BDGSV,5,5,19,19,12,262,28,09,08,187,,25,01,042,*58
$BDRMC,123842.000,A,3018.4436,N,12004.7455,E,0.50,127.50,270326,,,A*7C
$BDVTG,127.50,T,,M,0.50,N,0.92,K,A*23
$BDGGA,123843.000,3018.4436,N,12004.7459,E,1,8,2.15,-12.2,M,7.0,M,,*60
$BDGLL,3018.4436,N,12004.7459,E,123843.000,A,A*40
$BDGSA,A,3,29,13,02,20,08,03,30,07,,,,,2.35,2.15,0.97*19
$BDGSV,5,1,19,03,55,199,32,30,53,211,38,08,50,340,26,20,50,296,35*69
$BDGSV,5,2,19,01,47,137,,13,46,323,33,29,42,294,34,02,39,237,25*6E
$BDGSV,5,3,19,04,37,118,,10,31,219,,07,28,206,24,16,22,173,*6A
$BDGSV,5,4,19,23,18,083,,06,17,180,,05,16,255,,27,12,163,*69
$BDGSV,5,5,19,19,12,262,28,09,08,187,,25,01,042,*58
$BDRMC,123843.000,A,3018.4436,N,12004.7459,E,0.56,67.53,270326,,,A*41
$BDVTG,67.53,T,,M,0.56,N,1.05,K,A*1C
$BDGGA,123844.000,3018.4436,N,12004.7464,E,1,8,2.15,-12.2,M,7.0,M,,*69
$BDGLL,3018.4436,N,12004.7464,E,123844.000,A,A*49
$BDGSA,A,3,29,13,02,20,08,03,30,07,,,,,2.35,2.15,0.97*19
$BDGSV,5,1,19,03,55,199,32,30,53,211,39,08,50,340,29,20,50,296,34*66
$BDGSV,5,2,19,01,47,137,,13,46,323,33,29,42,294,32,02,39,237,26*6B
$BDGSV,5,3,19,04,37,118,,10,31,219,,07,28,206,26,16,22,173,*68
$BDGSV,5,4,19,23,18,083,,06,17,180,,05,16,255,,27,12,163,*69
$BDGSV,5,5,19,19,12,262,28,09,08,187,,25,01,042,*58
$BDRMC,123844.000,A,3018.4436,N,12004.7464,E,0.76,94.48,270326,,,A*4C
$BDVTG,94.48,T,,M,0.76,N,1.40,K,A*19
$BDGGA,123845.000,3018.4436,N,12004.7469,E,1,8,2.15,-12.2,M,7.0,M,,*65
$BDGLL,3018.4436,N,12004.7469,E,123845.000,A,A*45
$BDGSA,A,3,29,13,02,20,08,03,30,07,,,,,2.35,2.15,0.97*19
$BDGSV,5,1,19,03,55,199,32,30,53,211,39,08,50,340,20,20,50,296,34*6F
$BDGSV,5,2,19,01,47,137,,13,46,323,31,29,42,294,32,02,39,237,26*69
$BDGSV,5,3,19,04,37,118,,10,31,219,,07,28,206,27,16,22,173,*69
$BDGSV,5,4,19,23,18,083,,06,17,180,,05,16,255,,27,12,163,*69
$BDGSV,5,5,19,19,12,262,28,09,08,187,,25,01,041,*5B
$BDRMC,123845.000,A,3018.4436,N,12004.7469,E,1.08,96.70,270326,,,A*41
$BDVTG,96.70,T,,M,1.08,N,1.99,K,A*1C
$BDGGA,123846.000,3018.4436,N,12004.7472,E,1,8,2.15,-12.2,M,7.0,M,,*6C
$BDGLL,3018.4436,N,12004.7472,E,123846.000,A,A*4C
$BDGSA,A,3,29,13,02,20,08,03,30,07,,,,,2.35,2.15,0.97*19
$BDGSV,5,1,19,03,55,199,32,30,53,211,39,08,50,340,28,20,50,296,35*66
$BDGSV,5,2,19,01,47,137,,13,46,323,31,29,42,294,33,02,39,237,26*68
$BDGSV,5,3,19,04,37,118,,10,31,219,,07,28,206,28,16,22,173,*66
$BDGSV,5,4,19,23,18,083,,06,17,180,,05,16,255,,27,12,163,*69
$BDGSV,5,5,19,19,12,262,27,09,08,187,,25,01,041,*54
$BDRMC,123846.000,A,3018.4436,N,12004.7472,E,0.84,78.33,270326,,,A*4A
$BDVTG,78.33,T,,M,0.84,N,1.56,K,A*1D
$BDGGA,123847.000,3018.4436,N,12004.7473,E,1,8,2.14,-12.2,M,7.0,M,,*6D
$BDGLL,3018.4436,N,12004.7473,E,123847.000,A,A*4C
$BDGSA,A,3,29,13,02,20,08,03,30,07,,,,,2.35,2.14,0.97*18
$BDGSV,5,1,19,03,55,199,32,30,53,211,39,08,50,340,28,20,50,296,35*66
$BDGSV,5,2,19,01,47,137,,13,46,323,31,29,42,294,34,02,39,237,26*6F
$BDGSV,5,3,19,04,37,118,,10,31,219,,07,28,206,29,16,22,173,*67
$BDGSV,5,4,19,23,18,083,,06,17,180,,05,16,255,,27,12,163,*69
$BDGSV,5,5,19,19,12,262,27,09,08,187,,25,01,041,*54
$BDRMC,123847.000,A,3018.4436,N,12004.7473,E,0.56,78.33,270326,,,A*45
$BDVTG,78.33,T,,M,0.56,N,1.03,K,A*12
$BDGGA,123848.000,3018.4436,N,12004.7474,E,1,8,2.14,-12.2,M,7.0,M,,*65
$BDGLL,3018.4436,N,12004.7474,E,123848.000,A,A*44
$BDGSA,A,3,29,13,02,20,08,03,30,07,,,,,2.35,2.14,0.97*18
$BDGSV,5,1,19,03,55,199,32,30,53,211,39,08,50,340,29,20,50,296,35*67
$BDGSV,5,2,19,01,47,137,,13,46,323,31,29,42,294,34,02,39,237,26*6F
$BDGSV,5,3,19,04,37,118,,10,31,219,,07,28,206,30,16,22,173,*6F
$BDGSV,5,4,19,23,18,083,,06,17,180,,05,16,255,,27,12,163,*69
$BDGSV,5,5,19,19,12,262,27,09,08,187,,25,01,041,*54
$BDRMC,123848.000,A,3018.4436,N,12004.7474,E,0.92,76.07,270326,,,A*4C
$BDVTG,76.07,T,,M,0.92,N,1.71,K,A*16
$BDGGA,123849.000,3018.4437,N,12004.7477,E,1,8,2.14,-12.2,M,7.0,M,,*66
$BDGLL,3018.4437,N,12004.7477,E,123849.000,A,A*47
$BDGSA,A,3,29,13,02,20,08,03,30,07,,,,,2.35,2.14,0.97*18
$BDGSV,5,1,19,03,55,199,32,30,53,211,39,08,50,340,27,20,50,296,35*69
$BDGSV,5,2,19,01,47,137,,13,46,323,31,29,42,293,34,02,39,237,26*68
$BDGSV,5,3,19,04,37,118,,10,31,219,,07,28,206,30,16,22,173,*6F
$BDGSV,5,4,19,23,18,083,,06,17,180,,05,16,255,,27,12,163,*69
$BDGSV,5,5,19,19,12,262,28,09,08,187,,25,01,041,*5B
$BDRMC,123849.000,A,3018.4437,N,12004.7477,E,0.64,75.14,270326,,,A*47
$BDVTG,75.14,T,,M,0.64,N,1.19,K,A*10
$BDGGA,123850.000,3018.4437,N,12004.7479,E,1,8,2.14,-12.2,M,7.0,M,,*60
$BDGLL,3018.4437,N,12004.7479,E,123850.000,A,A*41
$BDGSA,A,3,29,13,02,20,08,03,30,07,,,,,2.35,2.14,0.97*18
$BDGSV,5,1,19,03,55,199,32,30,52,210,39,08,50,340,25,20,50,296,34*6A
$BDGSV,5,2,19,01,47,137,,13,46,323,31,29,42,293,34,02,39,237,26*68
$BDGSV,5,3,19,04,37,118,,10,31,219,,07,28,206,31,16,22,173,*6E
$BDGSV,5,4,19,23,18,083,,06,17,180,,05,16,255,,27,12,163,*69
$BDGSV,5,5,19,19,12,262,27,09,08,187,,25,01,041,*54
$BDRMC,123850.000,A,3018.4437,N,12004.7479,E,0.70,76.44,270326,,,A*42
$BDVTG,76.44,T,,M,0.70,N,1.30,K,A*18
$BDGGA,123851.000,3018.4437,N,12004.7481,E,1,8,2.14,-12.2,M,7.0,M,,*66
$BDGLL,3018.4437,N,12004.7481,E,123851.000,A,A*47
$BDGSA,A,3,29,13,02,20,08,03,30,07,,,,,2.35,2.14,0.97*18
$BDGSV,5,1,19,03,55,199,32,30,52,210,39,08,50,340,24,20,50,296,33*6C
$BDGSV,5,2,19,01,47,137,,13,46,323,31,29,42,293,34,02,39,237,26*68
$BDGSV,5,3,19,04,37,118,,10,31,219,,07,28,206,31,16,22,173,*6E
$BDGSV,5,4,19,23,18,083,,06,17,180,,05,16,255,,27,12,163,*69
$BDGSV,5,5,19,19,12,262,27,09,08,187,,25,01,041,*54
$BDRMC,123851.000,A,3018.4437,N,12004.7481,E,0.63,76.44,270326,,,A*46
$BDVTG,76.44,T,,M,0.63,N,1.18,K,A*10
$BDGGA,123852.000,3018.4438,N,12004.7482,E,1,8,2.14,-12.2,M,7.0,M,,*69
$BDGLL,3018.4438,N,12004.7482,E,123852.000,A,A*48
$BDGSA,A,3,29,13,02,20,08,03,30,07,,,,,2.35,2.14,0.97*18
$BDGSV,5,1,19,03,55,199,32,30,52,210,39,08,50,340,23,20,50,296,33*6B
$BDGSV,5,2,19,01,47,137,,13,46,323,32,29,42,293,35,02,39,237,26*6A
$BDGSV,5,3,19,04,37,118,,10,31,219,,07,28,206,31,16,22,173,*6E
$BDGSV,5,4,19,23,18,083,,06,17,180,,05,16,255,,27,12,163,*69
$BDGSV,5,5,19,19,12,262,27,09,08,187,,25,01,041,*54
$BDRMC,123852.000,A,3018.4438,N,12004.7482,E,0.56,76.44,270326,,,A*4F
$BDVTG,76.44,T,,M,0.56,N,1.04,K,A*1B
$BDGGA,123853.000,3018.4438,N,12004.7483,E,1,8,2.14,-12.2,M,7.0,M,,*69
$BDGLL,3018.4438,N,12004.7483,E,123853.000,A,A*48
$BDGSA,A,3,29,13,02,20,08,03,30,07,,,,,2.35,2.14,0.97*18
$BDGSV,5,1,19,03,55,199,32,30,52,210,39,08,50,340,22,20,50,296,33*6A
$BDGSV,5,2,19,01,47,137,,13,46,323,32,29,42,293,35,02,39,237,26*6A
$BDGSV,5,3,19,04,37,118,,10,31,219,,07,28,206,31,16,22,173,*6E
$BDGSV,5,4,19,23,18,083,,06,17,180,15,05,16,255,,27,12,163,*6D
$BDGSV,5,5,19,19,12,262,28,09,08,187,,25,01,041,*5B
$BDRMC,123853.000,A,3018.4438,N,12004.7483,E,0.54,76.44,270326,,,A*4D
$BDVTG,76.44,T,,M,0.54,N,1.00,K,A*1D
$BDGGA,123854.000,3018.4439,N,12004.7485,E,1,8,2.14,-12.2,M,7.0,M,,*69
$BDGLL,3018.4439,N,12004.7485,E,123854.000,A,A*48
$BDGSA,A,3,29,13,02,20,08,03,30,07,,,,,2.35,2.14,0.97*18
$BDGSV,5,1,19,03,55,199,32,30,52,210,39,08,50,340,21,20,50,296,33*69
$BDGSV,5,2,19,01,47,137,,13,46,323,30,29,42,293,28,02,39,237,26*64
$BDGSV,5,3,19,04,37,118,,10,31,219,,07,28,206,31,16,22,173,*6E
$BDGSV,5,4,19,23,18,083,,06,17,180,16,05,16,255,,27,12,163,*6E
$BDGSV,5,5,19,19,12,262,27,09,08,187,,25,01,041,*54
$BDRMC,123854.000,A,3018.4439,N,12004.7485,E,0.83,59.57,270326,,,A*48
$BDVTG,59.57,T,,M,0.83,N,1.53,K,A*1E
$BDGGA,123855.000,3018.4440,N,12004.7485,E,1,9,1.83,-12.2,M,7.0,M,,*6A
$BDGLL,3018.4440,N,12004.7485,E,123855.000,A,A*47
$BDGSA,A,3,29,13,02,20,08,03,30,06,07,,,,2.05,1.83,0.93*14
$BDGSV,5,1,19,03,55,199,33,30,52,210,39,08,50,340,21,20,50,296,34*6F
$BDGSV,5,2,19,01,47,137,,13,46,323,28,29,42,293,29,02,39,237,26*6C
$BDGSV,5,3,19,04,37,118,,10,31,219,,07,28,206,30,16,22,173,*6F
$BDGSV,5,4,19,23,18,083,,06,17,180,21,05,16,255,,27,12,163,*6A
$BDGSV,5,5,19,19,12,262,25,09,08,187,,25,01,041,*56
$BDRMC,123855.000,A,3018.4440,N,12004.7485,E,0.61,63.24,270326,,,A*46
$BDVTG,63.24,T,,M,0.61,N,1.12,K,A*1A
$BDGGA,123856.000,3018.4440,N,12004.7484,E,1,9,1.83,-12.3,M,7.0,M,,*69
$BDGLL,3018.4440,N,12004.7484,E,123856.000,A,A*45
$BDGSA,A,3,29,13,02,20,08,03,30,06,07,,,,2.05,1.83,0.93*14
$BDGSV,5,1,19,03,55,199,35,30,52,210,40,08,50,340,22,20,50,296,45*62
$BDGSV,5,2,19,01,47,137,,13,46,323,29,29,42,293,40,02,39,237,28*6C
$BDGSV,5,3,19,04,37,118,,10,31,219,,07,28,206,30,16,22,173,*6F
$BDGSV,5,4,19,23,18,083,,06,17,180,30,05,16,255,,27,12,163,*6A
$BDGSV,5,5,19,19,12,262,27,09,08,187,,25,01,041,*54
$BDRMC,123856.000,A,3018.4440,N,12004.7484,E,0.42,63.24,270326,,,A*45
$BDVTG,63.24,T,,M,0.42,N,0.78,K,A*16
$BDGGA,123857.000,3018.4440,N,12004.7487,E,1,9,1.83,-12.3,M,7.0,M,,*6B
$BDGLL,3018.4440,N,12004.7487,E,123857.000,A,A*47
$BDGSA,A,3,29,13,02,20,08,03,30,06,07,,,,2.05,1.83,0.93*14
$BDGSV,5,1,19,03,55,199,37,30,52,210,41,08,50,340,24,20,50,296,45*67
$BDGSV,5,2,19,01,47,137,,13,46,323,29,29,42,293,41,02,39,237,30*64
$BDGSV,5,3,19,04,37,118,,10,31,219,,07,28,206,31,16,22,173,*6E
$BDGSV,5,4,19,23,18,083,,06,17,180,30,05,16,255,,27,12,163,*6A
$BDGSV,5,5,19,19,12,262,34,09,08,187,,25,01,041,*56
$BDRMC,123857.000,A,3018.4440,N,12004.7487,E,0.53,63.24,270326,,,A*47
$BDVTG,63.24,T,,M,0.53,N,0.98,K,A*18
$BDGGA,123858.000,3018.4440,N,12004.7486,E,1,9,1.83,-12.3,M,7.0,M,,*65
$BDGLL,3018.4440,N,12004.7486,E,123858.000,A,A*49
$BDGSA,A,3,06,29,13,02,20,08,03,30,07,,,,2.05,1.83,0.93*14
$BDGSV,5,1,19,03,55,199,38,30,52,210,41,08,50,340,31,20,50,296,45*6C
$BDGSV,5,2,19,01,47,137,,13,46,323,29,29,42,293,42,02,39,237,31*66
$BDGSV,5,3,19,04,37,118,,10,31,219,,07,28,206,32,16,22,173,*6D
$BDGSV,5,4,19,23,18,083,,06,17,180,30,05,16,255,30,27,12,163,*69
$BDGSV,5,5,19,19,12,262,33,09,08,187,,25,01,041,*51
$BDRMC,123858.000,A,3018.4440,N,12004.7486,E,0.17,63.24,270326,,,A*49
$BDVTG,63.24,T,,M,0.17,N,0.31,K,A*1B
$BDGGA,123859.000,3018.4441,N,12004.7487,E,1,9,1.83,-12.3,M,7.0,M,,*64
$BDGLL,3018.4441,N,12004.7487,E,123859.000,A,A*48
$BDGSA,A,3,06,29,13,02,20,08,03,30,07,,,,2.05,1.83,0.93*14
$BDGSV,5,1,19,03,55,199,38,30,52,210,41,08,50,340,30,20,50,296,45*6D
$BDGSV,5,2,19,01,47,137,,13,46,323,36,29,42,293,43,02,39,237,31*69
$BDGSV,5,3,19,04,37,118,,10,31,219,,07,28,206,31,16,22,173,*6E
$BDGSV,5,4,19,23,18,083,,06,17,180,31,05,16,255,31,27,12,163,*69
$BDGSV,5,5,19,19,12,262,33,09,08,187,,25,01,041,*51
$BDRMC,123859.000,A,3018.4441,N,12004.7487,E,0.25,63.24,270326,,,A*49
$BDVTG,63.24,T,,M,0.25,N,0.46,K,A*1A
$BDGGA,123900.000,3018.4441,N,12004.7487,E,1,9,1.83,-12.3,M,7.0,M,,*69
$BDGLL,3018.4441,N,12004.7487,E,123900.000,A,A*45
$BDGSA,A,3,06,29,13,02,20,08,03,30,07,,,,2.05,1.83,0.93*14
$BDGSV,5,1,19,03,55,199,39,30,52,210,42,08,50,340,30,20,50,296,45*6F
$BDGSV,5,2,19,01,47,137,,13,46,323,35,29,42,293,44,02,39,237,32*6E
$BDGSV,5,3,19,04,37,118,,10,31,219,,07,28,206,31,16,22,173,*6E
$BDGSV,5,4,19,23,18,083,,06,17,180,31,05,16,255,31,27,12,163,*69
$BDGSV,5,5,19,19,12,262,34,09,08,187,,25,01,041,*56
$BDRMC,123900.000,A,3018.4441,N,12004.7487,E,0.13,63.24,270326,,,A*41
$BDVTG,63.24,T,,M,0.13,N,0.23,K,A*1C
$BDGGA,123901.000,3018.4441,N,12004.7488,E,1,9,1.83,-12.3,M,7.0,M,,*67
$BDGLL,3018.4441,N,12004.7488,E,123901.000,A,A*4B
$BDGSA,A,3,06,29,13,02,20,08,03,30,07,,,,2.05,1.83,0.93*14
$BDGSV,5,1,19,03,55,199,39,30,52,210,42,08,50,340,30,20,50,296,44*6E
$BDGSV,5,2,19,01,47,137,,13,46,323,27,29,42,293,44,02,39,237,33*6C
$BDGSV,5,3,19,04,37,118,,10,31,219,,07,28,206,31,16,22,173,*6E
$BDGSV,5,4,19,23,18,083,,06,17,180,30,05,16,255,30,27,12,163,*69
$BDGSV,5,5,19,19,12,262,33,09,08,187,,25,01,041,*51
$BDRMC,123901.000,A,3018.4441,N,12004.7488,E,0.12,63.24,270326,,,A*4E
$BDVTG,63.24,T,,M,0.12,N,0.22,K,A*1C
$BDGGA,123902.000,3018.4441,N,12004.7488,E,1,9,1.83,-12.3,M,7.0,M,,*64
$BDGLL,3018.4441,N,12004.7488,E,123902.000,A,A*48
$BDGSA,A,3,06,29,13,02,20,08,03,30,07,,,,2.05,1.83,0.93*14
$BDGSV,5,1,19,03,55,199,39,30,52,210,42,08,50,340,29,20,50,296,44*66
$BDGSV,5,2,19,01,47,137,,13,46,323,29,29,42,293,44,02,39,237,34*65
$BDGSV,5,3,19,04,37,118,,10,31,219,,07,28,206,32,16,22,173,*6D
$BDGSV,5,4,19,23,18,083,,06,17,180,30,05,16,255,28,27,12,163,*60
$BDGSV,5,5,19,19,12,262,33,09,08,187,,25,01,041,*51
$BDRMC,123902.000,A,3018.4441,N,12004.7488,E,0.06,63.24,270326,,,A*48
$BDVTG,63.24,T,,M,0.06,N,0.11,K,A*19
$BDGGA,123903.000,3018.4441,N,12004.7488,E,1,9,1.82,-12.3,M,7.0,M,,*64
$BDGLL,3018.4441,N,12004.7488,E,123903.000,A,A*49
$BDGSA,A,3,06,29,13,02,20,08,03,30,07,,,,2.05,1.82,0.93*15
$BDGSV,5,1,19,03,55,199,40,30,52,210,42,08,50,340,30,20,50,296,44*60
$BDGSV,5,2,19,01,47,137,,13,46,323,31,29,42,293,44,02,39,237,34*6C
$BDGSV,5,3,19,04,37,118,,10,31,219,,07,28,206,31,16,22,173,*6E
$BDGSV,5,4,19,23,18,083,,06,17,180,30,05,16,255,28,27,12,163,*60
$BDGSV,5,5,19,19,12,262,34,09,08,187,,25,01,041,*56
$BDRMC,123903.000,A,3018.4441,N,12004.7488,E,0.13,63.24,270326,,,A*4D
$BDVTG,63.24,T,,M,0.13,N,0.24,K,A*1B
$BDGGA,123904.000,3018.4441,N,12004.7488,E,1,9,1.83,-12.3,M,7.0,M,,*62
$BDGLL,3018.4441,N,12004.7488,E,123904.000,A,A*4E
$BDGSA,A,3,06,29,13,02,20,08,03,30,07,,,,2.05,1.83,0.93*14
$BDGSV,5,1,19,03,55,199,40,30,52,210,42,08,50,340,30,20,50,296,44*60
$BDGSV,5,2,19,01,47,137,,13,46,323,32,29,42,293,44,02,39,237,34*6F
$BDGSV,5,3,19,04,37,118,,10,31,219,,07,28,206,31,16,22,173,*6E
$BDGSV,5,4,19,23,18,083,,06,17,180,30,05,16,255,28,27,12,163,*60
$BDGSV,5,5,19,19,12,262,33,09,08,187,,25,01,041,*51
$BDRMC,123904.000,A,3018.4441,N,12004.7488,E,0.11,63.24,270326,,,A*48
$BDVTG,63.24,T,,M,0.11,N,0.20,K,A*1D
$BDGGA,123905.000,3018.4441,N,12004.7488,E,1,9,1.82,-12.3,M,7.0,M,,*62
$BDGLL,3018.4441,N,12004.7488,E,123905.000,A,A*4F
$BDGSA,A,3,06,29,13,02,20,08,03,30,07,,,,2.05,1.82,0.93*15
$BDGSV,5,1,19,03,55,199,40,30,52,210,43,08,50,340,30,20,50,296,44*61
$BDGSV,5,2,19,01,47,137,,13,46,323,24,29,42,293,43,02,39,237,32*69
$BDGSV,5,3,19,04,37,118,,10,31,219,,07,28,206,32,16,22,173,*6D
$BDGSV,5,4,19,23,18,083,,06,17,180,30,05,16,255,28,27,12,163,*60
$BDGSV,5,5,19,19,12,262,23,09,08,187,,25,01,041,*50
$BDRMC,123905.000,A,3018.4441,N,12004.7488,E,0.11,63.24,270326,,,A*49
$BDVTG,63.24,T,,M,0.11,N,0.20,K,A*1D
$BDGGA,123906.000,3018.4440,N,12004.7488,E,1,9,1.83,-12.3,M,7.0,M,,*61
$BDGLL,3018.4440,N,12004.7488,E,123906.000,A,A*4D
$BDGSA,A,3,06,29,13,02,20,08,03,30,07,,,,2.05,1.83,0.93*14
$BDGSV,5,1,19,03,55,199,39,30,52,210,42,08,50,340,32,20,50,296,44*6C
$BDGSV,5,2,19,01,47,137,,13,46,323,32,29,42,293,43,02,39,237,33*6F
$BDGSV,5,3,19,04,37,118,,10,31,219,,07,28,206,32,16,22,173,*6D
$BDGSV,5,4,19,23,18,083,,06,17,180,29,05,16,255,29,27,12,163,*69
$BDGSV,5,5,19,19,12,262,34,09,08,187,,25,01,041,*56
$BDRMC,123906.000,A,3018.4440,N,12004.7488,E,0.08,63.24,270326,,,A*43
$BDVTG,63.24,T,,M,0.08,N,0.14,K,A*12
$BDGGA,123907.000,3018.4440,N,12004.7488,E,1,9,1.83,-12.3,M,7.0,M,,*60
$BDGLL,3018.4440,N,12004.7488,E,123907.000,A,A*4C
$BDGSA,A,3,06,29,13,02,20,08,03,30,07,,,,2.05,1.83,0.93*14
$BDGSV,5,1,19,03,55,199,39,30,52,210,43,08,50,340,33,20,50,296,44*6C
$BDGSV,5,2,19,01,47,137,,13,46,323,32,29,42,293,42,02,39,237,33*6E
$BDGSV,5,3,19,04,37,118,,10,31,219,,07,28,206,32,16,22,173,*6D
$BDGSV,5,4,19,23,18,083,,06,17,180,28,05,16,255,29,27,12,163,*68
$BDGSV,5,5,19,19,12,262,33,09,08,187,,25,01,041,*51
$BDRMC,123907.000,A,3018.4440,N,12004.7488,E,0.03,63.24,270326,,,A*49
$BDVTG,63.24,T,,M,0.03,N,0.06,K,A*1A
$BDGGA,123908.000,3018.4440,N,12004.7488,E,1,9,1.82,-12.3,M,7.0,M,,*6E
$BDGLL,3018.4440,N,12004.7488,E,123908.000,A,A*43
$BDGSA,A,3,06,29,13,02,20,08,03,30,07,,,,2.05,1.82,0.93*15
$BDGSV,5,1,19,03,55,199,39,30,52,210,43,08,50,340,34,20,50,296,44*6B
$BDGSV,5,2,19,01,47,137,,13,46,323,33,29,42,293,42,02,39,237,33*6F
$BDGSV,5,3,19,04,37,118,,10,31,219,,07,28,206,32,16,22,173,*6D
$BDGSV,5,4,19,23,18,083,,06,17,180,28,05,16,255,29,27,12,163,*68
$BDGSV,5,5,19,19,12,262,33,09,08,187,,25,01,041,*51
$BDRMC,123908.000,A,3018.4440,N,12004.7488,E,0.12,63.24,270326,,,A*46
$BDVTG,63.24,T,,M,0.12,N,0.23,K,A*1D
$BDGGA,123909.000,3018.4441,N,12004.7488,E,1,9,1.82,-12.3,M,7.0,M,,*6E
$BDGLL,3018.4441,N,12004.7488,E,123909.000,A,A*43
$BDGSA,A,3,06,29,13,02,20,08,03,30,07,,,,2.05,1.82,0.93*15
$BDGSV,5,1,19,03,55,199,40,30,52,210,43,08,50,340,35,20,50,296,44*64
$BDGSV,5,2,19,01,47,137,,13,46,323,34,29,42,293,42,02,39,237,33*68
$BDGSV,5,3,19,04,37,118,,10,31,219,,07,28,206,32,16,22,173,*6D
$BDGSV,5,4,19,23,18,083,,06,17,180,28,05,16,255,29,27,12,163,*68
$BDGSV,5,5,19,19,12,262,33,09,08,187,,25,01,041,*51
$BDRMC,123909.000,A,3018.4441,N,12004.7488,E,0.03,63.24,270326,,,A*46
$BDVTG,63.24,T,,M,0.03,N,0.06,K,A*1A
$BDGGA,123910.000,3018.4440,N,12004.7488,E,1,9,1.82,-12.3,M,7.0,M,,*67
$BDGLL,3018.4440,N,12004.7488,E,123910.000,A,A*4A
$BDGSA,A,3,06,29,13,02,20,08,03,30,07,,,,2.05,1.82,0.93*15
$BDGSV,5,1,19,03,55,199,40,30,52,210,43,08,50,340,36,20,50,296,44*67
$BDGSV,5,2,19,01,47,137,,13,46,323,34,29,42,293,42,02,39,237,33*68
$BDGSV,5,3,19,04,37,118,,10,31,219,,07,28,206,32,16,22,173,*6D
$BDGSV,5,4,19,23,18,083,,06,17,180,28,05,16,255,28,27,12,163,*69
$BDGSV,5,5,19,19,12,262,33,09,08,187,,25,01,041,*51
$BDRMC,123910.000,A,3018.4440,N,12004.7488,E,0.12,63.24,270326,,,A*4F
$BDVTG,63.24,T,,M,0.12,N,0.22,K,A*1C
$BDGGA,123911.000,3018.4440,N,12004.7488,E,1,9,1.83,-12.3,M,7.0,M,,*67
$BDGLL,3018.4440,N,12004.7488,E,123911.000,A,A*4B
$BDGSA,A,3,06,29,13,02,20,08,03,30,07,,,,2.05,1.83,0.93*14
$BDGSV,5,1,19,03,55,199,40,30,52,210,43,08,50,340,36,20,50,296,45*66
$BDGSV,5,2,19,01,47,137,,13,46,323,34,29,42,293,42,02,39,237,33*68
$BDGSV,5,3,19,04,37,118,,10,31,219,,07,28,206,33,16,22,173,*6C
$BDGSV,5,4,19,23,18,083,,06,17,180,27,05,16,255,28,27,12,163,*66
$BDGSV,5,5,19,19,12,262,32,09,08,187,,25,01,041,*50
$BDRMC,123911.000,A,3018.4440,N,12004.7488,E,0.03,63.24,270326,,,A*4E
$BDVTG,63.24,T,,M,0.03,N,0.06,K,A*1A
$BDGGA,123912.000,3018.4440,N,12004.7488,E,1,9,1.82,-12.3,M,7.0,M,,*65
$BDGLL,3018.4440,N,12004.7488,E,123912.000,A,A*48
$BDGSA,A,3,06,29,13,02,20,08,03,30,07,,,,2.05,1.82,0.93*15
$BDGSV,5,1,19,03,55,199,40,30,52,210,43,08,50,340,36,20,50,296,45*66
$BDGSV,5,2,19,01,47,137,,13,46,323,34,29,42,293,42,02,39,237,33*68
$BDGSV,5,3,19,04,37,118,,10,31,219,,07,28,206,32,16,22,173,*6D
$BDGSV,5,4,19,23,18,083,,06,17,180,26,05,16,255,29,27,12,163,*66
$BDGSV,5,5,19,19,12,262,33,09,08,187,,25,01,041,*51
$BDRMC,123912.000,A,3018.4440,N,12004.7488,E,0.16,63.24,270326,,,A*49
$BDVTG,63.24,T,,M,0.16,N,0.30,K,A*1B
$BDGGA,123913.000,3018.4440,N,12004.7488,E,1,9,1.83,-12.3,M,7.0,M,,*65
$BDGLL,3018.4440,N,12004.7488,E,123913.000,A,A*49
$BDGSA,A,3,06,29,13,02,20,08,03,30,07,,,,2.05,1.83,0.93*14
$BDGSV,5,1,19,03,55,199,32,30,52,210,36,08,50,340,36,20,50,296,45*61
$BDGSV,5,2,19,01,47,137,,13,46,323,34,29,42,293,41,02,39,237,32*6A
$BDGSV,5,3,19,04,37,118,,10,31,219,,07,28,206,31,16,22,173,*6E
$BDGSV,5,4,19,23,18,083,,06,17,180,27,05,16,255,30,27,12,163,*6F
$BDGSV,5,5,19,19,12,262,31,09,08,187,,25,01,041,*53
$BDRMC,123913.000,A,3018.4440,N,12004.7488,E,0.05,63.24,270326,,,A*4A
$BDVTG,63.24,T,,M,0.05,N,0.09,K,A*13
$BDGGA,123914.000,3018.4440,N,12004.7488,E,1,9,1.82,-12.3,M,7.0,M,,*63
$BDGLL,3018.4440,N,12004.7488,E,123914.000,A,A*4E
$BDGSA,A,3,06,29,13,02,20,08,03,30,07,,,,2.05,1.82,0.93*15
$BDGSV,5,1,19,03,55,199,40,30,52,210,43,08,50,340,36,20,50,296,43*60
$BDGSV,5,2,19,01,47,137,,13,46,323,34,29,42,293,40,02,39,237,33*6A
$BDGSV,5,3,19,04,37,118,,10,31,219,,07,28,206,32,16,22,173,*6D
$BDGSV,5,4,19,23,18,083,18,06,17,180,27,05,16,255,29,27,12,163,*6E
$BDGSV,5,5,19,19,12,262,31,09,08,187,,25,01,041,*53
$BDRMC,123914.000,A,3018.4440,N,12004.7488,E,0.08,63.24,270326,,,A*40
$BDVTG,63.24,T,,M,0.08,N,0.15,K,A*13
$BDGGA,123915.000,3018.4440,N,12004.7488,E,1,9,1.82,-12.3,M,7.0,M,,*62
$BDGLL,3018.4440,N,12004.7488,E,123915.000,A,A*4F
$BDGSA,A,3,06,29,13,02,20,08,03,30,07,,,,2.05,1.82,0.93*15
$BDGSV,5,1,19,03,55,199,40,30,52,210,43,08,50,340,36,20,50,296,44*67
$BDGSV,5,2,19,01,47,137,,13,46,323,34,29,42,293,41,02,39,237,34*6C
$BDGSV,5,3,19,04,37,118,,10,31,219,,07,28,206,32,16,22,173,*6D
$BDGSV,5,4,19,23,18,083,17,06,17,180,27,05,16,255,29,27,12,163,*61
$BDGSV,5,5,19,19,12,262,31,09,08,187,,25,01,041,*53
$BDRMC,123915.000,A,3018.4440,N,12004.7488,E,0.10,63.24,270326,,,A*48
$BDVTG,63.24,T,,M,0.10,N,0.19,K,A*16
$BDGGA,123916.000,3018.4440,N,12004.7488,E,1,9,1.82,-12.3,M,7.0,M,,*61
$BDGLL,3018.4440,N,12004.7488,E,123916.000,A,A*4C
$BDGSA,A,3,06,29,13,02,20,08,03,30,07,,,,2.05,1.82,0.93*15
$BDGSV,5,1,19,03,55,199,39,30,52,210,43,08,50,340,36,20,50,296,44*69
$BDGSV,5,2,19,01,47,137,,13,46,323,35,29,42,293,41,02,39,237,34*6D
$BDGSV,5,3,19,04,37,118,,10,31,219,,07,28,206,32,16,22,173,*6D
$BDGSV,5,4,19,23,18,083,17,06,17,180,26,05,16,255,29,27,12,163,*60
$BDGSV,5,5,19,19,12,262,32,09,08,187,,25,01,041,*50
$BDRMC,123916.000,A,3018.4440,N,12004.7488,E,0.07,63.24,270326,,,A*4D
$BDVTG,63.24,T,,M,0.07,N,0.13,K,A*1A
$BDGGA,123917.000,3018.4441,N,12004.7488,E,1,9,1.82,-12.3,M,7.0,M,,*61
$BDGLL,3018.4441,N,12004.7488,E,123917.000,A,A*4C
$BDGSA,A,3,06,29,13,02,20,08,03,30,07,,,,2.05,1.82,0.93*15
$BDGSV,5,1,19,03,55,199,38,30,52,210,42,08,50,340,37,20,50,296,44*68
$BDGSV,5,2,19,01,47,137,,13,46,323,35,29,42,293,41,02,39,237,34*6D
$BDGSV,5,3,19,04,37,118,,10,31,219,,07,28,206,31,16,22,173,*6E
$BDGSV,5,4,19,23,18,083,18,06,17,180,27,05,16,255,29,27,12,163,*6E
$BDGSV,5,5,19,19,12,262,31,09,08,187,,25,01,041,*53
$BDRMC,123917.000,A,3018.4441,N,12004.7488,E,0.07,63.24,270326,,,A*4D
$BDVTG,63.24,T,,M,0.07,N,0.13,K,A*1A
$BDGGA,123918.000,3018.4441,N,12004.7489,E,1,10,0.95,-12.3,M,7.0,M,,*50
$BDGLL,3018.4441,N,12004.7489,E,123918.000,A,A*42
$BDGSA,A,3,06,29,23,13,02,20,08,03,30,07,,,1.33,0.95,0.92*14
$BDGSV,5,1,19,03,55,199,38,30,52,210,43,08,50,340,37,20,50,296,42*6F
$BDGSV,5,2,19,01,47,137,,13,46,323,33,29,42,293,41,02,39,237,34*6B
$BDGSV,5,3,19,04,37,118,,10,31,219,,07,28,206,32,16,22,173,*6D
$BDGSV,5,4,19,23,18,083,19,06,17,180,28,05,16,255,29,27,12,163,*60
$BDGSV,5,5,19,19,12,262,32,09,08,187,,25,01,041,*50
$BDRMC,123918.000,A,3018.4441,N,12004.7489,E,0.13,63.24,270326,,,A*46
$BDVTG,63.24,T,,M,0.13,N,0.24,K,A*1B
$BDGGA,123919.000,3018.4441,N,12004.7489,E,1,10,0.95,-12.3,M,7.0,M,,*51
$BDGLL,3018.4441,N,12004.7489,E,123919.000,A,A*43
$BDGSA,A,3,06,29,23,13,02,20,08,03,30,07,,,1.33,0.95,0.93*15
$BDGSV,5,1,19,03,55,199,38,30,52,210,43,08,50,340,36,20,50,296,43*6F
$BDGSV,5,2,19,01,47,137,,13,46,323,32,29,42,293,41,02,39,237,34*6A
$BDGSV,5,3,19,04,37,118,,10,31,219,,07,28,206,32,16,22,173,*6D
$BDGSV,5,4,19,23,18,083,19,06,17,180,28,05,16,255,29,27,12,163,*60
$BDGSV,5,5,19,19,12,262,32,09,08,187,,25,01,041,*50
$BDRMC,123919.000,A,3018.4441,N,12004.7489,E,0.06,63.24,270326,,,A*43
$BDVTG,63.24,T,,M,0.06,N,0.11,K,A*19
$BDGGA,123920.000,3018.4441,N,12004.7489,E,1,9,1.83,-12.3,M,7.0,M,,*65
$BDGLL,3018.4441,N,12004.7489,E,123920.000,A,A*49
$BDGSA,A,3,06,29,13,02,20,08,03,30,07,,,,2.05,1.83,0.93*14
$BDGSV,5,1,19,03,55,199,38,30,52,210,43,08,50,340,36,20,50,296,43*6F
$BDGSV,5,2,19,01,47,137,,13,46,323,32,29,42,293,42,02,39,237,34*69
$BDGSV,5,3,19,04,37,118,,10,31,219,,07,28,206,32,16,22,173,*6D
$BDGSV,5,4,19,23,18,083,18,06,17,180,27,05,16,255,30,27,12,163,*66
$BDGSV,5,5,19,19,12,262,32,09,08,187,,25,01,041,*50
$BDRMC,123920.000,A,3018.4441,N,12004.7489,E,0.04,63.24,270326,,,A*4B
$BDVTG,63.24,T,,M,0.04,N,0.08,K,A*13
$BDGGA,123921.000,3018.4441,N,12004.7489,E,1,9,1.82,-12.3,M,7.0,M,,*65
$BDGLL,3018.4441,N,12004.7489,E,123921.000,A,A*48
$BDGSA,A,3,06,29,13,02,20,08,03,30,07,,,,2.05,1.82,0.93*15
$BDGSV,5,1,19,03,55,199,38,30,52,210,43,08,50,340,36,20,50,296,43*6F
$BDGSV,5,2,19,01,47,137,,13,46,323,33,29,42,293,42,02,39,237,34*68
$BDGSV,5,3,19,04,37,118,,10,31,219,,07,28,206,33,16,22,173,*6C
$BDGSV,5,4,19,23,18,083,18,06,17,180,27,05,16,255,30,27,12,163,*66
$BDGSV,5,5,19,19,12,262,32,09,08,187,,25,01,041,*50
$BDRMC,123921.000,A,3018.4441,N,12004.7489,E,0.10,63.24,270326,,,A*4F
$BDVTG,63.24,T,,M,0.10,N,0.19,K,A*16
$BDGGA,123922.000,3018.4441,N,12004.7489,E,1,9,1.82,-12.3,M,7.0,M,,*66
$BDGLL,3018.4441,N,12004.7489,E,123922.000,A,A*4B
$BDGSA,A,3,06,29,13,02,20,08,03,30,07,,,,2.05,1.82,0.93*15
$BDGSV,5,1,19,03,55,199,38,30,52,210,43,08,50,340,36,20,50,296,44*68
$BDGSV,5,2,19,01,47,137,,13,46,323,33,29,42,293,42,02,39,237,34*68
$BDGSV,5,3,19,04,37,118,,10,31,219,,07,28,206,34,16,22,173,*6B
$BDGSV,5,4,19,23,18,083,18,06,17,180,27,05,16,255,30,27,12,163,*66
$BDGSV,5,5,19,19,12,262,32,09,08,187,,25,01,041,*50
$BDRMC,123922.000,A,3018.4441,N,12004.7489,E,0.06,63.24,270326,,,A*4B
$BDVTG,63.24,T,,M,0.06,N,0.11,K,A*19
$BDGGA,123923.000,3018.4441,N,12004.7489,E,1,10,0.95,-12.3,M,7.0,M,,*58
$BDGLL,3018.4441,N,12004.7489,E,123923.000,A,A*4A
$BDGSA,A,3,06,29,23,13,02,20,08,03,30,07,,,1.33,0.95,0.93*15
$BDGSV,5,1,19,03,55,199,38,30,52,210,43,08,50,340,36,20,50,296,44*68
$BDGSV,5,2,19,01,47,137,,13,46,323,34,29,42,293,42,02,39,237,34*6F
$BDGSV,5,3,19,04,37,118,,10,31,219,,07,28,206,34,16,22,173,*6B
$BDGSV,5,4,19,23,18,083,18,06,17,180,27,05,16,255,30,27,12,163,*66
$BDGSV,5,5,19,19,12,262,32,09,08,187,,25,01,041,*50
$BDRMC,123923.000,A,3018.4441,N,12004.7489,E,0.10,63.24,270326,,,A*4D
$BDVTG,63.24,T,,M,0.10,N,0.19,K,A*16
$BDGGA,123924.000,3018.4441,N,12004.7489,E,1,10,0.95,-12.3,M,7.0,M,,*5F
$BDGLL,3018.4441,N,12004.7489,E,123924.000,A,A*4D
$BDGSA,A,3,06,29,23,13,02,20,08,03,30,07,,,1.33,0.95,0.93*15
$BDGSV,5,1,19,03,55,199,37,30,52,210,42,08,50,340,36,20,50,296,45*67
$BDGSV,5,2,19,01,47,137,,13,46,323,34,29,42,293,42,02,39,237,34*6F
$BDGSV,5,3,19,04,37,118,,10,31,219,,07,28,206,34,16,22,173,*6B
$BDGSV,5,4,19,23,18,083,18,06,17,180,27,05,16,255,30,27,12,163,*66
$BDGSV,5,5,19,19,12,262,32,09,08,187,,25,01,041,*50
$BDRMC,123924.000,A,3018.4441,N,12004.7489,E,0.14,63.24,270326,,,A*4E
$BDVTG,63.24,T,,M,0.14,N,0.26,K,A*1E
$BDGGA,123925.000,3018.4441,N,12004.7489,E,1,9,1.82,-12.3,M,7.0,M,,*61
$BDGLL,3018.4441,N,12004.7489,E,123925.000,A,A*4C
$BDGSA,A,3,06,29,13,02,20,08,03,30,07,,,,2.05,1.82,0.93*15
$BDGSV,5,1,19,03,55,199,37,30,52,210,42,08,50,340,36,20,50,296,45*67
$BDGSV,5,2,19,01,47,137,,13,46,323,34,29,42,293,42,02,39,237,33*68
$BDGSV,5,3,19,04,37,118,,10,31,219,,07,28,206,35,16,22,173,*6A
$BDGSV,5,4,19,23,18,083,18,06,17,180,27,05,16,255,30,27,12,163,*66
$BDGSV,5,5,19,19,12,262,32,09,08,187,,25,01,041,*50
$BDRMC,123925.000,A,3018.4441,N,12004.7489,E,0.06,63.24,270326,,,A*4C
$BDVTG,63.24,T,,M,0.06,N,0.12,K,A*1A
$BDGGA,123926.000,3018.4441,N,12004.7489,E,1,9,1.82,-12.3,M,7.0,M,,*62
$BDGLL,3018.4441,N,12004.7489,E,123926.000,A,A*4F
$BDGSA,A,3,06,29,13,02,20,08,03,30,07,,,,2.05,1.82,0.93*15
$BDGSV,5,1,19,03,55,199,37,30,52,210,42,08,50,340,36,20,50,296,45*67
$BDGSV,5,2,19,01,47,137,,13,46,323,34,29,42,293,42,02,39,237,33*68
$BDGSV,5,3,19,04,37,118,,10,31,219,,07,28,206,35,16,22,173,*6A
$BDGSV,5,4,19,23,18,083,18,06,17,180,26,05,16,255,31,27,12,163,*66
$BDGSV,5,5,19,19,12,262,32,09,08,187,,25,01,041,*50
$BDRMC,123926.000,A,3018.4441,N,12004.7489,E,0.13,63.24,270326,,,A*4B
$BDVTG,63.24,T,,M,0.13,N,0.23,K,A*1C
$BDGGA,123927.000,3018.4441,N,12004.7489,E,1,9,1.82,-12.3,M,7.0,M,,*63
$BDGLL,3018.4441,N,12004.7489,E,123927.000,A,A*4E
$BDGSA,A,3,06,29,13,02,20,08,03,30,07,,,,2.05,1.82,0.93*15
$BDGSV,5,1,19,03,55,199,37,30,52,210,42,08,50,340,36,20,50,296,45*67
$BDGSV,5,2,19,01,47,137,,13,46,323,34,29,42,293,42,02,39,237,33*68
$BDGSV,5,3,19,04,37,118,,10,31,219,,07,28,206,34,16,22,173,*6B
$BDGSV,5,4,19,23,18,083,18,06,17,180,26,05,16,255,31,27,12,163,*66
$BDGSV,5,5,19,19,12,262,32,09,08,187,,25,01,041,*50
$BDRMC,123927.000,A,3018.4441,N,12004.7489,E,0.14,63.24,270326,,,A*4D
$BDVTG,63.24,T,,M,0.14,N,0.25,K,A*1D
$BDGGA,123928.000,3018.4441,N,12004.7490,E,1,10,0.95,-12.3,M,7.0,M,,*5B
$BDGLL,3018.4441,N,12004.7490,E,123928.000,A,A*49
$BDGSA,A,3,06,29,23,13,02,20,08,03,30,07,,,1.33,0.95,0.93*15
$BDGSV,5,1,19,03,55,199,37,30,52,210,42,08,50,340,36,20,50,296,45*67
$BDGSV,5,2,19,01,47,137,,13,46,323,34,29,42,293,42,02,39,237,31*6A
$BDGSV,5,3,19,04,37,118,,10,31,219,,07,28,206,33,16,22,173,*6C
$BDGSV,5,4,19,23,18,083,18,06,17,180,25,05,16,255,30,27,12,163,*64
$BDGSV,5,5,19,19,12,262,32,09,08,187,,25,01,041,*50
$BDRMC,123928.000,A,3018.4441,N,12004.7490,E,0.04,63.24,270326,,,A*4B
$BDVTG,63.24,T,,M,0.04,N,0.07,K,A*1C
$BDGGA,123929.000,3018.4441,N,12004.7490,E,1,9,1.82,-12.3,M,7.0,M,,*65
$BDGLL,3018.4441,N,12004.7490,E,123929.000,A,A*48
$BDGSA,A,3,06,29,13,02,20,08,03,30,07,,,,2.05,1.82,0.93*15
$BDGSV,5,1,19,03,55,199,37,30,52,210,41,08,50,340,36,20,50,296,45*64
$BDGSV,5,2,19,01,47,137,,13,46,323,34,29,42,293,42,02,39,237,31*6A
$BDGSV,5,3,19,04,37,118,,10,31,219,,07,28,206,31,16,22,173,*6E
$BDGSV,5,4,19,23,18,083,18,06,17,180,25,05,16,255,30,27,12,163,*64
$BDGSV,5,5,19,19,12,262,31,09,08,187,,25,01,041,*53
$BDRMC,123929.000,A,3018.4441,N,12004.7490,E,0.19,63.24,270326,,,A*46
$BDVTG,63.24,T,,M,0.19,N,0.35,K,A*11
$BDGGA,123930.000,3018.4441,N,12004.7490,E,1,10,0.95,-12.3,M,7.0,M,,*52
$BDGLL,3018.4441,N,12004.7490,E,123930.000,A,A*40
$BDGSA,A,3,06,29,23,13,02,20,08,03,30,07,,,1.33,0.95,0.93*15
$BDGSV,5,1,19,03,55,199,37,30,52,210,41,08,50,340,36,20,50,296,43*62
$BDGSV,5,2,19,01,47,137,,13,46,323,35,29,42,293,40,02,39,237,31*69
$BDGSV,5,3,19,04,37,118,,10,31,219,,07,28,206,32,16,22,173,*6D
$BDGSV,5,4,19,23,18,083,18,06,17,180,26,05,16,255,30,27,12,163,*67
$BDGSV,5,5,19,19,12,262,32,09,08,187,,25,01,041,*50
$BDRMC,123930.000,A,3018.4441,N,12004.7490,E,0.14,63.24,270326,,,A*43
$BDVTG,63.24,T,,M,0.14,N,0.27,K,A*1F
$BDGGA,123931.000,3018.4442,N,12004.7489,E,1,10,0.95,-12.3,M,7.0,M,,*58
$BDGLL,3018.4442,N,12004.7489,E,123931.000,A,A*4A
$BDGSA,A,3,06,29,23,13,02,20,08,03,30,07,,,1.33,0.95,0.93*15
$BDGSV,5,1,19,03,55,199,37,30,52,210,41,08,50,340,36,20,50,296,44*65
$BDGSV,5,2,19,01,47,137,,13,46,323,35,29,42,293,40,02,39,237,32*6A
$BDGSV,5,3,19,04,37,118,,10,31,219,,07,28,206,32,16,22,173,*6D
$BDGSV,5,4,19,23,18,083,18,06,17,180,26,05,16,255,30,27,12,163,*67
$BDGSV,5,5,19,19,12,262,32,09,08,187,,25,01,041,*50
$BDRMC,123931.000,A,3018.4442,N,12004.7489,E,0.16,63.24,270326,,,A*4B
$BDVTG,63.24,T,,M,0.16,N,0.30,K,A*1B
$BDGGA,123932.000,3018.4442,N,12004.7490,E,1,10,0.95,-12.3,M,7.0,M,,*53
$BDGLL,3018.4442,N,12004.7490,E,123932.000,A,A*41
$BDGSA,A,3,06,29,23,13,02,20,08,03,30,07,,,1.33,0.95,0.93*15
$BDGSV,5,1,19,03,55,199,37,30,52,210,41,08,50,340,36,20,50,296,45*64
$BDGSV,5,2,19,01,47,137,,13,46,323,35,29,42,293,41,02,39,237,33*6A
$BDGSV,5,3,19,04,37,118,,10,31,219,,07,28,206,31,16,22,173,*6E
$BDGSV,5,4,19,23,18,083,18,06,17,180,27,05,16,255,31,27,12,163,*67
$BDGSV,5,5,19,19,12,262,31,09,08,187,,25,01,041,*53
$BDRMC,123932.000,A,3018.4442,N,12004.7490,E,0.03,63.24,270326,,,A*44
$BDVTG,63.24,T,,M,0.03,N,0.06,K,A*1A
$BDGGA,123933.000,3018.4442,N,12004.7489,E,1,10,0.95,-12.3,M,7.0,M,,*5A
$BDGLL,3018.4442,N,12004.7489,E,123933.000,A,A*48
$BDGSA,A,3,06,29,23,13,02,20,08,03,30,07,,,1.33,0.95,0.93*15
$BDGSV,5,1,19,03,55,199,37,30,52,210,41,08,50,340,35,20,50,296,45*67
$BDGSV,5,2,19,01,47,137,,13,46,323,35,29,42,293,41,02,39,237,34*6D
$BDGSV,5,3,19,04,37,118,,10,31,219,,07,28,206,30,16,22,173,*6F
$BDGSV,5,4,19,23,18,083,19,06,17,180,27,05,16,255,31,27,12,163,*66
$BDGSV,5,5,19,19,12,262,31,09,08,187,,25,01,041,*53
$BDRMC,123933.000,A,3018.4442,N,12004.7489,E,0.09,63.24,270326,,,A*47
$BDVTG,63.24,T,,M,0.09,N,0.17,K,A*10
$BDGGA,123934.000,3018.4442,N,12004.7489,E,1,10,0.95,-12.3,M,7.0,M,,*5D
$BDGLL,3018.4442,N,12004.7489,E,123934.000,A,A*4F
$BDGSA,A,3,06,29,23,13,02,20,08,03,30,07,,,1.33,0.95,0.93*15
$BDGSV,5,1,19,03,55,199,37,30,52,210,41,08,50,340,35,20,50,296,45*67
$BDGSV,5,2,19,01,47,137,,13,46,323,35,29,42,293,41,02,39,237,34*6D
$BDGSV,5,3,19,04,37,118,,10,31,219,,07,28,206,30,16,22,173,*6F
$BDGSV,5,4,19,23,18,083,19,06,17,180,27,05,16,255,31,27,12,163,*66
$BDGSV,5,5,19,19,12,262,32,09,08,187,,25,01,041,*50
$BDRMC,123934.000,A,3018.4442,N,12004.7489,E,0.17,63.24,270326,,,A*4F
$BDVTG,63.24,T,,M,0.17,N,0.31,K,A*1B
$BDGGA,123935.000,3018.4442,N,12004.7489,E,1,10,0.95,-12.3,M,7.0,M,,*5C
$BDGLL,3018.4442,N,12004.7489,E,123935.000,A,A*4E
