$GNGGA,115450.000,3018.4770,N,12004.6682,E,2,17,0.75,-11.5,M,7.0,M,,*5D
$GNGLL,3018.4770,N,12004.6682,E,115450.000,A,D*45
$GPGSA,A,3,20,13,15,05,21,11,,,,,,,1.11,0.75,0.81*0A
$BDGSA,A,3,20,07,29,08,04,01,27,23,13,30,03,,1.11,0.75,0.81*1C
$GPGSV,3,1,11,20,82,356,43,13,79,046,40,15,63,256,46,05,54,028,44*72
$GPGSV,3,2,11,42,42,228,42,21,35,060,42,11,35,129,45,194,,,35*74
$GPGSV,3,3,11,195,,,44,18,,,34,29,,,38*4A
$BDGSV,5,1,18,30,68,241,45,03,54,199,38,08,51,329,38,01,47,137,36*6B
$BDGSV,5,2,18,13,46,312,38,20,43,269,38,10,40,222,,02,38,236,*67
$BDGSV,5,3,18,07,37,207,39,04,37,118,39,29,32,311,33,27,29,162,37*6F
$BDGSV,5,4,18,05,16,254,,23,11,101,35,06,09,180,24,25,03,057,*60
$BDGSV,5,5,18,19,02,247,17,09,01,188,*65
$GNRMC,115450.000,A,3018.4770,N,12004.6682,E,0.23,81.07,270326,,,D*4F
$GNVTG,81.07,T,,M,0.23,N,0.43,K,D*1E
$GNGGA,115451.000,3018.4770,N,12004.6678,E,2,17,0.75,-11.6,M,7.0,M,,*5A
$GNGLL,3018.4770,N,12004.6678,E,115451.000,A,D*41
$GPGSA,A,3,20,13,15,05,21,11,,,,,,,1.11,0.75,0.81*0A
$BDGSA,A,3,20,07,29,08,04,01,27,23,13,30,03,,1.11,0.75,0.81*1C
$GPGSV,3,1,11,20,82,356,43,13,79,046,40,15,63,256,46,05,54,028,44*72
$GPGSV,3,2,11,42,42,228,42,21,35,060,42,11,35,129,45,194,,,35*74
$GPGSV,3,3,11,195,,,44,18,,,35,29,,,38*4B
$BDGSV,5,1,18,30,67,239,45,03,54,199,38,08,51,329,38,01,47,137,36*6B
$BDGSV,5,2,18,13,46,312,38,20,43,269,38,10,40,222,,02,38,236,*67
$BDGSV,5,3,18,07,37,207,39,04,37,118,39,29,32,311,33,27,29,162,37*6F
$BDGSV,5,4,18,05,16,254,,23,11,101,35,06,09,180,24,25,03,057,*60
$BDGSV,5,5,18,19,02,247,16,09,01,188,*64
$GNRMC,115451.000,A,3018.4770,N,12004.6678,E,0.21,81.07,270326,,,D*49
$GNVTG,81.07,T,,M,0.21,N,0.39,K,D*11
$GNGGA,115452.000,3018.4769,N,12004.6676,E,2,17,0.75,-11.7,M,7.0,M,,*5E
$GNGLL,3018.4769,N,12004.6676,E,115452.000,A,D*44
$GPGSA,A,3,20,13,15,05,21,11,,,,,,,1.11,0.75,0.81*0A
$BDGSA,A,3,20,07,29,08,04,01,27,23,13,30,03,,1.11,0.75,0.81*1C
$GPGSV,3,1,11,20,82,356,43,13,79,046,40,15,63,256,46,05,54,028,44*72
$GPGSV,3,2,11,42,42,228,42,21,35,060,42,11,35,129,45,194,,,35*74
$GPGSV,3,3,11,195,,,44,18,,,34,29,,,38*4A
$BDGSV,5,1,18,30,67,239,45,03,54,199,37,08,51,329,38,01,47,137,35*67
$BDGSV,5,2,18,13,46,312,38,20,43,269,38,10,40,222,,02,38,236,*67
$BDGSV,5,3,18,07,37,207,39,04,37,118,39,29,32,311,33,27,29,162,37*6F
$BDGSV,5,4,18,05,16,254,,23,11,101,35,06,09,180,24,25,03,057,*60
$BDGSV,5,5,18,19,02,247,16,09,01,188,*64
$GNRMC,115452.000,A,3018.4769,N,12004.6676,E,0.21,81.07,270326,,,D*4C
$GNVTG,81.07,T,,M,0.21,N,0.38,K,D*10
$GNGGA,115453.000,3018.4769,N,12004.6673,E,2,17,0.75,-11.8,M,7.0,M,,*55
$GNGLL,3018.4769,N,12004.6673,E,115453.000,A,D*40
$GPGSA,A,3,20,13,15,05,21,11,,,,,,,1.11,0.75,0.81*0A
$BDGSA,A,3,20,07,29,08,04,01,27,23,13,30,03,,1.11,0.75,0.81*1C
$GPGSV,3,1,11,20,82,356,43,13,79,046,40,15,63,256,46,05,54,028,44*72
$GPGSV,3,2,11,42,42,228,42,21,35,060,42,11,35,129,45,194,,,35*74
$GPGSV,3,3,11,195,,,44,18,,,34,29,,,37*45
$BDGSV,5,1,18,30,67,239,45,03,54,199,37,08,51,329,38,01,47,137,36*64
$BDGSV,5,2,18,13,46,312,38,20,43,269,38,10,40,222,,02,38,236,*67
$BDGSV,5,3,18,07,37,207,39,04,37,118,39,29,32,311,33,27,29,162,37*6F
$BDGSV,5,4,18,05,16,254,,23,11,101,35,06,09,180,24,25,03,057,*60
$BDGSV,5,5,18,19,02,247,16,09,01,188,*64
$GNRMC,115453.000,A,3018.4769,N,12004.6673,E,0.20,81.07,270326,,,D*49
$GNVTG,81.07,T,,M,0.20,N,0.38,K,D*11
$GNGGA,115454.000,3018.4769,N,12004.6670,E,2,17,0.75,-11.8,M,7.0,M,,*51
$GNGLL,3018.4769,N,12004.6670,E,115454.000,A,D*44
$GPGSA,A,3,20,13,15,05,21,11,,,,,,,1.11,0.75,0.81*0A
$BDGSA,A,3,20,07,29,08,04,01,27,23,13,30,03,,1.11,0.75,0.81*1C
$GPGSV,3,1,11,20,82,356,43,13,79,046,40,15,63,256,46,05,54,028,44*72
$GPGSV,3,2,11,42,42,228,42,21,35,060,42,11,35,129,45,194,,,35*74
$GPGSV,3,3,11,195,,,44,18,,,34,29,,,37*45
$BDGSV,5,1,18,30,67,239,45,03,54,199,37,08,51,329,38,01,47,137,36*64
$BDGSV,5,2,18,13,46,312,38,20,43,269,38,10,40,222,,02,38,236,*67
$BDGSV,5,3,18,07,37,207,39,04,37,118,39,29,32,311,33,27,29,162,37*6F
$BDGSV,5,4,18,05,16,254,,23,11,101,35,06,09,180,24,25,03,057,*60
$BDGSV,5,5,18,19,02,247,16,09,01,188,*64
$GNRMC,115454.000,A,3018.4769,N,12004.6670,E,0.20,81.07,270326,,,D*4D
$GNVTG,81.07,T,,M,0.20,N,0.37,K,D*1E
$GNGGA,115455.000,3018.4769,N,12004.6667,E,2,17,0.75,-11.9,M,7.0,M,,*57
$GNGLL,3018.4769,N,12004.6667,E,115455.000,A,D*43
$GPGSA,A,3,20,13,15,05,21,11,,,,,,,1.11,0.75,0.81*0A
$BDGSA,A,3,20,07,29,08,04,01,27,23,13,30,03,,1.11,0.75,0.81*1C
$GPGSV,3,1,11,20,82,356,43,13,79,046,40,15,63,256,46,05,54,028,44*72
$GPGSV,3,2,11,42,42,228,42,21,35,060,42,11,35,129,45,194,,,35*74
$GPGSV,3,3,11,195,,,44,18,,,34,29,,,37*45
$BDGSV,5,1,18,30,67,239,45,03,54,199,37,08,51,329,38,01,47,137,36*64
$BDGSV,5,2,18,13,46,312,38,20,43,269,38,10,40,222,,02,38,236,*67
$BDGSV,5,3,18,07,37,207,39,04,37,118,39,29,32,311,33,27,29,162,37*6F
$BDGSV,5,4,18,05,16,254,,23,11,101,35,06,09,180,25,25,03,057,*61
$BDGSV,5,5,18,19,02,247,16,09,01,188,*64
$GNRMC,115455.000,A,3018.4769,N,12004.6667,E,0.20,81.07,270326,,,D*4A
$GNVTG,81.07,T,,M,0.20,N,0.37,K,D*1E
$GNGGA,115456.000,3018.4769,N,12004.6665,E,2,17,0.75,-12.0,M,7.0,M,,*5C
$GNGLL,3018.4769,N,12004.6665,E,115456.000,A,D*42
$GPGSA,A,3,20,13,15,05,21,11,,,,,,,1.11,0.75,0.81*0A
$BDGSA,A,3,20,07,29,08,04,01,27,23,13,30,03,,1.11,0.75,0.81*1C
$GPGSV,3,1,11,20,82,356,43,13,79,046,40,15,63,256,46,05,54,028,44*72
$GPGSV,3,2,11,42,42,228,42,21,35,060,42,11,35,129,45,194,,,35*74
$GPGSV,3,3,11,195,,,44,18,,,34,29,,,37*45
$BDGSV,5,1,18,30,67,239,45,03,54,199,37,08,51,329,38,01,47,137,36*64
$BDGSV,5,2,18,13,46,312,38,20,43,269,38,10,40,222,,02,38,236,*67
$BDGSV,5,3,18,07,37,207,39,04,37,118,39,29,32,311,33,27,29,162,37*6F
$BDGSV,5,4,18,05,16,254,,23,11,101,35,06,09,180,25,25,03,057,*61
$BDGSV,5,5,18,19,02,247,16,09,01,188,*64
$GNRMC,115456.000,A,3018.4769,N,12004.6665,E,0.22,81.07,270326,,,D*49
$GNVTG,81.07,T,,M,0.22,N,0.40,K,D*1C
$GNGGA,115457.000,3018.4768,N,12004.6662,E,2,17,0.75,-12.0,M,7.0,M,,*5B
$GNGLL,3018.4768,N,12004.6662,E,115457.000,A,D*45
$GPGSA,A,3,20,13,15,05,21,11,,,,,,,1.11,0.75,0.81*0A
$BDGSA,A,3,20,07,29,08,04,01,27,23,13,30,03,,1.11,0.75,0.81*1C
$GPGSV,3,1,11,20,82,356,43,13,79,046,40,15,63,256,46,05,54,028,44*72
$GPGSV,3,2,11,42,42,228,42,21,35,060,42,11,35,129,45,194,,,35*74
$GPGSV,3,3,11,195,,,44,18,,,34,29,,,37*45
$BDGSV,5,1,18,30,67,239,45,03,54,199,37,08,51,329,38,01,47,137,36*64
$BDGSV,5,2,18,13,46,312,38,20,43,269,38,10,40,222,,02,38,236,*67
$BDGSV,5,3,18,07,37,207,39,04,37,118,39,29,32,311,33,27,29,162,37*6F
$BDGSV,5,4,18,05,16,254,,23,11,101,35,06,09,180,25,25,03,057,*61
$BDGSV,5,5,18,19,02,247,16,09,01,188,*64
$GNRMC,115457.000,A,3018.4768,N,12004.6662,E,0.21,81.07,270326,,,D*4D
$GNVTG,81.07,T,,M,0.21,N,0.39,K,D*11
$GNGGA,115458.000,3018.4768,N,12004.6660,E,2,17,0.75,-12.0,M,7.0,M,,*56
$GNGLL,3018.4768,N,12004.6660,E,115458.000,A,D*48
$GPGSA,A,3,20,13,15,05,21,11,,,,,,,1.11,0.75,0.81*0A
$BDGSA,A,3,20,07,29,08,04,01,27,23,13,30,03,,1.11,0.75,0.81*1C
$GPGSV,3,1,11,20,82,356,43,13,79,046,40,15,63,256,46,05,54,028,44*72
$GPGSV,3,2,11,42,42,228,42,21,35,060,42,11,35,129,45,194,,,35*74
$GPGSV,3,3,11,195,,,44,18,,,34,29,,,36*44
$BDGSV,5,1,18,30,67,239,45,03,54,199,37,08,51,329,38,01,47,137,35*67
$BDGSV,5,2,18,13,46,312,38,20,43,269,38,10,40,222,,02,38,236,*67
$BDGSV,5,3,18,07,37,207,39,04,37,118,39,29,32,311,33,27,29,162,37*6F
$BDGSV,5,4,18,05,16,254,,23,11,101,35,06,09,180,25,25,03,057,*61
$BDGSV,5,5,18,19,02,247,15,09,01,188,*67
$GNRMC,115458.000,A,3018.4768,N,12004.6660,E,0.20,81.07,270326,,,D*41
$GNVTG,81.07,T,,M,0.20,N,0.37,K,D*1E
$GNGGA,115459.000,3018.4768,N,12004.6658,E,2,17,0.75,-12.1,M,7.0,M,,*5D
$GNGLL,3018.4768,N,12004.6658,E,115459.000,A,D*42
$GPGSA,A,3,20,13,15,05,21,11,,,,,,,1.11,0.75,0.81*0A
$BDGSA,A,3,20,07,29,08,04,01,27,23,13,30,03,,1.11,0.75,0.81*1C
$GPGSV,3,1,11,20,82,356,43,13,79,046,40,15,63,256,46,05,54,028,44*72
$GPGSV,3,2,11,42,42,228,42,21,35,060,42,11,35,129,45,194,,,34*75
$GPGSV,3,3,11,195,,,44,18,,,34,29,,,36*44
$BDGSV,5,1,18,30,67,239,45,03,54,199,37,08,51,329,38,01,47,137,36*64
$BDGSV,5,2,18,13,46,312,38,20,43,269,38,10,40,222,,02,38,236,*67
$BDGSV,5,3,18,07,37,207,39,04,37,118,39,29,32,311,33,27,29,162,37*6F
$BDGSV,5,4,18,05,16,254,,23,11,101,35,06,09,180,25,25,03,057,*61
$BDGSV,5,5,18,19,02,247,15,09,01,188,*67
$GNRMC,115459.000,A,3018.4768,N,12004.6658,E,0.20,81.07,270326,,,D*4B
$GNVTG,81.07,T,,M,0.20,N,0.37,K,D*1E
$GNGGA,115500.000,3018.4768,N,12004.6655,E,2,17,0.75,-12.1,M,7.0,M,,*5D
$GNGLL,3018.4768,N,12004.6655,E,115500.000,A,D*42
$GPGSA,A,3,20,13,15,05,21,11,,,,,,,1.11,0.75,0.81*0A
$BDGSA,A,3,20,07,29,08,04,01,27,23,13,30,03,,1.11,0.75,0.81*1C
$GPGSV,3,1,11,20,82,356,43,13,79,046,40,15,63,256,46,05,54,028,44*72
$GPGSV,3,2,11,42,42,228,42,21,35,060,42,11,35,129,45,194,,,34*75
$GPGSV,3,3,11,195,,,44,18,,,34,29,,,37*45
$BDGSV,5,1,18,30,67,239,45,03,54,199,37,08,51,329,38,01,47,137,36*64
$BDGSV,5,2,18,13,46,312,38,20,43,269,38,10,40,222,,02,38,236,*67
$BDGSV,5,3,18,07,37,207,39,04,37,118,39,29,32,311,33,27,29,162,37*6F
$BDGSV,5,4,18,05,16,254,,23,11,101,35,06,09,180,25,25,03,057,*61
$BDGSV,5,5,18,19,02,247,15,09,01,188,*67
$GNRMC,115500.000,A,3018.4768,N,12004.6655,E,0.20,81.07,270326,,,D*4B
$GNVTG,81.07,T,,M,0.20,N,0.38,K,D*11
$GNGGA,115501.000,3018.4768,N,12004.6655,E,2,19,0.72,-12.0,M,7.0,M,,*54
$GNGLL,3018.4768,N,12004.6655,E,115501.000,A,D*43
$GPGSA,A,3,20,13,15,05,21,11,194,195,,,,,1.04,0.72,0.75*03
$BDGSA,A,3,20,07,29,08,04,01,27,23,13,30,03,,1.04,0.72,0.75*14
$GPGSV,3,1,11,20,82,356,43,13,79,046,40,15,63,256,46,05,54,028,44*72
$GPGSV,3,2,11,42,42,228,42,21,35,060,42,11,35,129,45,194,,,34*75
$GPGSV,3,3,11,195,,,44,18,,,34,29,,,37*45
$BDGSV,5,1,18,30,67,239,45,03,54,199,37,08,51,329,38,01,47,137,36*64
$BDGSV,5,2,18,13,46,312,38,20,43,269,38,10,40,222,,02,38,236,*67
$BDGSV,5,3,18,07,37,207,39,04,37,118,39,29,32,311,33,27,29,162,37*6F
$BDGSV,5,4,18,05,16,254,,23,11,101,35,06,09,180,25,25,03,057,*61
$BDGSV,5,5,18,19,02,247,15,09,01,188,*67
$GNRMC,115501.000,A,3018.4768,N,12004.6655,E,0.17,81.07,270326,,,D*4E
$GNVTG,81.07,T,,M,0.17,N,0.31,K,D*1C
$GNGGA,115502.000,3018.4769,N,12004.6655,E,2,19,0.72,-11.8,M,7.0,M,,*5D
$GNGLL,3018.4769,N,12004.6655,E,115502.000,A,D*41
$GPGSA,A,3,20,13,15,05,21,11,194,195,,,,,1.04,0.72,0.75*03
$BDGSA,A,3,20,07,29,08,04,01,27,23,13,30,03,,1.04,0.72,0.75*14
$GPGSV,3,1,11,20,82,356,43,13,79,046,41,15,63,256,46,05,54,028,44*73
$GPGSV,3,2,11,42,42,228,42,21,35,060,42,11,34,129,45,194,,,34*74
$GPGSV,3,3,11,195,,,44,18,,,34,29,,,37*45
$BDGSV,5,1,18,30,67,239,45,03,54,199,37,08,51,329,38,01,47,137,36*64
$BDGSV,5,2,18,13,46,312,38,20,43,269,38,10,40,222,,02,38,236,*67
$BDGSV,5,3,18,07,37,207,39,04,37,118,39,29,32,311,33,27,29,162,37*6F
$BDGSV,5,4,18,05,16,254,,23,11,101,35,06,09,180,25,25,03,057,*61
$BDGSV,5,5,18,19,02,247,15,09,01,188,*67
$GNRMC,115502.000,A,3018.4769,N,12004.6655,E,0.12,81.07,270326,,,D*49
$GNVTG,81.07,T,,M,0.12,N,0.23,K,D*1A
$GNGGA,115503.000,3018.4770,N,12004.6655,E,2,19,0.72,-11.6,M,7.0,M,,*5A
$GNGLL,3018.4770,N,12004.6655,E,115503.000,A,D*48
$GPGSA,A,3,20,13,15,05,21,11,194,195,,,,,1.04,0.72,0.75*03
$BDGSA,A,3,20,07,29,08,04,01,27,23,13,30,03,,1.04,0.72,0.75*14
$GPGSV,3,1,11,20,82,356,43,13,79,046,41,15,63,256,46,05,54,028,44*73
$GPGSV,3,2,11,42,42,228,42,21,35,060,42,11,34,129,45,194,,,34*74
$GPGSV,3,3,11,195,,,44,18,,,34,29,,,37*45
$BDGSV,5,1,18,30,67,239,45,03,54,199,37,08,51,329,38,01,47,137,36*64
$BDGSV,5,2,18,13,46,312,38,20,43,269,38,10,40,222,,02,38,236,*67
$BDGSV,5,3,18,07,37,207,39,04,37,118,39,29,32,311,33,27,29,162,37*6F
$BDGSV,5,4,18,05,16,254,,23,11,101,35,06,09,180,25,25,03,057,*61
$BDGSV,5,5,18,19,02,247,14,09,01,188,*66
$GNRMC,115503.000,A,3018.4770,N,12004.6655,E,0.08,81.07,270326,,,D*4B
$GNVTG,81.07,T,,M,0.08,N,0.14,K,D*15
$GNGGA,115504.000,3018.4770,N,12004.6655,E,2,19,0.72,-11.5,M,7.0,M,,*5E
$GNGLL,3018.4770,N,12004.6655,E,115504.000,A,D*4F
$GPGSA,A,3,20,13,15,05,21,11,194,195,,,,,1.04,0.72,0.75*03
$BDGSA,A,3,20,07,29,08,04,01,27,23,13,30,03,,1.04,0.72,0.75*14
$GPGSV,3,1,11,20,82,356,43,13,78,045,41,15,63,256,46,05,54,028,44*71
$GPGSV,3,2,11,42,42,228,42,21,35,060,42,11,34,129,45,194,,,34*74
$GPGSV,3,3,11,195,,,44,18,,,33,29,,,37*42
$BDGSV,5,1,18,30,67,239,45,03,54,199,37,08,51,329,38,01,47,137,36*64
$BDGSV,5,2,18,13,46,312,38,20,43,269,38,10,40,222,,02,38,236,*67
$BDGSV,5,3,18,07,37,207,39,04,37,118,39,29,32,311,33,27,29,162,37*6F
$BDGSV,5,4,18,05,16,254,,23,11,101,34,06,09,180,25,25,03,057,*60
$BDGSV,5,5,18,19,02,247,13,09,01,188,*61
$GNRMC,115504.000,A,3018.4770,N,12004.6655,E,0.03,81.07,270326,,,D*47
$GNVTG,81.07,T,,M,0.03,N,0.06,K,D*1D
$GNGGA,115505.000,3018.4771,N,12004.6656,E,2,19,0.72,-11.3,M,7.0,M,,*5B
$GNGLL,3018.4771,N,12004.6656,E,115505.000,A,D*4C
$GPGSA,A,3,20,13,15,05,21,11,194,195,,,,,1.04,0.72,0.75*03
$BDGSA,A,3,20,07,29,08,04,01,27,23,13,30,03,,1.04,0.72,0.75*14
$GPGSV,3,1,11,20,82,356,43,13,78,045,41,15,63,256,46,05,54,028,44*71
$GPGSV,3,2,11,42,42,228,42,21,35,060,42,11,34,129,45,194,,,34*74
$GPGSV,3,3,11,195,,,44,18,,,33,29,,,37*42
$BDGSV,5,1,18,30,67,239,45,03,54,199,37,08,51,329,38,01,47,137,35*67
$BDGSV,5,2,18,13,46,312,37,20,43,269,38,10,40,222,,02,38,236,*68
$BDGSV,5,3,18,07,37,207,39,04,37,118,39,29,32,311,33,27,29,162,37*6F
$BDGSV,5,4,18,05,16,254,,23,11,101,34,06,09,180,25,25,03,057,*60
$BDGSV,5,5,18,19,02,247,13,09,01,188,*61
$GNRMC,115505.000,A,3018.4771,N,12004.6656,E,0.01,81.07,270326,,,D*46
$GNVTG,81.07,T,,M,0.01,N,0.01,K,D*18
$GNGGA,115506.000,3018.4771,N,12004.6656,E,2,19,0.72,-11.2,M,7.0,M,,*59
$GNGLL,3018.4771,N,12004.6656,E,115506.000,A,D*4F
$GPGSA,A,3,20,13,15,05,21,11,194,195,,,,,1.04,0.72,0.75*03
$BDGSA,A,3,20,07,29,08,04,01,27,23,13,30,03,,1.04,0.72,0.75*14
$GPGSV,3,1,11,20,82,356,43,13,78,045,41,15,64,257,46,05,54,028,44*77
$GPGSV,3,2,11,42,42,228,42,21,35,060,42,11,34,129,45,194,,,34*74
$GPGSV,3,3,11,195,,,44,18,,,33,29,,,37*42
$BDGSV,5,1,18,30,67,239,45,03,54,199,37,08,51,329,38,01,47,137,35*67
$BDGSV,5,2,18,13,46,312,37,20,43,269,38,10,40,222,,02,38,236,*68
$BDGSV,5,3,18,07,37,207,39,04,37,118,39,29,32,311,34,27,29,162,37*68
$BDGSV,5,4,18,05,16,254,,23,11,101,34,06,09,180,25,25,03,057,*60
$BDGSV,5,5,18,19,02,247,13,09,01,188,*61
$GNRMC,115506.000,A,3018.4771,N,12004.6656,E,0.00,81.07,270326,,,D*44
$GNVTG,81.07,T,,M,0.00,N,0.00,K,D*18
$GNGGA,115507.000,3018.4771,N,12004.6656,E,2,19,0.72,-11.0,M,7.0,M,,*5A
$GNGLL,3018.4771,N,12004.6656,E,115507.000,A,D*4E
$GPGSA,A,3,20,13,15,05,21,11,194,195,,,,,1.04,0.72,0.75*03
$BDGSA,A,3,20,07,29,08,04,01,27,23,13,30,03,,1.04,0.72,0.75*14
$GPGSV,3,1,11,20,82,356,43,13,78,045,41,15,64,257,46,05,54,028,44*77
$GPGSV,3,2,11,42,42,228,42,21,35,060,42,11,34,129,45,194,,,33*73
$GPGSV,3,3,11,195,,,44,18,,,33,29,,,37*42
$BDGSV,5,1,18,30,67,239,45,03,54,199,37,08,51,329,38,01,47,137,35*67
$BDGSV,5,2,18,13,46,312,37,20,43,269,38,10,40,222,,02,38,236,*68
$BDGSV,5,3,18,07,37,207,39,04,37,118,39,29,32,311,34,27,29,162,37*68
$BDGSV,5,4,18,05,16,254,,23,11,101,34,06,09,180,25,25,03,057,*60
$BDGSV,5,5,18,19,02,247,12,09,01,188,*60
$GNRMC,115507.000,A,3018.4771,N,12004.6656,E,-0.01,81.07,270326,,,D*69
$GNVTG,81.07,T,,M,-0.01,N,-0.01,K,D*18
$GNGGA,115508.000,3018.4771,N,12004.6656,E,2,19,0.72,-10.9,M,7.0,M,,*5D
$GNGLL,3018.4771,N,12004.6656,E,115508.000,A,D*41
$GPGSA,A,3,20,13,15,05,21,11,194,195,,,,,1.04,0.72,0.75*03
$BDGSA,A,3,20,07,29,08,04,01,27,23,13,30,03,,1.04,0.72,0.75*14
$GPGSV,3,1,11,20,82,356,43,13,78,045,40,15,64,257,46,05,54,028,44*76
$GPGSV,3,2,11,42,42,228,42,21,35,060,42,11,34,129,45,194,,,33*73
$GPGSV,3,3,11,195,,,44,18,,,33,29,,,37*42
$BDGSV,5,1,18,30,67,239,45,03,54,199,37,08,51,329,38,01,47,137,35*67
$BDGSV,5,2,18,13,46,312,37,20,43,269,38,10,40,222,,02,38,236,*68
$BDGSV,5,3,18,07,37,207,39,04,37,118,39,29,32,311,34,27,29,162,37*68
$BDGSV,5,4,18,05,16,254,,23,11,101,34,06,09,180,25,25,03,057,*60
$BDGSV,5,5,18,19,02,247,13,09,01,188,*61
$GNRMC,115508.000,A,3018.4771,N,12004.6656,E,-0.01,81.07,270326,,,D*66
$GNVTG,81.07,T,,M,-0.01,N,-0.02,K,D*1B
$GNGGA,115509.000,3018.4772,N,12004.6656,E,2,19,0.72,-10.8,M,7.0,M,,*5E
$GNGLL,3018.4772,N,12004.6656,E,115509.000,A,D*43
$GPGSA,A,3,20,13,15,05,21,11,194,195,,,,,1.04,0.72,0.75*03
$BDGSA,A,3,20,07,29,08,04,01,27,23,13,30,03,,1.04,0.72,0.75*14
$GPGSV,3,1,11,20,82,356,43,13,78,045,40,15,64,257,46,05,54,028,44*76
$GPGSV,3,2,11,42,42,228,42,21,35,060,42,11,34,129,45,194,,,33*73
$GPGSV,3,3,11,195,,,44,18,,,33,29,,,37*42
$BDGSV,5,1,18,30,67,239,45,03,54,199,37,08,51,329,38,01,47,137,35*67
$BDGSV,5,2,18,13,46,312,37,20,43,269,38,10,40,222,,02,38,236,*68
$BDGSV,5,3,18,07,37,207,39,04,37,118,39,29,32,311,34,27,29,162,37*68
$BDGSV,5,4,18,05,16,254,,23,11,101,34,06,09,180,25,25,03,057,*60
$BDGSV,5,5,18,19,02,247,14,09,01,188,*66
$GNRMC,115509.000,A,3018.4772,N,12004.6656,E,-0.01,81.07,270326,,,D*64
$GNVTG,81.07,T,,M,-0.01,N,-0.01,K,D*18
$GNGGA,115510.000,3018.4772,N,12004.6656,E,2,19,0.72,-10.7,M,7.0,M,,*59
$GNGLL,3018.4772,N,12004.6656,E,115510.000,A,D*4B
$GPGSA,A,3,20,13,15,05,21,11,194,195,,,,,1.04,0.72,0.75*03
$BDGSA,A,3,20,07,29,08,04,01,27,23,13,30,03,,1.04,0.72,0.75*14
$GPGSV,3,1,11,20,82,356,43,13,78,045,40,15,64,257,46,05,54,028,44*76
$GPGSV,3,2,11,42,42,228,42,21,35,060,42,11,34,129,45,194,,,33*73
$GPGSV,3,3,11,195,,,44,18,,,33,29,,,38*4D
$BDGSV,5,1,18,30,67,239,45,03,54,199,37,08,51,329,38,01,47,137,35*67
$BDGSV,5,2,18,13,46,312,37,20,43,269,38,10,40,222,,02,38,236,*68
$BDGSV,5,3,18,07,37,207,39,04,37,118,39,29,32,311,34,27,29,162,37*68
$BDGSV,5,4,18,05,16,254,,23,11,101,34,06,09,180,25,25,03,057,*60
$BDGSV,5,5,18,19,02,247,15,09,01,188,*67
$GNRMC,115510.000,A,3018.4772,N,12004.6656,E,0.00,81.07,270326,,,D*40
$GNVTG,81.07,T,,M,0.00,N,-0.01,K,D*34
$GNGGA,115511.000,3018.4772,N,12004.6656,E,2,19,0.71,-10.6,M,7.0,M,,*5A
$GNGLL,3018.4772,N,12004.6656,E,115511.000,A,D*4A
$GPGSA,A,3,20,13,15,05,21,11,194,195,,,,,1.04,0.71,0.75*00
$BDGSA,A,3,20,07,29,08,04,01,27,23,13,30,03,,1.04,0.71,0.75*17
$GPGSV,3,1,11,20,82,357,43,13,78,045,40,15,64,257,46,05,54,028,44*77
$GPGSV,3,2,11,42,42,228,42,21,35,060,42,11,34,129,45,194,,,33*73
$GPGSV,3,3,11,195,,,44,18,,,32,29,,,38*4C
$BDGSV,5,1,18,30,67,239,45,03,54,199,37,08,51,329,38,01,47,137,35*67
$BDGSV,5,2,18,13,46,312,37,20,43,269,38,10,40,222,,02,38,236,*68
$BDGSV,5,3,18,07,37,207,39,04,37,118,39,29,32,311,34,27,29,162,37*68
$BDGSV,5,4,18,05,16,254,,23,11,101,34,06,09,180,25,25,03,057,*60
$BDGSV,5,5,18,19,02,247,15,09,01,188,*67
$GNRMC,115511.000,A,3018.4772,N,12004.6656,E,0.00,81.07,270326,,,D*41
$GNVTG,81.07,T,,M,0.00,N,0.00,K,D*18
$GNGGA,115512.000,3018.4773,N,12004.6657,E,2,19,0.71,-10.4,M,7.0,M,,*5B
$GNGLL,3018.4773,N,12004.6657,E,115512.000,A,D*49
$GPGSA,A,3,20,13,15,05,21,11,194,195,,,,,1.04,0.71,0.75*00
$BDGSA,A,3,20,07,29,08,04,01,27,23,13,30,03,,1.04,0.71,0.75*17
$GPGSV,3,1,11,20,82,357,43,13,78,045,40,15,64,257,46,05,54,028,44*77
$GPGSV,3,2,11,42,42,228,42,21,35,060,42,11,34,129,45,194,,,33*73
$GPGSV,3,3,11,195,,,44,18,,,31,29,,,38*4F
$BDGSV,5,1,18,30,67,239,45,03,54,199,37,08,51,329,38,01,47,137,35*67
$BDGSV,5,2,18,13,46,312,37,20,43,269,38,10,40,222,,02,38,236,*68
$BDGSV,5,3,18,07,37,207,39,04,37,118,39,29,32,311,34,27,29,162,37*68
$BDGSV,5,4,18,05,16,254,,23,11,101,33,06,09,180,25,25,03,057,*67
$BDGSV,5,5,18,19,02,247,15,09,01,188,*67
$GNRMC,115512.000,A,3018.4773,N,12004.6657,E,0.00,81.07,270326,,,D*42
$GNVTG,81.07,T,,M,0.00,N,0.00,K,D*18
$GNGGA,115513.000,3018.4774,N,12004.6657,E,2,19,0.72,-10.3,M,7.0,M,,*59
$GNGLL,3018.4774,N,12004.6657,E,115513.000,A,D*4F
$GPGSA,A,3,20,13,15,05,21,11,194,195,,,,,1.04,0.72,0.75*03
$BDGSA,A,3,20,07,29,08,04,01,27,23,13,30,03,,1.04,0.72,0.75*14
$GPGSV,3,1,11,20,82,357,43,13,78,045,40,15,64,257,46,05,54,028,44*77
$GPGSV,3,2,11,42,42,228,42,21,35,060,42,11,34,129,45,194,,,34*74
$GPGSV,3,3,11,195,,,44,18,,,29,29,,,38*46
$BDGSV,5,1,18,30,67,239,45,03,54,199,37,08,51,329,38,01,47,137,35*67
$BDGSV,5,2,18,13,46,312,37,20,43,269,37,10,40,222,,02,38,236,*67
$BDGSV,5,3,18,07,37,207,39,04,37,118,39,29,32,311,34,27,29,162,37*68
$BDGSV,5,4,18,05,16,254,,23,11,101,34,06,09,180,25,25,03,057,*60
$BDGSV,5,5,18,19,02,247,14,09,01,188,*66
$GNRMC,115513.000,A,3018.4774,N,12004.6657,E,0.00,81.07,270326,,,D*44
$GNVTG,81.07,T,,M,0.00,N,0.00,K,D*18
$GNGGA,115514.000,3018.4775,N,12004.6658,E,2,19,0.72,-10.1,M,7.0,M,,*52
$GNGLL,3018.4775,N,12004.6658,E,115514.000,A,D*46
$GPGSA,A,3,20,13,15,05,21,11,194,195,,,,,1.04,0.72,0.75*03
$BDGSA,A,3,20,07,29,08,04,01,27,23,13,30,03,,1.04,0.72,0.75*14
$GPGSV,3,1,11,20,82,357,43,13,78,045,40,15,64,257,46,05,54,028,44*77
$GPGSV,3,2,11,42,42,228,42,21,35,060,42,11,34,129,45,194,,,34*74
$GPGSV,3,3,11,195,,,44,18,,,28,29,,,38*47
$BDGSV,5,1,18,30,67,239,45,03,54,199,37,08,51,329,38,01,47,137,35*67
$BDGSV,5,2,18,13,46,312,37,20,43,269,37,10,40,222,,02,38,236,*67
$BDGSV,5,3,18,07,37,207,39,04,37,118,39,29,32,311,34,27,29,162,37*68
$BDGSV,5,4,18,05,16,254,,23,11,101,34,06,09,180,25,25,03,057,*60
$BDGSV,5,5,18,19,02,247,14,09,01,188,*66
$GNRMC,115514.000,A,3018.4775,N,12004.6658,E,0.00,81.07,270326,,,D*4D
$GNVTG,81.07,T,,M,0.00,N,0.01,K,D*19
$GNGGA,115515.000,3018.4775,N,12004.6658,E,2,19,0.72,-10.0,M,7.0,M,,*52
$GNGLL,3018.4775,N,12004.6658,E,115515.000,A,D*47
$GPGSA,A,3,20,13,15,05,21,11,194,195,,,,,1.04,0.72,0.75*03
$BDGSA,A,3,20,07,29,08,04,01,27,23,13,30,03,,1.04,0.72,0.75*14
$GPGSV,3,1,10,20,82,357,43,13,78,045,40,15,64,257,46,05,54,028,44*76
$GPGSV,3,2,10,42,42,228,42,21,35,060,42,11,34,129,45,194,,,34*75
$GPGSV,3,3,10,195,,,44,29,,,38*45
$BDGSV,5,1,18,30,67,239,45,03,54,199,37,08,51,329,38,01,47,137,35*67
$BDGSV,5,2,18,13,46,312,37,20,43,269,37,10,40,222,,02,38,236,*67
$BDGSV,5,3,18,07,37,207,39,04,37,118,39,29,32,311,34,27,29,162,37*68
$BDGSV,5,4,18,05,16,254,,23,11,101,34,06,09,180,24,25,03,057,*61
$BDGSV,5,5,18,19,02,247,14,09,01,188,*66
$GNRMC,115515.000,A,3018.4775,N,12004.6658,E,0.01,81.07,270326,,,D*4D
$GNVTG,81.07,T,,M,0.01,N,0.01,K,D*18
$GNGGA,115516.000,3018.4776,N,12004.6658,E,2,19,0.72,-9.8,M,7.0,M,,*62
$GNGLL,3018.4776,N,12004.6658,E,115516.000,A,D*47
$GPGSA,A,3,20,13,15,05,21,11,194,195,,,,,1.04,0.72,0.75*03
$BDGSA,A,3,20,07,29,08,04,01,27,23,13,30,03,,1.04,0.72,0.75*14
$GPGSV,3,1,10,20,82,357,43,13,78,045,41,15,64,257,46,05,54,028,44*77
$GPGSV,3,2,10,42,42,228,42,21,35,060,42,11,34,129,45,194,,,34*75
$GPGSV,3,3,10,195,,,44,29,,,38*45
$BDGSV,5,1,18,30,67,239,45,03,54,199,37,08,51,329,38,01,47,137,35*67
$BDGSV,5,2,18,13,46,312,37,20,43,269,37,10,40,222,,02,38,236,*67
$BDGSV,5,3,18,07,37,207,39,04,37,118,39,29,32,311,34,27,29,162,37*68
$BDGSV,5,4,18,05,16,254,,23,11,101,34,06,09,180,24,25,03,057,*61
$BDGSV,5,5,18,19,02,247,14,09,01,188,*66
$GNRMC,115516.000,A,3018.4776,N,12004.6658,E,0.01,81.07,270326,,,D*4D
$GNVTG,81.07,T,,M,0.01,N,0.01,K,D*18
$GNGGA,115517.000,3018.4777,N,12004.6658,E,2,19,0.71,-9.6,M,7.0,M,,*6F
$GNGLL,3018.4777,N,12004.6658,E,115517.000,A,D*47
$GPGSA,A,3,20,13,15,05,21,11,194,195,,,,,1.04,0.71,0.75*00
$BDGSA,A,3,20,07,29,08,04,01,27,23,13,30,03,,1.04,0.71,0.75*17
$GPGSV,3,1,10,20,82,357,43,13,78,045,41,15,64,257,46,05,54,028,44*77
$GPGSV,3,2,10,42,42,228,42,21,35,060,42,11,34,129,45,194,,,33*72
$GPGSV,3,3,10,195,,,44,29,,,38*45
$BDGSV,5,1,18,30,67,239,45,03,54,199,37,08,51,329,38,01,47,137,35*67
$BDGSV,5,2,18,13,46,312,37,20,43,269,37,10,40,222,,02,38,236,*67
$BDGSV,5,3,18,07,37,207,39,04,37,118,39,29,32,311,34,27,29,162,37*68
$BDGSV,5,4,18,05,16,254,,23,11,101,34,06,09,180,25,25,03,057,*60
$BDGSV,5,5,18,19,02,247,14,09,01,188,*66
$GNRMC,115517.000,A,3018.4777,N,12004.6658,E,0.01,81.07,270326,,,D*4D
$GNVTG,81.07,T,,M,0.01,N,0.02,K,D*1B
$GNGGA,115518.000,3018.4777,N,12004.6658,E,2,19,0.71,-9.5,M,7.0,M,,*63
$GNGLL,3018.4777,N,12004.6658,E,115518.000,A,D*48
$GPGSA,A,3,20,13,15,05,21,11,194,195,,,,,1.04,0.71,0.75*00
$BDGSA,A,3,20,07,29,08,04,01,27,23,13,30,03,,1.04,0.71,0.75*17
$GPGSV,3,1,10,20,82,357,43,13,78,045,41,15,64,257,46,05,54,028,44*77
$GPGSV,3,2,10,42,42,228,42,21,35,060,42,11,34,129,45,194,,,26*76
$GPGSV,3,3,10,195,,,43,29,,,38*42
$BDGSV,5,1,18,30,67,239,45,03,54,199,37,08,51,329,38,01,47,137,35*67
$BDGSV,5,2,18,13,46,312,37,20,43,269,37,10,40,222,,02,38,236,*67
$BDGSV,5,3,18,07,37,207,39,04,37,118,39,29,32,311,34,27,29,162,37*68
$BDGSV,5,4,18,05,16,254,,23,11,101,27,06,09,180,26,25,03,057,*61
$BDGSV,5,5,18,19,02,247,14,09,01,188,*66
$GNRMC,115518.000,A,3018.4777,N,12004.6658,E,0.01,81.07,270326,,,D*42
$GNVTG,81.07,T,,M,0.01,N,0.02,K,D*1B
$GNGGA,115519.000,3018.4777,N,12004.6658,E,2,20,0.69,-9.4,M,7.0,M,,*60
$GNGLL,3018.4777,N,12004.6658,E,115519.000,A,D*49
$GPGSA,A,3,20,13,15,05,21,11,194,195,29,,,,1.02,0.69,0.75*04
$BDGSA,A,3,20,07,29,08,04,01,27,23,13,30,03,,1.02,0.69,0.75*18
$GPGSV,3,1,10,20,82,357,43,13,78,045,41,15,64,257,46,05,54,028,44*77
$GPGSV,3,2,10,29,42,261,38,42,42,228,42,21,35,060,42,11,34,129,44*7C
$GPGSV,3,3,10,194,,,26,195,,,43*7A
$BDGSV,5,1,18,30,67,239,45,03,54,199,37,08,51,329,38,01,47,137,35*67
$BDGSV,5,2,18,13,46,312,37,20,43,269,37,10,40,222,,02,38,236,*67
$BDGSV,5,3,18,07,37,207,39,04,37,118,39,29,32,311,34,27,29,162,37*68
$BDGSV,5,4,18,05,16,254,,23,11,101,28,06,09,180,26,25,03,057,*6E
$BDGSV,5,5,18,19,02,247,13,09,01,188,*61
$GNRMC,115519.000,A,3018.4777,N,12004.6658,E,0.01,81.07,270326,,,D*43
$GNVTG,81.07,T,,M,0.01,N,0.02,K,D*1B
$GNGGA,115520.000,3018.4777,N,12004.6658,E,2,20,0.69,-9.4,M,7.0,M,,*6A
$GNGLL,3018.4777,N,12004.6658,E,115520.000,A,D*43
$GPGSA,A,3,20,13,15,05,21,11,194,195,29,,,,1.02,0.69,0.75*04
$BDGSA,A,3,20,07,29,08,04,01,27,23,13,30,03,,1.02,0.69,0.75*18
$GPGSV,3,1,10,20,82,357,43,13,78,045,41,15,64,257,46,05,54,028,44*77
$GPGSV,3,2,10,29,42,261,38,42,42,228,42,21,35,060,42,11,34,129,44*7C
$GPGSV,3,3,10,194,,,27,195,,,43*7B
$BDGSV,5,1,18,30,67,239,45,03,54,199,37,08,51,329,38,01,47,137,35*67
$BDGSV,5,2,18,13,46,312,37,20,43,269,37,10,40,222,,02,38,236,*67
$BDGSV,5,3,18,07,37,207,39,04,37,118,39,29,32,311,34,27,29,162,37*68
$BDGSV,5,4,18,05,16,254,,23,11,101,28,06,09,180,26,25,03,057,*6E
$BDGSV,5,5,18,19,02,247,13,09,01,188,*61
$GNRMC,115520.000,A,3018.4777,N,12004.6658,E,0.01,81.07,270326,,,D*49
$GNVTG,81.07,T,,M,0.01,N,0.02,K,D*1B
$GNGGA,115521.000,3018.4777,N,12004.6658,E,2,20,0.69,-9.3,M,7.0,M,,*6C
$GNGLL,3018.4777,N,12004.6658,E,115521.000,A,D*42
$GPGSA,A,3,20,13,15,05,21,11,194,195,29,,,,1.02,0.69,0.75*04
$BDGSA,A,3,20,07,29,08,04,01,27,23,13,30,03,,1.02,0.69,0.75*18
$GPGSV,3,1,10,20,82,357,43,13,78,045,41,15,64,257,46,05,54,028,44*77
$GPGSV,3,2,10,29,42,261,38,42,42,228,42,21,35,060,42,11,34,129,44*7C
$GPGSV,3,3,10,194,,,26,195,,,43*7A
$BDGSV,5,1,18,30,67,239,45,03,54,199,37,08,51,329,38,01,47,137,35*67
$BDGSV,5,2,18,13,46,312,37,20,43,269,37,10,40,222,,02,38,236,*67
$BDGSV,5,3,18,07,37,207,39,04,37,118,39,29,32,311,34,27,29,162,37*68
$BDGSV,5,4,18,05,16,254,,23,11,101,28,06,09,180,26,25,03,057,*6E
$BDGSV,5,5,18,19,02,247,13,09,01,188,*61
$GNRMC,115521.000,A,3018.4777,N,12004.6658,E,0.01,81.07,270326,,,D*48
$GNVTG,81.07,T,,M,0.01,N,0.02,K,D*1B
$GNGGA,115522.000,3018.4777,N,12004.6658,E,2,20,0.69,-9.2,M,7.0,M,,*6E
$GNGLL,3018.4777,N,12004.6658,E,115522.000,A,D*41
$GPGSA,A,3,20,13,15,05,21,11,194,195,29,,,,1.02,0.69,0.75*04
$BDGSA,A,3,20,07,29,08,04,01,27,23,13,30,03,,1.02,0.69,0.75*18
$GPGSV,3,1,10,20,82,357,43,13,78,045,41,15,64,257,46,05,54,028,44*77
$GPGSV,3,2,10,29,42,261,38,42,42,228,42,21,35,060,42,11,34,129,44*7C
$GPGSV,3,3,10,194,,,25,195,,,43*79
$BDGSV,5,1,18,30,67,239,45,03,54,199,37,08,51,329,38,01,47,137,35*67
$BDGSV,5,2,18,13,46,312,37,20,43,269,37,10,40,222,,02,38,236,*67
$BDGSV,5,3,18,07,37,207,39,04,37,118,39,29,32,311,34,27,29,162,37*68
$BDGSV,5,4,18,05,16,254,,23,11,101,29,06,09,180,26,25,03,057,*6F
$BDGSV,5,5,18,19,02,247,13,09,01,188,*61
$GNRMC,115522.000,A,3018.4777,N,12004.6658,E,0.01,81.07,270326,,,D*4B
$GNVTG,81.07,T,,M,0.01,N,0.02,K,D*1B
$GNGGA,115523.000,3018.4777,N,12004.6658,E,2,20,0.69,-9.1,M,7.0,M,,*6C
$GNGLL,3018.4777,N,12004.6658,E,115523.000,A,D*40
$GPGSA,A,3,20,13,15,05,21,11,194,195,29,,,,1.02,0.69,0.75*04
$BDGSA,A,3,20,07,29,08,04,01,27,23,13,30,03,,1.02,0.69,0.75*18
$GPGSV,3,1,10,20,82,357,43,13,78,045,42,15,64,257,46,05,54,028,44*74
$GPGSV,3,2,10,29,42,261,38,42,42,228,42,21,35,060,42,11,34,129,44*7C
$GPGSV,3,3,10,194,,,25,195,,,43*79
$BDGSV,5,1,18,30,67,239,45,03,54,199,37,08,51,329,38,01,47,137,35*67
$BDGSV,5,2,18,13,46,312,37,20,43,269,37,10,40,222,,02,38,236,*67
$BDGSV,5,3,18,07,37,207,39,04,37,118,38,29,32,311,34,27,29,162,38*66
$BDGSV,5,4,18,05,16,254,,23,11,101,29,06,09,180,26,25,03,057,*6F
$BDGSV,5,5,18,19,02,247,13,09,01,188,*61
$GNRMC,115523.000,A,3018.4777,N,12004.6658,E,0.01,81.07,270326,,,D*4A
$GNVTG,81.07,T,,M,0.01,N,0.02,K,D*1B
$GNGGA,115524.000,3018.4777,N,12004.6657,E,2,20,0.69,-9.1,M,7.0,M,,*64
$GNGLL,3018.4777,N,12004.6657,E,115524.000,A,D*48
$GPGSA,A,3,20,13,15,05,21,11,194,195,29,,,,1.02,0.69,0.75*04
$BDGSA,A,3,20,07,29,08,04,01,27,23,13,30,03,,1.02,0.69,0.75*18
$GPGSV,3,1,10,20,82,357,43,13,78,045,42,15,64,257,46,05,54,028,44*74
$GPGSV,3,2,10,29,42,261,38,42,42,228,42,21,35,060,42,11,34,129,44*7C
$GPGSV,3,3,10,194,,,26,195,,,43*7A
$BDGSV,5,1,18,30,67,239,45,03,54,199,37,08,51,329,38,01,47,137,35*67
$BDGSV,5,2,18,13,46,312,37,20,43,269,37,10,40,222,,02,38,236,*67
$BDGSV,5,3,18,07,37,207,39,04,37,118,38,29,32,311,34,27,29,162,38*66
$BDGSV,5,4,18,05,16,254,,23,11,101,29,06,09,180,27,25,03,057,*6E
$BDGSV,5,5,18,19,02,247,13,09,01,188,*61
$GNRMC,115524.000,A,3018.4777,N,12004.6657,E,0.00,81.07,270326,,,D*43
$GNVTG,81.07,T,,M,0.00,N,0.00,K,D*18
$GNGGA,115525.000,3018.4777,N,12004.6657,E,2,20,0.69,-9.1,M,7.0,M,,*65
$GNGLL,3018.4777,N,12004.6657,E,115525.000,A,D*49
$GPGSA,A,3,20,13,15,05,21,11,194,195,29,,,,1.02,0.69,0.75*04
$BDGSA,A,3,20,07,29,08,04,01,27,23,13,30,03,,1.02,0.69,0.75*18
$GPGSV,3,1,10,20,82,357,43,13,78,045,42,15,64,257,46,05,54,028,44*74
$GPGSV,3,2,10,29,42,261,38,42,42,228,42,21,35,060,42,11,34,129,44*7C
$GPGSV,3,3,10,194,,,27,195,,,43*7B
$BDGSV,5,1,18,30,67,239,45,03,54,199,37,08,51,329,38,01,47,137,35*67
$BDGSV,5,2,18,13,46,312,37,20,43,269,37,10,40,222,,02,38,236,*67
$BDGSV,5,3,18,07,37,207,39,04,37,118,38,29,32,311,34,27,29,162,38*66
$BDGSV,5,4,18,05,16,254,,23,11,101,30,06,09,180,27,25,03,057,*66
$BDGSV,5,5,18,19,02,247,12,09,01,188,*60
$GNRMC,115525.000,A,3018.4777,N,12004.6657,E,0.00,81.07,270326,,,D*42
$GNVTG,81.07,T,,M,0.00,N,0.00,K,D*18
$GNGGA,115526.000,3018.4777,N,12004.6657,E,2,20,0.69,-9.1,M,7.0,M,,*66
$GNGLL,3018.4777,N,12004.6657,E,115526.000,A,D*4A
$GPGSA,A,3,20,13,15,05,21,11,194,195,29,,,,1.02,0.69,0.75*04
$BDGSA,A,3,20,07,29,08,04,01,27,23,13,30,03,,1.02,0.69,0.75*18
$GPGSV,3,1,10,20,82,357,43,13,78,045,42,15,64,257,46,05,54,028,44*74
$GPGSV,3,2,10,29,42,261,38,42,42,228,42,21,35,060,42,11,34,129,44*7C
$GPGSV,3,3,10,194,10,167,27,195,,,43*4A
$BDGSV,5,1,18,30,67,239,45,03,54,199,37,08,51,329,38,01,47,137,35*67
$BDGSV,5,2,18,13,46,312,37,20,43,269,37,10,40,222,,02,38,236,*67
$BDGSV,5,3,18,07,37,207,39,04,37,118,38,29,32,311,34,27,29,162,38*66
$BDGSV,5,4,18,05,16,254,,23,11,101,31,06,09,180,27,25,03,057,*67
$BDGSV,5,5,18,19,02,247,13,09,01,188,*61
$GNRMC,115526.000,A,3018.4777,N,12004.6657,E,0.01,81.07,270326,,,D*40
$GNVTG,81.07,T,,M,0.01,N,0.01,K,D*18
$GNGGA,115527.000,3018.4777,N,12004.6657,E,2,20,0.69,-9.1,M,7.0,M,,*67
$GNGLL,3018.4777,N,12004.6657,E,115527.000,A,D*4B
$GPGSA,A,3,20,13,15,05,21,11,194,195,29,,,,1.02,0.69,0.75*04
$BDGSA,A,3,20,07,29,08,04,01,27,23,13,30,03,,1.02,0.69,0.75*18
$GPGSV,3,1,10,20,82,357,43,13,78,045,42,195,65,123,43,15,64,257,46*43
$GPGSV,3,2,10,05,54,028,44,29,42,261,38,42,42,228,42,21,35,060,42*7F
$GPGSV,3,3,10,11,34,129,45,194,10,167,29*42
$BDGSV,5,1,18,30,67,239,45,03,54,199,37,08,51,329,38,01,47,137,35*67
$BDGSV,5,2,18,13,46,312,37,20,43,269,37,10,40,222,,02,38,236,*67
$BDGSV,5,3,18,07,37,207,39,04,37,118,38,29,32,311,34,27,29,162,38*66
$BDGSV,5,4,18,05,16,254,,23,11,101,32,06,09,180,26,25,03,057,*65
$BDGSV,5,5,18,19,02,247,12,09,01,188,*60
$GNRMC,115527.000,A,3018.4777,N,12004.6657,E,0.01,81.07,270326,,,D*41
$GNVTG,81.07,T,,M,0.01,N,0.03,K,D*1A
$GNGGA,115528.000,3018.4777,N,12004.6657,E,2,20,0.69,-9.1,M,7.0,M,,*68
$GNGLL,3018.4777,N,12004.6657,E,115528.000,A,D*44
$GPGSA,A,3,20,13,15,05,21,11,194,195,29,,,,1.02,0.69,0.75*04
$BDGSA,A,3,20,07,29,08,04,01,27,23,13,30,03,,1.02,0.69,0.75*18
$GPGSV,3,1,11,20,82,357,43,13,78,045,42,195,65,123,43,15,64,257,46*42
$GPGSV,3,2,11,05,54,028,44,29,42,261,38,42,42,228,42,21,35,060,42*7E
$GPGSV,3,3,11,11,34,129,45,194,10,167,30,16,,,19*44
$BDGSV,5,1,18,30,67,239,45,03,54,199,36,08,51,329,38,01,47,137,34*67
$BDGSV,5,2,18,13,46,312,37,20,43,269,37,10,40,222,,02,38,236,*67
$BDGSV,5,3,18,07,37,207,39,04,37,118,38,29,32,311,34,27,29,162,38*66
$BDGSV,5,4,18,05,16,254,,23,11,101,33,06,09,180,26,25,03,057,*64
$BDGSV,5,5,18,19,02,247,12,09,01,188,*60
$GNRMC,115528.000,A,3018.4777,N,12004.6657,E,0.00,81.07,270326,,,D*4F
$GNVTG,81.07,T,,M,0.00,N,0.00,K,D*18
$GNGGA,115529.000,3018.4777,N,12004.6657,E,2,20,0.69,-9.1,M,7.0,M,,*69
$GNGLL,3018.4777,N,12004.6657,E,115529.000,A,D*45
$GPGSA,A,3,20,13,15,05,21,11,194,195,29,,,,1.02,0.69,0.75*04
$BDGSA,A,3,20,07,29,08,04,01,27,23,13,30,03,,1.02,0.69,0.75*18
$GPGSV,3,1,10,20,82,357,43,13,78,045,42,195,65,123,43,15,64,257,46*43
$GPGSV,3,2,10,05,54,028,44,29,42,261,38,42,42,228,42,21,35,060,42*7F
$GPGSV,3,3,10,11,34,129,45,194,10,167,30*4A
$BDGSV,5,1,18,30,67,239,45,03,54,199,36,08,51,329,38,01,47,137,34*67
$BDGSV,5,2,18,13,46,312,37,20,43,269,37,10,40,222,,02,38,236,*67
$BDGSV,5,3,18,07,37,207,39,04,37,118,38,29,32,311,34,27,29,162,38*66
$BDGSV,5,4,18,05,16,254,,23,11,101,34,06,09,180,26,25,03,057,*63
$BDGSV,5,5,18,19,02,247,12,09,01,188,*60
$GNRMC,115529.000,A,3018.4777,N,12004.6657,E,0.01,81.07,270326,,,D*4F
$GNVTG,81.07,T,,M,0.01,N,0.03,K,D*1A
$GNGGA,115530.000,3018.4777,N,12004.6657,E,2,20,0.69,-9.1,M,7.0,M,,*61
$GNGLL,3018.4777,N,12004.6657,E,115530.000,A,D*4D
$GPGSA,A,3,20,13,15,05,21,11,194,195,29,,,,1.02,0.69,0.75*04
$BDGSA,A,3,20,07,29,08,04,01,27,23,13,30,03,,1.02,0.69,0.75*18
$GPGSV,3,1,10,20,82,357,43,13,78,045,42,195,65,123,43,15,64,257,46*43
$GPGSV,3,2,10,05,54,028,44,29,42,261,38,42,42,228,42,21,35,060,42*7F
$GPGSV,3,3,10,11,34,129,45,194,10,167,30*4A
$BDGSV,5,1,18,30,67,239,45,03,54,199,36,08,51,329,38,01,47,137,34*67
$BDGSV,5,2,18,13,46,312,36,20,43,269,37,10,40,222,,02,38,236,*66
$BDGSV,5,3,18,07,37,207,39,04,37,118,38,29,32,311,34,27,29,162,38*66
$BDGSV,5,4,18,05,16,254,,23,11,101,34,06,09,180,26,25,03,057,*63
$BDGSV,5,5,18,19,02,247,12,09,01,188,*60
$GNRMC,115530.000,A,3018.4777,N,12004.6657,E,0.01,81.07,270326,,,D*47
$GNVTG,81.07,T,,M,0.01,N,0.01,K,D*18
$GNGGA,115531.000,3018.4777,N,12004.6657,E,2,20,0.69,-9.1,M,7.0,M,,*60
$GNGLL,3018.4777,N,12004.6657,E,115531.000,A,D*4C
$GPGSA,A,3,20,13,15,05,21,11,194,195,29,,,,1.02,0.69,0.75*04
$BDGSA,A,3,20,07,29,08,04,01,27,23,13,30,03,,1.02,0.69,0.75*18
$GPGSV,3,1,10,20,82,357,43,13,78,045,41,195,65,123,43,15,64,257,46*40
$GPGSV,3,2,10,05,54,028,44,29,42,261,38,42,42,228,42,21,35,060,42*7F
$GPGSV,3,3,10,11,34,129,45,194,10,167,30*4A
$BDGSV,5,1,18,30,67,239,45,03,54,199,36,08,51,329,38,01,47,137,34*67
$BDGSV,5,2,18,13,46,312,36,20,43,269,37,10,40,222,,02,38,236,*66
$BDGSV,5,3,18,07,37,207,39,04,37,118,38,29,32,311,34,27,29,162,38*66
$BDGSV,5,4,18,05,16,254,,23,11,101,34,06,09,180,26,25,03,057,*63
$BDGSV,5,5,18,19,02,247,,09,01,188,*63
$GNRMC,115531.000,A,3018.4777,N,12004.6657,E,0.01,81.07,270326,,,D*46
$GNVTG,81.07,T,,M,0.01,N,0.01,K,D*18
$GNGGA,115532.000,3018.4777,N,12004.6657,E,2,21,0.67,-9.1,M,7.0,M,,*6C
$GNGLL,3018.4777,N,12004.6657,E,115532.000,A,D*4F
$GPGSA,A,3,20,13,15,05,21,11,194,195,29,,,,1.00,0.67,0.75*08
$BDGSA,A,3,20,07,29,08,04,01,27,23,13,02,30,03,1.00,0.67,0.75*16
$GPGSV,3,1,10,20,82,357,43,13,78,045,41,195,65,123,43,15,64,257,46*40
$GPGSV,3,2,10,05,54,028,44,29,42,261,38,42,42,228,42,21,35,060,42*7F
$GPGSV,3,3,10,11,34,129,45,194,10,167,30*4A
$BDGSV,5,1,18,30,67,239,45,03,54,199,37,08,51,329,38,01,47,137,35*67
$BDGSV,5,2,18,13,46,312,36,20,43,269,37,10,40,222,,02,38,236,34*61
$BDGSV,5,3,18,07,37,207,39,04,37,118,38,29,32,311,34,27,29,162,38*66
$BDGSV,5,4,18,05,16,254,,23,11,101,35,06,09,180,26,25,03,057,*62
$BDGSV,5,5,18,19,02,247,,09,01,188,*63
$GNRMC,115532.000,A,3018.4777,N,12004.6657,E,0.00,81.07,270326,,,D*44
$GNVTG,81.07,T,,M,0.00,N,0.01,K,D*19
$GNGGA,115533.000,3018.4777,N,12004.6657,E,2,21,0.67,-9.1,M,7.0,M,,*6D
$GNGLL,3018.4777,N,12004.6657,E,115533.000,A,D*4E
$GPGSA,A,3,20,13,15,05,21,11,194,195,29,,,,1.00,0.67,0.75*08
$BDGSA,A,3,20,07,29,08,04,01,27,23,13,02,30,03,1.00,0.67,0.75*16
$GPGSV,3,1,11,20,82,357,43,13,78,045,41,195,65,123,43,15,64,257,46*41
$GPGSV,3,2,11,05,54,028,44,29,42,261,38,42,42,228,42,21,35,060,42*7E
$GPGSV,3,3,11,11,34,129,45,194,10,167,31,16,,,20*4F
$BDGSV,5,1,18,30,67,239,45,03,54,199,37,08,51,329,38,01,47,137,35*67
$BDGSV,5,2,18,13,46,312,36,20,43,269,37,10,40,222,,02,38,236,33*66
$BDGSV,5,3,18,07,37,207,39,04,37,118,38,29,32,311,34,27,29,162,38*66
$BDGSV,5,4,18,05,16,254,,23,11,101,35,06,09,180,26,25,03,057,*62
$BDGSV,5,5,18,19,02,247,,09,01,188,*63
$GNRMC,115533.000,A,3018.4777,N,12004.6657,E,0.00,81.07,270326,,,D*45
$GNVTG,81.07,T,,M,0.00,N,0.00,K,D*18
$GNGGA,115534.000,3018.4777,N,12004.6657,E,2,21,0.67,-9.1,M,7.0,M,,*6A
$GNGLL,3018.4777,N,12004.6657,E,115534.000,A,D*49
$GPGSA,A,3,20,13,15,05,21,11,194,195,29,,,,1.00,0.67,0.75*08
$BDGSA,A,3,20,07,29,08,04,01,27,23,13,02,30,03,1.00,0.67,0.75*16
$GPGSV,3,1,11,20,82,357,43,13,78,045,41,195,65,123,43,15,64,257,46*41
$GPGSV,3,2,11,05,54,028,44,29,42,261,38,42,42,228,42,21,35,060,42*7E
$GPGSV,3,3,11,11,34,129,45,194,10,167,31,16,,,16*4A
$BDGSV,5,1,18,30,67,239,45,03,54,199,37,08,51,329,38,01,47,137,34*66
$BDGSV,5,2,18,13,46,312,36,20,43,269,37,10,40,222,,02,38,236,34*61
$BDGSV,5,3,18,07,37,207,39,04,37,118,38,29,32,311,34,27,29,162,38*66
$BDGSV,5,4,18,05,16,254,,23,11,101,35,06,09,180,26,25,03,057,*62
$BDGSV,5,5,18,19,02,247,,09,01,188,*63
$GNRMC,115534.000,A,3018.4777,N,12004.6657,E,0.01,81.07,270326,,,D*43
$GNVTG,81.07,T,,M,0.01,N,0.02,K,D*1B
$GNGGA,115535.000,3018.4777,N,12004.6657,E,2,21,0.67,-9.1,M,7.0,M,,*6B
$GNGLL,3018.4777,N,12004.6657,E,115535.000,A,D*48
$GPGSA,A,3,20,13,15,05,21,11,194,195,29,,,,1.00,0.67,0.75*08
$BDGSA,A,3,20,07,29,08,04,01,27,23,13,02,30,03,1.00,0.67,0.75*16
$GPGSV,3,1,11,20,82,357,43,13,78,045,41,195,65,123,43,15,64,257,46*41
$GPGSV,3,2,11,05,54,028,44,29,42,261,38,42,42,228,42,21,35,060,42*7E
$GPGSV,3,3,11,11,34,129,45,194,10,167,31,16,,,18*44
$BDGSV,5,1,18,30,67,239,45,03,54,199,37,08,51,329,38,01,47,137,35*67
$BDGSV,5,2,18,13,46,312,36,20,43,269,37,10,40,222,,02,38,236,34*61
$BDGSV,5,3,18,07,37,207,39,04,37,118,38,29,32,311,34,27,29,162,38*66
$BDGSV,5,4,18,05,16,254,,23,11,101,35,06,09,180,25,25,03,057,*61
$BDGSV,5,5,18,19,02,247,,09,01,188,*63
$GNRMC,115535.000,A,3018.4777,N,12004.6657,E,0.00,81.07,270326,,,D*43
$GNVTG,81.07,T,,M,0.00,N,0.01,K,D*19
$GNGGA,115536.000,3018.4777,N,12004.6657,E,2,21,0.67,-9.1,M,7.0,M,,*68
$GNGLL,3018.4777,N,12004.6657,E,115536.000,A,D*4B
$GPGSA,A,3,20,13,15,05,21,11,194,195,29,,,,1.00,0.67,0.75*08
$BDGSA,A,3,20,07,29,08,04,01,27,23,13,02,30,03,1.00,0.67,0.75*16
$GPGSV,3,1,11,20,82,357,43,13,78,045,41,195,65,123,43,15,64,257,46*41
$GPGSV,3,2,11,05,54,028,44,29,42,261,38,42,42,228,42,21,35,060,42*7E
$GPGSV,3,3,11,11,34,129,45,194,10,167,31,16,,,20*4F
$BDGSV,5,1,18,30,67,239,45,03,54,199,37,08,51,329,38,01,47,137,35*67
$BDGSV,5,2,18,13,46,312,36,20,43,269,37,10,40,222,,02,38,236,34*61
$BDGSV,5,3,18,07,37,207,39,04,37,118,38,29,32,311,34,27,29,162,38*66
$BDGSV,5,4,18,05,16,254,,23,11,101,35,06,09,180,25,25,03,057,*61
$BDGSV,5,5,18,19,02,247,,09,01,188,*63
$GNRMC,115536.000,A,3018.4777,N,12004.6657,E,0.00,81.07,270326,,,D*40
$GNVTG,81.07,T,,M,0.00,N,0.01,K,D*19
$GNGGA,115537.000,3018.4777,N,12004.6657,E,2,21,0.67,-9.1,M,7.0,M,,*69
$GNGLL,3018.4777,N,12004.6657,E,115537.000,A,D*4A
$GPGSA,A,3,20,13,15,05,21,11,194,195,29,,,,1.00,0.67,0.75*08
$BDGSA,A,3,20,07,29,08,04,01,27,23,13,02,30,03,1.00,0.67,0.75*16
$GPGSV,3,1,11,20,82,357,43,13,78,045,41,195,65,123,43,15,64,257,46*41
$GPGSV,3,2,11,05,54,028,44,29,42,261,38,42,42,228,42,21,35,060,42*7E
$GPGSV,3,3,11,11,34,129,45,194,10,167,32,16,,,23*4F
$BDGSV,5,1,18,30,67,239,45,03,54,199,37,08,51,329,38,01,47,137,35*67
$BDGSV,5,2,18,13,46,312,36,20,43,269,37,10,40,222,,02,38,236,34*61
$BDGSV,5,3,18,07,37,207,39,04,37,118,38,29,32,311,34,27,29,162,38*66
$BDGSV,5,4,18,05,16,254,,23,11,101,35,06,09,180,25,25,03,057,*61
$BDGSV,5,5,18,19,02,247,,09,01,188,*63
$GNRMC,115537.000,A,3018.4777,N,12004.6657,E,0.01,81.07,270326,,,D*40
$GNVTG,81.07,T,,M,0.01,N,0.01,K,D*18
$GNGGA,115538.000,3018.4777,N,12004.6657,E,2,21,0.67,-9.1,M,7.0,M,,*66
$GNGLL,3018.4777,N,12004.6657,E,115538.000,A,D*45
$GPGSA,A,3,20,13,15,05,21,11,194,195,29,,,,1.00,0.67,0.75*08
$BDGSA,A,3,20,07,29,08,04,01,27,23,13,02,30,03,1.00,0.67,0.75*16
$GPGSV,3,1,11,20,82,357,43,13,78,045,41,195,65,123,43,15,64,257,46*41
$GPGSV,3,2,11,05,54,028,44,29,42,261,38,42,42,228,42,21,35,060,42*7E
$GPGSV,3,3,11,11,34,129,45,194,10,167,32,16,,,20*4C
$BDGSV,5,1,18,30,67,239,45,03,54,199,37,08,51,329,38,01,47,137,36*64
$BDGSV,5,2,18,13,46,312,36,20,43,269,37,10,40,222,,02,38,236,34*61
$BDGSV,5,3,18,07,37,207,39,04,37,118,38,29,32,311,34,27,29,162,38*66
$BDGSV,5,4,18,05,16,254,,23,11,101,35,06,09,180,25,25,03,057,*61
$BDGSV,5,5,18,19,02,247,,09,01,188,*63
$GNRMC,115538.000,A,3018.4777,N,12004.6657,E,0.01,81.07,270326,,,D*4F
$GNVTG,81.07,T,,M,0.01,N,0.01,K,D*18
$GNGGA,115539.000,3018.4777,N,12004.6657,E,2,21,0.67,-9.1,M,7.0,M,,*67
$GNGLL,3018.4777,N,12004.6657,E,115539.000,A,D*44
$GPGSA,A,3,20,13,15,05,21,11,194,195,29,,,,1.00,0.67,0.75*08
$BDGSA,A,3,20,07,29,08,04,01,27,23,13,02,30,03,1.00,0.67,0.75*16
$GPGSV,3,1,11,20,82,357,43,13,78,045,41,195,65,123,43,15,64,257,46*41
$GPGSV,3,2,11,05,54,028,44,29,42,261,38,42,42,228,42,21,35,060,42*7E
$GPGSV,3,3,11,11,34,129,45,194,10,167,32,16,,,20*4C
$BDGSV,5,1,18,30,67,239,45,03,54,199,37,08,51,329,38,01,47,137,36*64
$BDGSV,5,2,18,13,46,312,36,20,43,269,37,10,40,222,,02,38,236,34*61
$BDGSV,5,3,18,07,37,207,39,04,37,118,38,29,32,311,34,27,29,162,38*66
$BDGSV,5,4,18,05,16,254,,23,11,101,35,06,09,180,25,25,03,057,*61
$BDGSV,5,5,18,19,02,247,,09,01,188,*63
$GNRMC,115539.000,A,3018.4777,N,12004.6657,E,0.01,81.07,270326,,,D*4E
$GNVTG,81.07,T,,M,0.01,N,0.01,K,D*18
$GNGGA,115540.000,3018.4777,N,12004.6658,E,2,21,0.67,-9.1,M,7.0,M,,*66
$GNGLL,3018.4777,N,12004.6658,E,115540.000,A,D*45
$GPGSA,A,3,20,13,15,05,21,11,194,195,29,,,,1.00,0.67,0.75*08
$BDGSA,A,3,20,07,29,08,04,01,27,23,13,02,30,03,1.00,0.67,0.75*16
$GPGSV,3,1,10,20,82,357,43,13,78,045,41,195,65,123,43,15,64,257,46*40
$GPGSV,3,2,10,05,54,028,44,29,42,261,38,42,42,228,42,21,35,060,42*7F
$GPGSV,3,3,10,11,34,129,45,194,10,167,32*48
$BDGSV,5,1,18,30,67,239,45,03,54,199,37,08,51,329,38,01,47,137,35*67
$BDGSV,5,2,18,13,46,312,36,20,43,269,37,10,40,222,,02,38,236,34*61
$BDGSV,5,3,18,07,37,207,39,04,37,118,38,29,32,311,34,27,29,162,38*66
$BDGSV,5,4,18,05,16,254,,23,11,101,35,06,09,180,25,25,03,057,*61
$BDGSV,5,5,18,19,02,247,,09,01,188,*63
$GNRMC,115540.000,A,3018.4777,N,12004.6658,E,0.01,81.07,270326,,,D*4F
$GNVTG,81.07,T,,M,0.01,N,0.01,K,D*18
$GNGGA,115541.000,3018.4777,N,12004.6658,E,2,21,0.67,-9.1,M,7.0,M,,*67
$GNGLL,3018.4777,N,12004.6658,E,115541.000,A,D*44
$GPGSA,A,3,20,13,15,05,21,11,194,195,29,,,,1.00,0.67,0.75*08
$BDGSA,A,3,20,07,29,08,04,01,27,23,13,02,30,03,1.00,0.67,0.75*16
$GPGSV,3,1,10,20,82,357,43,13,78,045,41,195,65,123,43,15,64,257,46*40
$GPGSV,3,2,10,05,54,028,44,29,42,261,38,42,42,228,42,21,35,060,42*7F
$GPGSV,3,3,10,11,34,129,45,194,10,167,32*48
$BDGSV,5,1,18,30,67,239,45,03,54,199,37,08,51,329,38,01,47,137,35*67
$BDGSV,5,2,18,13,46,312,36,20,43,269,37,10,40,222,,02,38,236,34*61
$BDGSV,5,3,18,07,37,207,39,04,37,118,38,29,32,311,34,27,29,162,38*66
$BDGSV,5,4,18,05,16,254,,23,11,101,35,06,09,180,25,25,03,057,*61
$BDGSV,5,5,18,19,02,247,,09,01,188,*63
$GNRMC,115541.000,A,3018.4777,N,12004.6658,E,0.01,81.07,270326,,,D*4E
$GNVTG,81.07,T,,M,0.01,N,0.01,K,D*18
$GNGGA,115542.000,3018.4777,N,12004.6658,E,2,21,0.67,-9.1,M,7.0,M,,*64
$GNGLL,3018.4777,N,12004.6658,E,115542.000,A,D*47
$GPGSA,A,3,20,13,15,05,21,11,194,195,29,,,,1.00,0.67,0.75*08
$BDGSA,A,3,20,07,29,08,04,01,27,23,13,02,30,03,1.00,0.67,0.75*16
$GPGSV,3,1,10,20,82,357,43,13,78,045,41,195,65,123,43,15,64,257,46*40
$GPGSV,3,2,10,05,54,028,44,29,42,261,38,42,42,228,42,21,35,060,42*7F
$GPGSV,3,3,10,11,34,129,45,194,10,167,32*48
$BDGSV,5,1,18,30,67,239,45,03,54,199,37,08,51,329,38,01,47,137,35*67
$BDGSV,5,2,18,13,46,312,36,20,43,269,37,10,40,222,,02,38,236,34*61
$BDGSV,5,3,18,07,37,207,39,04,37,118,38,29,32,311,34,27,29,162,38*66
$BDGSV,5,4,18,05,16,254,,23,11,101,35,06,09,180,25,25,03,057,*61
$BDGSV,5,5,18,19,02,247,,09,01,188,*63
$GNRMC,115542.000,A,3018.4777,N,12004.6658,E,0.02,81.07,270326,,,D*4E
$GNVTG,81.07,T,,M,0.02,N,0.03,K,D*19
$GNGGA,115543.000,3018.4777,N,12004.6658,E,2,21,0.67,-9.1,M,7.0,M,,*65
$GNGLL,3018.4777,N,12004.6658,E,115543.000,A,D*46
$GPGSA,A,3,20,13,15,05,21,11,194,195,29,,,,1.00,0.67,0.75*08
$BDGSA,A,3,20,07,29,08,04,01,27,23,13,02,30,03,1.00,0.67,0.75*16
$GPGSV,3,1,10,20,82,357,43,13,78,045,41,195,65,123,43,15,64,257,46*40
$GPGSV,3,2,10,05,54,028,44,29,42,261,38,42,42,228,42,21,35,060,42*7F
$GPGSV,3,3,10,11,34,129,45,194,10,167,32*48
$BDGSV,5,1,18,30,67,239,45,03,54,199,37,08,51,329,38,01,47,137,35*67
$BDGSV,5,2,18,13,46,312,36,20,43,269,37,10,40,222,,02,38,236,34*61
$BDGSV,5,3,18,07,37,207,39,04,37,118,38,29,32,311,34,27,29,162,38*66
$BDGSV,5,4,18,05,16,254,,23,11,101,35,06,09,180,25,25,03,057,*61
$BDGSV,5,5,18,19,02,247,,09,01,188,*63
$GNRMC,115543.000,A,3018.4777,N,12004.6658,E,0.00,81.07,270326,,,D*4D
$GNVTG,81.07,T,,M,0.00,N,0.01,K,D*19
$GNGGA,115544.000,3018.4777,N,12004.6658,E,2,21,0.67,-9.1,M,7.0,M,,*62
$GNGLL,3018.4777,N,12004.6658,E,115544.000,A,D*41
$GPGSA,A,3,20,13,15,05,21,11,194,195,29,,,,1.00,0.67,0.75*08
$BDGSA,A,3,20,07,29,08,04,01,27,23,13,02,30,03,1.00,0.67,0.75*16
$GPGSV,3,1,10,20,82,357,43,13,78,045,41,195,65,123,43,15,64,257,46*40
$GPGSV,3,2,10,05,54,028,44,29,42,261,38,42,42,228,42,21,35,060,42*7F
$GPGSV,3,3,10,11,34,129,45,194,10,167,32*48
$BDGSV,5,1,18,30,67,239,45,03,54,199,37,08,51,329,38,01,47,137,35*67
$BDGSV,5,2,18,13,46,312,36,20,43,269,37,10,40,222,,02,38,236,34*61
$BDGSV,5,3,18,07,37,207,39,04,37,118,38,29,32,311,34,27,29,162,38*66
$BDGSV,5,4,18,05,16,254,,23,11,101,35,06,09,180,25,25,03,057,*61
$BDGSV,5,5,18,19,02,247,,09,01,188,*63
$GNRMC,115544.000,A,3018.4777,N,12004.6658,E,0.01,81.07,270326,,,D*4B
$GNVTG,81.07,T,,M,0.01,N,0.03,K,D*1A
$GNGGA,115545.000,3018.4777,N,12004.6658,E,2,21,0.67,-9.1,M,7.0,M,,*63
$GNGLL,3018.4777,N,12004.6658,E,115545.000,A,D*40
$GPGSA,A,3,20,13,15,05,21,11,194,195,29,,,,1.00,0.67,0.75*08
$BDGSA,A,3,20,07,29,08,04,01,27,23,13,02,30,03,1.00,0.67,0.75*16
$GPGSV,3,1,10,20,82,357,43,13,78,045,41,195,65,123,43,15,64,257,46*40
$GPGSV,3,2,10,05,54,028,44,29,42,261,38,42,42,228,42,21,35,060,42*7F
$GPGSV,3,3,10,11,34,129,45,194,10,167,32*48
$BDGSV,5,1,18,30,67,239,45,03,54,199,37,08,51,329,38,01,47,137,35*67
$BDGSV,5,2,18,13,46,312,36,20,43,269,37,10,40,222,,02,38,236,34*61
$BDGSV,5,3,18,07,37,207,39,04,37,118,38,29,32,311,34,27,29,162,38*66
$BDGSV,5,4,18,05,16,254,,23,11,101,35,06,09,180,25,25,03,057,*61
$BDGSV,5,5,18,19,02,247,,09,01,188,*63
$GNRMC,115545.000,A,3018.4777,N,12004.6658,E,0.01,81.07,270326,,,D*4A
$GNVTG,81.07,T,,M,0.01,N,0.01,K,D*18
$GNGGA,115546.000,3018.4777,N,12004.6658,E,2,21,0.67,-9.1,M,7.0,M,,*60
$GNGLL,3018.4777,N,12004.6658,E,115546.000,A,D*43
$GPGSA,A,3,20,13,15,05,21,11,194,195,29,,,,1.00,0.67,0.75*08
$BDGSA,A,3,20,07,29,08,04,01,27,23,13,02,30,03,1.00,0.67,0.75*16
$GPGSV,3,1,10,20,82,357,43,13,78,045,41,195,65,123,43,15,64,257,46*40
$GPGSV,3,2,10,05,54,028,44,29,42,261,38,42,42,228,42,21,35,060,42*7F
$GPGSV,3,3,10,11,34,129,45,194,10,167,32*48
$BDGSV,5,1,18,30,67,239,45,03,54,199,37,08,51,329,38,01,47,137,35*67
$BDGSV,5,2,18,13,46,312,36,20,43,269,37,10,40,222,,02,38,236,34*61
$BDGSV,5,3,18,07,37,207,39,04,37,118,38,29,32,311,34,27,29,162,38*66
$BDGSV,5,4,18,05,16,254,,23,11,101,35,06,09,180,25,25,03,057,*61
$BDGSV,5,5,18,19,02,247,,09,01,188,*63
$GNRMC,115546.000,A,3018.4777,N,12004.6658,E,0.01,81.07,270326,,,D*49
$GNVTG,81.07,T,,M,0.01,N,0.02,K,D*1B
$GNGGA,115547.000,3018.4777,N,12004.6658,E,2,21,0.67,-9.1,M,7.0,M,,*61
$GNGLL,3018.4777,N,12004.6658,E,115547.000,A,D*42
$GPGSA,A,3,20,13,15,05,21,11,194,195,29,,,,1.00,0.67,0.75*08
$BDGSA,A,3,20,07,29,08,04,01,27,23,13,02,30,03,1.00,0.67,0.75*16
$GPGSV,3,1,10,20,82,357,44,13,78,045,41,195,65,123,43,15,64,257,46*47
$GPGSV,3,2,10,05,54,028,44,29,42,261,39,42,42,228,42,21,35,060,42*7E
$GPGSV,3,3,10,11,34,129,45,194,10,167,32*48
$BDGSV,5,1,18,30,67,239,45,03,54,199,37,08,51,329,38,01,47,137,35*67
$BDGSV,5,2,18,13,46,312,36,20,43,269,37,10,40,222,,02,38,236,35*60
$BDGSV,5,3,18,07,37,207,39,04,37,118,38,29,32,311,33,27,29,162,38*61
$BDGSV,5,4,18,05,16,254,,23,11,101,34,06,09,180,26,25,03,057,*63
$BDGSV,5,5,18,19,02,247,,09,01,188,*63
$GNRMC,115547.000,A,3018.4777,N,12004.6658,E,0.02,81.07,270326,,,D*4B
$GNVTG,81.07,T,,M,0.02,N,0.04,K,D*1E
$GNGGA,115548.000,3018.4777,N,12004.6658,E,2,21,0.67,-9.1,M,7.0,M,,*6E
$GNGLL,3018.4777,N,12004.6658,E,115548.000,A,D*4D
$GPGSA,A,3,20,13,15,05,21,11,194,195,29,,,,1.00,0.67,0.75*08
$BDGSA,A,3,20,07,29,08,04,01,27,23,13,02,30,03,1.00,0.67,0.75*16
$GPGSV,3,1,10,20,82,357,44,13,78,045,42,195,65,123,43,15,64,257,46*44
$GPGSV,3,2,10,05,54,028,44,29,42,261,40,42,42,228,42,21,35,060,42*70
$GPGSV,3,3,10,11,34,129,45,194,10,167,32*48
$BDGSV,5,1,18,30,67,239,45,03,54,199,37,08,51,329,38,01,47,137,35*67
$BDGSV,5,2,18,13,46,312,37,20,43,269,37,10,40,222,,02,38,236,35*61
$BDGSV,5,3,18,07,37,207,38,04,37,118,38,29,32,311,32,27,29,162,38*61
$BDGSV,5,4,18,05,16,254,,23,11,101,32,06,09,180,26,25,03,057,*65
$BDGSV,5,5,18,19,02,247,,09,01,188,*63
$GNRMC,115548.000,A,3018.4777,N,12004.6658,E,0.01,81.07,270326,,,D*47
$GNVTG,81.07,T,,M,0.01,N,0.02,K,D*1B
$GNGGA,115549.000,3018.4778,N,12004.6658,E,2,21,0.67,-9.1,M,7.0,M,,*60
$GNGLL,3018.4778,N,12004.6658,E,115549.000,A,D*43
$GPGSA,A,3,20,13,15,05,21,11,194,195,29,,,,1.00,0.67,0.75*08
$BDGSA,A,3,20,07,29,08,04,01,27,23,13,02,30,03,1.00,0.67,0.75*16
$GPGSV,3,1,10,20,82,357,44,13,78,045,42,195,65,123,43,15,64,257,47*45
$GPGSV,3,2,10,05,54,028,44,29,42,261,40,42,42,228,42,21,35,060,42*70
$GPGSV,3,3,10,11,34,129,45,194,10,167,32*48
$BDGSV,5,1,18,30,67,239,45,03,54,199,37,08,51,329,38,01,47,137,35*67
$BDGSV,5,2,18,13,46,312,37,20,43,269,37,10,40,222,,02,38,236,35*61
$BDGSV,5,3,18,07,37,207,38,04,37,118,38,29,32,311,32,27,29,162,38*61
$BDGSV,5,4,18,05,16,254,,23,11,101,31,06,09,180,26,25,03,057,*66
$BDGSV,5,5,18,19,02,247,,09,01,188,*63
$GNRMC,115549.000,A,3018.4778,N,12004.6658,E,0.00,81.07,270326,,,D*48
$GNVTG,81.07,T,,M,0.00,N,0.01,K,D*19
$GNGGA,115550.000,3018.4778,N,12004.6658,E,2,21,0.67,-9.1,M,7.0,M,,*68
$GNGLL,3018.4778,N,12004.6658,E,115550.000,A,D*4B
$GPGSA,A,3,20,13,15,05,21,11,194,195,29,,,,1.00,0.67,0.75*08
$BDGSA,A,3,20,07,29,08,04,01,27,23,13,02,30,03,1.00,0.67,0.75*16
$GPGSV,3,1,10,20,82,357,44,13,78,045,42,195,65,123,43,15,64,257,47*45
$GPGSV,3,2,10,05,54,028,44,29,42,261,40,42,42,228,42,21,35,060,42*70
$GPGSV,3,3,10,11,34,129,45,194,10,167,32*48
$BDGSV,5,1,18,30,67,239,45,03,54,199,37,08,51,329,38,01,47,137,35*67
$BDGSV,5,2,18,13,46,312,37,20,43,269,37,10,40,222,,02,38,236,35*61
$BDGSV,5,3,18,07,37,207,37,04,37,118,38,29,32,311,32,27,29,162,38*6E
$BDGSV,5,4,18,05,16,254,,23,11,101,30,06,09,180,26,25,03,057,*67
$BDGSV,5,5,18,19,02,247,,09,01,188,*63
$GNRMC,115550.000,A,3018.4778,N,12004.6658,E,0.01,81.07,270326,,,D*41
$GNVTG,81.07,T,,M,0.01,N,0.02,K,D*1B
$GNGGA,115551.000,3018.4778,N,12004.6658,E,2,21,0.67,-9.1,M,7.0,M,,*69
$GNGLL,3018.4778,N,12004.6658,E,115551.000,A,D*4A
$GPGSA,A,3,20,13,15,05,21,11,194,195,29,,,,1.00,0.67,0.75*08
$BDGSA,A,3,20,07,29,08,04,01,27,23,13,02,30,03,1.00,0.67,0.75*16
$GPGSV,3,1,10,20,82,357,44,13,78,045,42,195,65,123,42,15,64,257,47*44
$GPGSV,3,2,10,05,54,028,44,29,42,261,40,42,42,228,42,21,35,060,42*70
$GPGSV,3,3,10,11,34,129,45,194,10,167,31*4B
$BDGSV,5,1,18,30,67,239,45,03,54,199,37,08,51,329,38,01,47,137,35*67
$BDGSV,5,2,18,13,46,312,37,20,43,269,37,10,40,222,,02,38,236,35*61
$BDGSV,5,3,18,07,37,207,37,04,37,118,38,29,32,311,31,27,29,162,38*6D
$BDGSV,5,4,18,05,16,254,,23,11,101,30,06,09,180,26,25,03,057,*67
$BDGSV,5,5,18,19,02,247,,09,01,188,*63
$GNRMC,115551.000,A,3018.4778,N,12004.6658,E,0.01,81.07,270326,,,D*40
$GNVTG,81.07,T,,M,0.01,N,0.01,K,D*18
$GNGGA,115552.000,3018.4778,N,12004.6658,E,2,21,0.67,-9.1,M,7.0,M,,*6A
$GNGLL,3018.4778,N,12004.6658,E,115552.000,A,D*49
$GPGSA,A,3,20,13,15,05,21,11,194,195,29,,,,1.00,0.67,0.75*08
$BDGSA,A,3,20,07,29,08,04,01,27,23,13,02,30,03,1.00,0.67,0.75*16
$GPGSV,3,1,10,20,82,357,44,13,78,045,42,195,65,123,42,15,64,257,47*44
$GPGSV,3,2,10,05,54,028,44,29,42,261,40,42,42,228,42,21,35,060,42*70
$GPGSV,3,3,10,11,34,129,44,194,10,167,31*4A
$BDGSV,5,1,18,30,67,239,45,03,54,199,37,08,51,329,38,01,47,137,35*67
$BDGSV,5,2,18,13,46,312,37,20,43,269,37,10,40,222,,02,38,236,35*61
$BDGSV,5,3,18,07,37,207,37,04,37,118,38,29,32,311,32,27,29,162,38*6E
$BDGSV,5,4,18,05,16,254,,23,11,101,30,06,09,180,26,25,03,057,*67
$BDGSV,5,5,18,19,02,247,,09,01,188,*63
$GNRMC,115552.000,A,3018.4778,N,12004.6658,E,0.01,81.07,270326,,,D*43
$GNVTG,81.07,T,,M,0.01,N,0.01,K,D*18
$GNGGA,115553.000,3018.4778,N,12004.6658,E,2,21,0.67,-9.1,M,7.0,M,,*6B
$GNGLL,3018.4778,N,12004.6658,E,115553.000,A,D*48
$GPGSA,A,3,20,13,15,05,21,11,194,195,29,,,,1.00,0.67,0.75*08
$BDGSA,A,3,20,07,29,08,04,01,27,23,13,02,30,03,1.00,0.67,0.75*16
$GPGSV,3,1,10,20,82,357,44,13,78,045,42,195,65,123,42,15,64,257,47*44
$GPGSV,3,2,10,05,54,028,44,29,42,261,41,42,42,228,42,21,35,060,42*71
$GPGSV,3,3,10,11,34,129,44,194,10,167,31*4A
$BDGSV,5,1,18,30,67,239,45,03,54,199,37,08,51,329,38,01,47,137,35*67
$BDGSV,5,2,18,13,46,312,37,20,43,269,37,10,40,222,,02,38,236,35*61
$BDGSV,5,3,18,07,37,207,37,04,37,118,38,29,32,311,32,27,29,162,38*6E
$BDGSV,5,4,18,05,16,254,,23,11,101,30,06,09,180,26,25,03,057,*67
$BDGSV,5,5,18,19,02,247,,09,01,188,*63
$GNRMC,115553.000,A,3018.4778,N,12004.6658,E,0.01,81.07,270326,,,D*42
$GNVTG,81.07,T,,M,0.01,N,0.03,K,D*1A
$GNGGA,115554.000,3018.4778,N,12004.6658,E,2,21,0.67,-9.1,M,7.0,M,,*6C
$GNGLL,3018.4778,N,12004.6658,E,115554.000,A,D*4F
$GPGSA,A,3,20,13,15,05,21,11,194,195,29,,,,1.00,0.67,0.75*08
$BDGSA,A,3,20,07,29,08,04,01,27,23,13,02,30,03,1.00,0.67,0.75*16
$GPGSV,3,1,10,20,82,357,44,13,78,045,42,195,65,123,42,15,64,257,47*44
$GPGSV,3,2,10,05,54,028,44,29,42,261,40,42,42,228,42,21,35,060,41*73
$GPGSV,3,3,10,11,34,129,44,194,10,167,31*4A
$BDGSV,5,1,18,30,67,239,45,03,54,199,37,08,51,329,38,01,47,137,36*64
$BDGSV,5,2,18,13,46,312,37,20,43,269,37,10,40,222,,02,38,236,36*62
$BDGSV,5,3,18,07,37,207,37,04,37,118,38,29,32,311,33,27,29,162,38*6F
$BDGSV,5,4,18,05,16,254,,23,11,101,30,06,09,180,27,25,03,057,*66
$BDGSV,5,5,18,19,02,247,,09,01,188,*63
$GNRMC,115554.000,A,3018.4778,N,12004.6658,E,0.01,81.07,270326,,,D*45
$GNVTG,81.07,T,,M,0.01,N,0.02,K,D*1B
$GNGGA,115555.000,3018.4778,N,12004.6658,E,2,21,0.67,-9.1,M,7.0,M,,*6D
$GNGLL,3018.4778,N,12004.6658,E,115555.000,A,D*4E
$GPGSA,A,3,20,13,15,05,21,11,194,195,29,,,,1.00,0.67,0.75*08
$BDGSA,A,3,20,07,29,08,04,01,27,23,13,02,30,03,1.00,0.67,0.75*16
$GPGSV,3,1,10,20,82,357,44,13,78,045,42,195,65,123,42,15,64,257,47*44
$GPGSV,3,2,10,05,54,028,44,29,42,261,40,42,42,228,42,21,35,060,41*73
$GPGSV,3,3,10,11,34,129,44,194,10,167,31*4A
$BDGSV,5,1,18,30,67,239,45,03,54,199,37,08,51,329,38,01,47,137,36*64
$BDGSV,5,2,18,13,46,312,37,20,43,269,37,10,40,222,,02,38,236,36*62
$BDGSV,5,3,18,07,37,207,37,04,37,118,38,29,32,311,33,27,29,162,38*6F
$BDGSV,5,4,18,05,16,254,,23,11,101,31,06,09,180,27,25,03,057,*67
$BDGSV,5,5,18,19,02,247,,09,01,188,*63
$GNRMC,115555.000,A,3018.4778,N,12004.6658,E,0.00,81.07,270326,,,D*45
$GNVTG,81.07,T,,M,0.00,N,0.01,K,D*19
$GNGGA,115556.000,3018.4778,N,12004.6658,E,2,21,0.67,-9.1,M,7.0,M,,*6E
$GNGLL,3018.4778,N,12004.6658,E,115556.000,A,D*4D
$GPGSA,A,3,20,13,15,05,21,11,194,195,29,,,,1.00,0.67,0.75*08
$BDGSA,A,3,20,07,29,08,04,01,27,23,13,02,30,03,1.00,0.67,0.75*16
$GPGSV,3,1,10,20,82,357,44,13,78,045,42,195,65,123,42,15,64,257,47*44
$GPGSV,3,2,10,05,54,028,44,29,42,261,40,42,42,228,42,21,35,060,41*73
$GPGSV,3,3,10,11,34,129,44,194,10,167,31*4A
$BDGSV,5,1,18,30,67,239,45,03,54,199,37,08,51,329,38,01,47,137,36*64
$BDGSV,5,2,18,13,46,312,37,20,43,269,37,10,40,222,,02,38,236,36*62
$BDGSV,5,3,18,07,37,207,37,04,37,118,38,29,32,311,33,27,29,162,38*6F
$BDGSV,5,4,18,05,16,254,,23,11,101,32,06,09,180,27,25,03,057,*64
$BDGSV,5,5,18,19,02,247,,09,01,188,*63
$GNRMC,115556.000,A,3018.4778,N,12004.6658,E,0.01,81.07,270326,,,D*47
$GNVTG,81.07,T,,M,0.01,N,0.02,K,D*1B
$GNGGA,115557.000,3018.4778,N,12004.6658,E,2,21,0.67,-9.1,M,7.0,M,,*6F
$GNGLL,3018.4778,N,12004.6658,E,115557.000,A,D*4C
$GPGSA,A,3,20,13,15,05,21,11,194,195,29,,,,1.00,0.67,0.75*08
$BDGSA,A,3,20,07,29,08,04,01,27,23,13,02,30,03,1.00,0.67,0.75*16
$GPGSV,3,1,10,20,82,357,44,13,78,045,42,195,65,123,42,15,64,257,47*44
$GPGSV,3,2,10,05,54,028,44,29,42,261,40,42,42,228,42,21,35,060,41*73
$GPGSV,3,3,10,11,34,129,44,194,10,167,31*4A
$BDGSV,5,1,18,30,67,239,45,03,54,199,37,08,51,329,38,01,47,137,36*64
$BDGSV,5,2,18,13,46,312,37,20,43,269,37,10,40,222,,02,38,236,36*62
$BDGSV,5,3,18,07,37,207,37,04,37,118,38,29,32,311,33,27,29,162,38*6F
$BDGSV,5,4,18,05,16,254,,23,11,101,33,06,09,180,27,25,03,057,*65
$BDGSV,5,5,18,19,02,247,,09,01,188,*63
$GNRMC,115557.000,A,3018.4778,N,12004.6658,E,0.00,81.07,270326,,,D*47
$GNVTG,81.07,T,,M,0.00,N,0.00,K,D*18
$GNGGA,115558.000,3018.4778,N,12004.6658,E,2,21,0.67,-9.1,M,7.0,M,,*60
$GNGLL,3018.4778,N,12004.6658,E,115558.000,A,D*43
$GPGSA,A,3,20,13,15,05,21,11,194,195,29,,,,1.00,0.67,0.75*08
$BDGSA,A,3,20,07,29,08,04,01,27,23,13,02,30,03,1.00,0.67,0.75*16
$GPGSV,3,1,10,20,82,357,44,13,78,045,42,195,65,123,42,15,64,257,47*44
$GPGSV,3,2,10,05,54,028,44,29,42,261,40,42,42,228,43,21,35,060,41*72
$GPGSV,3,3,10,11,34,129,44,194,10,167,31*4A
$BDGSV,5,1,18,30,67,239,45,03,54,199,37,08,51,329,38,01,47,137,36*64
$BDGSV,5,2,18,13,46,312,37,20,43,269,37,10,40,222,,02,38,236,36*62
$BDGSV,5,3,18,07,37,207,37,04,37,118,38,29,32,311,33,27,29,162,38*6F
$BDGSV,5,4,18,05,16,254,,23,11,101,33,06,09,180,27,25,03,057,*65
$BDGSV,5,5,18,19,02,247,,09,01,188,*63
$GNRMC,115558.000,A,3018.4778,N,12004.6658,E,0.01,81.07,270326,,,D*49
$GNVTG,81.07,T,,M,0.01,N,0.02,K,D*1B
$GNGGA,115559.000,3018.4778,N,12004.6658,E,2,21,0.67,-9.2,M,7.0,M,,*62
$GNGLL,3018.4778,N,12004.6658,E,115559.000,A,D*42
$GPGSA,A,3,20,13,15,05,21,11,194,195,29,,,,1.00,0.67,0.75*08
$BDGSA,A,3,20,07,29,08,04,01,27,23,13,02,30,03,1.00,0.67,0.75*16
$GPGSV,3,1,10,20,82,357,44,13,78,045,42,195,65,123,42,15,64,257,47*44
$GPGSV,3,2,10,05,54,028,43,29,42,261,40,42,42,228,43,21,35,060,41*75
$GPGSV,3,3,10,11,34,129,44,194,10,167,31*4A
$BDGSV,5,1,18,30,67,239,45,03,54,199,37,08,51,329,38,01,47,137,36*64
$BDGSV,5,2,18,13,46,312,37,20,43,269,37,10,40,222,,02,38,236,36*62
$BDGSV,5,3,18,07,37,207,37,04,37,118,38,29,32,311,33,27,29,162,38*6F
$BDGSV,5,4,18,05,16,254,,23,11,101,33,06,09,180,28,25,03,057,*6A
$BDGSV,5,5,18,19,02,247,,09,01,188,*63
$GNRMC,115559.000,A,3018.4778,N,12004.6658,E,0.01,81.07,270326,,,D*48
$GNVTG,81.07,T,,M,0.01,N,0.02,K,D*1B
$GNGGA,115600.000,3018.4778,N,12004.6658,E,2,21,0.67,-9.2,M,7.0,M,,*6D
$GNGLL,3018.4778,N,12004.6658,E,115600.000,A,D*4D
$GPGSA,A,3,20,13,15,05,21,11,194,195,29,,,,1.00,0.67,0.75*08
$BDGSA,A,3,20,07,29,08,04,01,27,23,13,02,30,03,1.00,0.67,0.75*16
$GPGSV,3,1,10,20,82,357,44,13,78,045,42,195,65,123,42,15,64,257,47*44
$GPGSV,3,2,10,05,54,028,43,29,42,261,40,42,42,228,43,21,35,060,41*75
$GPGSV,3,3,10,11,34,129,44,194,10,167,30*4B
$BDGSV,5,1,18,30,67,239,45,03,54,199,37,08,51,329,38,01,47,137,36*64
$BDGSV,5,2,18,13,46,312,37,20,43,269,37,10,40,222,,02,38,236,36*62
$BDGSV,5,3,18,07,37,207,37,04,37,118,38,29,32,311,33,27,29,162,38*6F
$BDGSV,5,4,18,05,16,254,,23,11,101,33,06,09,180,28,25,03,057,*6A
$BDGSV,5,5,18,19,02,247,,09,01,188,*63
$GNRMC,115600.000,A,3018.4778,N,12004.6658,E,0.00,81.07,270326,,,D*46
$GNVTG,81.07,T,,M,0.00,N,0.01,K,D*19
$GNGGA,115601.000,3018.4778,N,12004.6658,E,2,21,0.67,-9.1,M,7.0,M,,*6F
$GNGLL,3018.4778,N,12004.6658,E,115601.000,A,D*4C
$GPGSA,A,3,20,13,15,05,21,11,194,195,29,,,,1.00,0.67,0.75*08
$BDGSA,A,3,20,07,29,08,04,01,27,23,13,02,30,03,1.00,0.67,0.75*16
$GPGSV,3,1,11,20,82,357,44,13,78,045,42,195,65,123,43,15,64,257,47*44
