,30,01,47,137,34*64
$BDGSV,3,2,12,10,44,223,,07,40,207,31,20,39,261,45,02,38,236,36*6B
$BDGSV,3,3,12,04,37,118,33,29,27,315,28,05,16,254,,06,07,180,18*60
$BDRMC,114030.000,A,3018.4743,N,12004.6651,E,0.42,233.78,270326,,,A*7C
$BDVTG,233.78,T,,M,0.42,N,0.78,K,A*28
$BDGGA,114031.000,3018.4741,N,12004.6650,E,1,6,1.89,30.8,M,7.0,M,,*4F
$BDGLL,3018.4741,N,12004.6650,E,114031.000,A,A*40
$BDGSA,A,3,03,13,01,02,20,07,,,,,,,7.73,1.89,7.49*1D
$BDGSV,3,1,12,03,54,199,30,08,51,325,26,13,47,308,30,01,47,137,34*6C
$BDGSV,3,2,12,10,44,223,,07,40,207,31,20,39,261,45,02,38,236,36*6B
$BDGSV,3,3,12,04,37,118,33,29,27,315,29,05,16,254,,06,07,180,18*61
$BDRMC,114031.000,A,3018.4741,N,12004.6650,E,0.37,233.78,270326,,,A*7C
$BDVTG,233.78,T,,M,0.37,N,0.69,K,A*2A
$BDGGA,114032.000,3018.4741,N,12004.6650,E,1,6,1.89,30.6,M,7.0,M,,*42
$BDGLL,3018.4741,N,12004.6650,E,114032.000,A,A*43
$BDGSA,A,3,03,13,01,02,20,07,,,,,,,7.73,1.89,7.49*1D
$BDGSV,3,1,12,03,54,199,31,08,51,325,28,13,47,308,32,01,47,137,35*60
$BDGSV,3,2,12,10,43,223,,07,40,207,32,20,39,261,45,02,38,236,36*6F
$BDGSV,3,3,12,04,37,118,33,29,27,315,27,05,16,254,,06,07,180,18*6F
$BDRMC,114032.000,A,3018.4741,N,12004.6650,E,0.40,233.78,270326,,,A*7F
$BDVTG,233.78,T,,M,0.40,N,0.74,K,A*26
$BDGGA,114033.000,3018.4740,N,12004.6650,E,1,6,1.89,29.7,M,7.0,M,,*4B
$BDGLL,3018.4740,N,12004.6650,E,114033.000,A,A*43
$BDGSA,A,3,03,13,01,02,20,07,,,,,,,7.73,1.89,7.50*15
$BDGSV,3,1,12,03,54,199,32,08,51,325,35,13,47,308,33,01,47,137,36*6D
$BDGSV,3,2,12,10,43,223,,07,40,207,33,20,39,261,46,02,38,236,37*6C
$BDGSV,3,3,12,04,37,118,34,29,27,315,38,05,16,254,,06,07,180,18*66
$BDRMC,114033.000,A,3018.4740,N,12004.6650,E,0.41,233.78,270326,,,A*7E
$BDVTG,233.78,T,,M,0.41,N,0.75,K,A*26
$BDGGA,114034.000,3018.4741,N,12004.6651,E,1,6,1.89,27.5,M,7.0,M,,*40
$BDGLL,3018.4741,N,12004.6651,E,114034.000,A,A*44
$BDGSA,A,3,03,13,01,02,20,07,,,,,,,7.73,1.89,7.50*15
$BDGSV,3,1,12,03,54,199,30,08,51,325,25,13,47,308,23,01,47,137,35*6C
$BDGSV,3,2,12,10,43,223,,07,40,207,24,20,39,261,25,02,38,236,26*6F
$BDGSV,3,3,12,04,37,118,34,29,27,315,22,05,16,254,,06,07,180,19*6C
$BDRMC,114034.000,A,3018.4741,N,12004.6651,E,0.88,233.78,270326,,,A*7C
$BDVTG,233.78,T,,M,0.88,N,1.63,K,A*25
$BDGGA,114035.000,3018.4742,N,12004.6653,E,1,6,1.89,26.3,M,7.0,M,,*47
$BDGLL,3018.4742,N,12004.6653,E,114035.000,A,A*44
$BDGSA,A,3,03,13,01,02,20,07,,,,,,,7.73,1.89,7.49*1D
$BDGSV,3,1,12,03,54,199,30,08,51,325,27,13,47,308,25,01,47,137,35*68
$BDGSV,3,2,12,10,43,223,,07,40,207,24,20,39,261,25,02,38,236,25*6C
$BDGSV,3,3,12,04,37,118,35,29,27,315,23,05,16,254,,06,07,180,18*6D
$BDRMC,114035.000,A,3018.4742,N,12004.6653,E,1.11,233.78,270326,,,A*7D
$BDVTG,233.78,T,,M,1.11,N,2.05,K,A*27
$BDGGA,114036.000,3018.4743,N,12004.6656,E,1,6,1.89,25.0,M,7.0,M,,*40
$BDGLL,3018.4743,N,12004.6656,E,114036.000,A,A*43
$BDGSA,A,3,03,13,01,02,20,07,,,,,,,7.73,1.89,7.49*1D
$BDGSV,3,1,12,03,54,199,30,08,51,325,26,13,47,308,26,01,47,137,26*68
$BDGSV,3,2,12,10,43,223,,07,40,207,33,20,39,261,26,02,38,236,25*69
$BDGSV,3,3,12,04,37,118,27,29,27,315,34,05,16,254,,06,07,180,18*68
$BDRMC,114036.000,A,3018.4743,N,12004.6656,E,0.71,233.78,270326,,,A*7D
$BDVTG,233.78,T,,M,0.71,N,1.31,K,A*24
$BDGGA,114037.000,3018.4745,N,12004.6659,E,1,6,1.89,22.5,M,7.0,M,,*4A
$BDGLL,3018.4745,N,12004.6659,E,114037.000,A,A*4B
$BDGSA,A,3,03,13,01,02,20,07,,,,,,,7.73,1.89,7.50*15
$BDGSV,3,1,12,03,54,199,32,08,51,325,36,13,47,308,38,01,47,137,34*67
$BDGSV,3,2,12,10,43,223,,07,40,207,34,20,39,261,27,02,38,236,32*69
$BDGSV,3,3,12,04,37,118,26,29,27,315,44,05,16,254,,06,07,180,18*6E
$BDRMC,114037.000,A,3018.4745,N,12004.6659,E,0.21,233.78,270326,,,A*70
$BDVTG,233.78,T,,M,0.21,N,0.39,K,A*28
$BDGGA,114038.000,3018.4748,N,12004.6661,E,1,6,1.89,18.5,M,7.0,M,,*4A
$BDGLL,3018.4748,N,12004.6661,E,114038.000,A,A*42
$BDGSA,A,3,03,13,01,02,20,07,,,,,,,7.73,1.89,7.49*1D
$BDGSV,3,1,12,03,54,199,40,08,51,325,36,13,47,308,39,01,47,137,33*64
$BDGSV,3,2,12,10,43,223,,07,40,207,36,20,39,261,38,02,38,236,32*65
$BDGSV,3,3,12,04,37,118,26,29,27,315,43,05,16,254,,06,07,180,18*69
$BDRMC,114038.000,A,3018.4748,N,12004.6661,E,0.67,233.78,270326,,,A*7B
$BDVTG,233.78,T,,M,0.67,N,1.24,K,A*27
$BDGGA,114039.000,3018.4752,N,12004.6664,E,1,6,1.89,15.5,M,7.0,M,,*48
$BDGLL,3018.4752,N,12004.6664,E,114039.000,A,A*4D
$BDGSA,A,3,03,13,01,02,20,07,,,,,,,7.73,1.89,7.49*1D
$BDGSV,3,1,12,03,54,199,39,08,51,325,36,13,47,308,39,01,47,137,33*6A
$BDGSV,3,2,12,10,43,223,,07,40,207,37,20,39,261,38,02,38,236,32*64
$BDGSV,3,3,12,04,37,118,26,29,27,315,43,05,16,254,,06,07,180,18*69
$BDRMC,114039.000,A,3018.4752,N,12004.6664,E,0.73,233.78,270326,,,A*71
$BDVTG,233.78,T,,M,0.73,N,1.35,K,A*22
$BDGGA,114040.000,3018.4754,N,12004.6669,E,1,6,1.89,14.1,M,7.0,M,,*48
$BDGLL,3018.4754,N,12004.6669,E,114040.000,A,A*48
$BDGSA,A,3,03,13,01,02,20,07,,,,,,,7.73,1.89,7.49*1D
$BDGSV,3,1,12,03,54,199,39,08,51,325,36,13,47,308,39,01,47,137,33*6A
$BDGSV,3,2,12,10,43,223,,07,40,207,37,20,39,261,38,02,38,236,32*64
$BDGSV,3,3,12,04,37,118,26,29,27,315,43,05,16,254,,06,07,180,17*66
$BDRMC,114040.000,A,3018.4754,N,12004.6669,E,1.18,233.78,270326,,,A*78
$BDVTG,233.78,T,,M,1.18,N,2.18,K,A*22
$BDGGA,114041.000,3018.4756,N,12004.6673,E,1,6,1.89,11.3,M,7.0,M,,*47
$BDGLL,3018.4756,N,12004.6673,E,114041.000,A,A*40
$BDGSA,A,3,03,13,01,02,20,07,,,,,,,7.73,1.89,7.49*1D
$BDGSV,3,1,12,03,54,199,38,08,51,325,36,13,47,308,39,01,47,137,33*6B
$BDGSV,3,2,12,10,43,223,,07,40,207,37,20,39,261,39,02,38,236,34*63
$BDGSV,3,3,12,04,37,118,26,29,27,315,43,05,16,254,,06,07,180,16*67
$BDRMC,114041.000,A,3018.4756,N,12004.6673,E,0.96,233.78,270326,,,A*77
$BDVTG,233.78,T,,M,0.96,N,1.77,K,A*2F
$BDGGA,114042.000,3018.4758,N,12004.6674,E,1,6,1.89,8.7,M,7.0,M,,*71
$BDGLL,3018.4758,N,12004.6674,E,114042.000,A,A*4A
$BDGSA,A,3,03,13,01,02,20,07,,,,,,,7.73,1.89,7.49*1D
$BDGSV,4,1,13,03,54,199,38,08,51,325,36,13,47,308,39,01,47,137,33*6D
$BDGSV,4,2,13,10,43,223,,07,40,207,38,20,39,261,39,02,38,236,35*6B
$BDGSV,4,3,13,04,37,118,,29,27,315,43,05,16,254,,06,07,180,16*65
$BDGSV,4,4,13,25,02,062,*5B
$BDRMC,114042.000,A,3018.4758,N,12004.6674,E,0.64,233.78,270326,,,A*70
$BDVTG,233.78,T,,M,0.64,N,1.18,K,A*2B
$BDGGA,114043.000,3018.4760,N,12004.6674,E,1,6,1.89,6.7,M,7.0,M,,*75
$BDGLL,3018.4760,N,12004.6674,E,114043.000,A,A*40
$BDGSA,A,3,03,13,01,02,20,07,,,,,,,7.73,1.89,7.50*15
$BDGSV,4,1,13,03,54,199,38,08,51,325,36,13,47,308,39,01,47,137,33*6D
$BDGSV,4,2,13,10,43,223,,07,40,207,38,20,40,262,37,02,38,236,36*6B
$BDGSV,4,3,13,04,37,118,,29,27,315,43,05,16,254,,06,07,180,16*65
$BDGSV,4,4,13,25,02,062,*5B
$BDRMC,114043.000,A,3018.4760,N,12004.6674,E,0.64,233.78,270326,,,A*7A
$BDVTG,233.78,T,,M,0.64,N,1.18,K,A*2B
$BDGGA,114044.000,3018.4761,N,12004.6673,E,1,6,1.89,5.0,M,7.0,M,,*70
$BDGLL,3018.4761,N,12004.6673,E,114044.000,A,A*41
$BDGSA,A,3,03,13,01,02,20,07,,,,,,,7.73,1.89,7.49*1D
$BDGSV,4,1,13,03,54,199,38,08,51,325,36,13,47,308,39,01,47,137,33*6D
$BDGSV,4,2,13,10,43,223,,07,40,207,38,20,40,262,36,02,38,236,36*6A
$BDGSV,4,3,13,04,37,118,,29,27,315,43,05,16,254,,06,07,180,15*66
$BDGSV,4,4,13,25,02,062,*5B
$BDRMC,114044.000,A,3018.4761,N,12004.6673,E,0.17,233.78,270326,,,A*7F
$BDVTG,233.78,T,,M,0.17,N,0.31,K,A*25
$BDGGA,114045.000,3018.4765,N,12004.6675,E,1,7,1.53,-0.1,M,7.0,M,,*5C
$BDGLL,3018.4765,N,12004.6675,E,114045.000,A,A*42
$BDGSA,A,3,03,13,01,02,20,07,29,,,,,,4.88,1.53,4.63*1D
$BDGSV,4,1,13,03,54,199,38,08,51,325,37,13,47,308,39,01,47,137,33*6C
$BDGSV,4,2,13,10,43,223,,07,40,207,38,20,40,262,36,02,38,236,36*6A
$BDGSV,4,3,13,04,37,118,,29,27,315,43,05,16,254,,06,07,180,14*67
$BDGSV,4,4,13,25,02,062,*5B
$BDRMC,114045.000,A,3018.4765,N,12004.6675,E,0.17,233.78,270326,,,A*7C
$BDVTG,233.78,T,,M,0.17,N,0.31,K,A*25
$BDGGA,114046.000,3018.4768,N,12004.6678,E,1,7,1.53,-3.7,M,7.0,M,,*5A
$BDGLL,3018.4768,N,12004.6678,E,114046.000,A,A*41
$BDGSA,A,3,03,13,01,02,20,07,29,,,,,,4.88,1.53,4.63*1D
$BDGSV,4,1,13,03,54,199,38,08,51,325,37,13,47,308,39,01,47,137,33*6C
$BDGSV,4,2,13,10,43,223,,07,40,207,38,20,40,262,36,02,38,236,37*6B
$BDGSV,4,3,13,04,37,118,,29,27,315,43,05,16,254,,06,07,180,14*67
$BDGSV,4,4,13,25,02,062,*5B
$BDRMC,114046.000,A,3018.4768,N,12004.6678,E,0.43,233.78,270326,,,A*7E
$BDVTG,233.78,T,,M,0.43,N,0.80,K,A*2E
$BDGGA,114047.000,3018.4770,N,12004.6680,E,1,7,1.53,-5.2,M,7.0,M,,*56
$BDGLL,3018.4770,N,12004.6680,E,114047.000,A,A*4E
$BDGSA,A,3,03,13,01,02,20,07,29,,,,,,4.88,1.53,4.63*1D
$BDGSV,4,1,13,03,54,199,38,08,51,325,37,13,47,308,39,01,47,137,33*6C
$BDGSV,4,2,13,10,43,223,,07,40,207,38,20,40,262,35,02,38,236,37*68
$BDGSV,4,3,13,04,37,118,,29,27,315,43,05,16,254,,06,07,180,14*67
$BDGSV,4,4,13,25,02,062,*5B
$BDRMC,114047.000,A,3018.4770,N,12004.6680,E,0.76,233.78,270326,,,A*77
$BDVTG,233.78,T,,M,0.76,N,1.41,K,A*24
$BDGGA,114048.000,3018.4768,N,12004.6680,E,1,7,1.53,-5.1,M,7.0,M,,*53
$BDGLL,3018.4768,N,12004.6680,E,114048.000,A,A*48
$BDGSA,A,3,03,13,01,02,20,07,29,,,,,,4.88,1.53,4.64*1A
$BDGSV,4,1,14,03,54,199,38,08,51,325,37,13,47,308,39,01,47,137,33*6B
$BDGSV,4,2,14,10,43,223,,07,40,207,38,20,40,262,35,02,38,236,37*6F
$BDGSV,4,3,14,04,37,118,,27,35,160,,29,27,315,43,05,16,254,*69
$BDGSV,4,4,14,06,07,180,14,25,02,062,*61
$BDRMC,114048.000,A,3018.4768,N,12004.6680,E,1.89,233.78,270326,,,A*70
$BDVTG,233.78,T,,M,1.89,N,3.50,K,A*27
$BDGGA,114049.000,3018.4768,N,12004.6685,E,1,7,1.53,-5.7,M,7.0,M,,*51
$BDGLL,3018.4768,N,12004.6685,E,114049.000,A,A*4C
$BDGSA,A,3,03,13,01,02,20,07,29,,,,,,4.88,1.53,4.64*1A
$BDGSV,4,1,14,03,54,199,38,08,51,325,37,13,47,308,39,01,47,137,33*6B
$BDGSV,4,2,14,10,43,223,,07,40,207,38,20,40,262,35,02,38,236,37*6F
$BDGSV,4,3,14,04,37,118,,27,35,160,38,29,27,315,43,05,16,254,*62
$BDGSV,4,4,14,06,07,180,,25,02,062,*64
$BDRMC,114049.000,A,3018.4768,N,12004.6685,E,1.55,233.78,270326,,,A*75
$BDVTG,233.78,T,,M,1.55,N,2.88,K,A*22
$BDGGA,114050.000,3018.4768,N,12004.6689,E,1,7,1.53,-6.2,M,7.0,M,,*53
$BDGLL,3018.4768,N,12004.6689,E,114050.000,A,A*48
$BDGSA,A,3,03,13,01,02,20,07,29,,,,,,4.89,1.53,4.64*1B
$BDGSV,4,1,14,03,54,199,38,08,51,325,36,13,47,308,39,01,47,137,33*6A
$BDGSV,4,2,14,10,43,223,,07,40,207,38,20,40,262,34,02,38,236,37*6E
$BDGSV,4,3,14,04,37,118,,27,35,160,38,29,27,315,43,05,16,254,*62
$BDGSV,4,4,14,06,07,180,,25,02,062,*64
$BDRMC,114050.000,A,3018.4768,N,12004.6689,E,1.37,233.78,270326,,,A*75
$BDVTG,233.78,T,,M,1.37,N,2.53,K,A*20
$BDGGA,114051.000,3018.4768,N,12004.6689,E,1,7,1.53,-7.1,M,7.0,M,,*50
$BDGLL,3018.4768,N,12004.6689,E,114051.000,A,A*49
$BDGSA,A,3,03,13,01,02,20,07,29,,,,,,4.88,1.53,4.64*1A
$BDGSV,4,1,14,03,54,199,38,08,51,325,36,13,47,308,39,01,47,137,33*6A
$BDGSV,4,2,14,10,43,223,,07,40,207,38,20,40,262,35,02,38,236,37*6F
$BDGSV,4,3,14,04,37,118,,27,35,160,39,29,27,315,43,05,16,254,*63
$BDGSV,4,4,14,06,07,180,,25,02,062,*64
$BDRMC,114051.000,A,3018.4768,N,12004.6689,E,0.06,233.78,270326,,,A*77
$BDVTG,233.78,T,,M,0.06,N,0.11,K,A*27
$BDGGA,114052.000,3018.4769,N,12004.6690,E,1,7,1.43,-7.6,M,7.0,M,,*5C
$BDGLL,3018.4769,N,12004.6690,E,114052.000,A,A*43
$BDGSA,A,3,03,13,01,02,20,07,29,,,,,,1.73,1.43,0.98*1D
$BDGSV,4,1,14,03,54,199,38,08,51,325,36,13,47,308,39,01,47,137,33*6A
$BDGSV,4,2,14,10,43,223,,07,40,207,38,20,40,262,35,02,38,236,37*6F
$BDGSV,4,3,14,04,37,118,,27,35,160,39,29,27,315,42,05,16,254,*62
$BDGSV,4,4,14,06,07,180,,25,02,062,*64
$BDRMC,114052.000,A,3018.4769,N,12004.6690,E,0.05,233.78,270326,,,A*7E
$BDVTG,233.78,T,,M,0.05,N,0.10,K,A*25
$BDGGA,114053.000,3018.4769,N,12004.6691,E,1,7,1.43,-7.8,M,7.0,M,,*52
$BDGLL,3018.4769,N,12004.6691,E,114053.000,A,A*43
$BDGSA,A,3,03,13,01,02,20,07,29,,,,,,1.73,1.43,0.98*1D
$BDGSV,4,1,14,03,54,199,38,08,51,325,36,13,47,308,39,01,47,137,33*6A
$BDGSV,4,2,14,10,43,223,,07,40,207,38,20,40,262,34,02,38,236,37*6E
$BDGSV,4,3,14,04,37,118,,27,35,160,40,29,27,315,42,05,16,254,*6C
$BDGSV,4,4,14,06,07,180,,25,02,062,*64
$BDRMC,114053.000,A,3018.4769,N,12004.6691,E,0.09,233.78,270326,,,A*72
$BDVTG,233.78,T,,M,0.09,N,0.17,K,A*2E
$BDGGA,114054.000,3018.4769,N,12004.6693,E,1,7,1.43,-8.2,M,7.0,M,,*52
$BDGLL,3018.4769,N,12004.6693,E,114054.000,A,A*46
$BDGSA,A,3,03,13,01,02,20,07,29,,,,,,1.73,1.43,0.98*1D
$BDGSV,4,1,14,03,54,199,38,08,51,325,36,13,47,308,40,01,47,137,33*64
$BDGSV,4,2,14,10,43,223,,07,40,207,38,20,40,262,35,02,38,236,35*6D
$BDGSV,4,3,14,04,37,118,,27,35,160,38,29,28,314,42,05,16,254,*6D
$BDGSV,4,4,14,06,07,180,,25,02,062,*64
$BDRMC,114054.000,A,3018.4769,N,12004.6693,E,0.07,233.78,270326,,,A*79
$BDVTG,233.78,T,,M,0.07,N,0.13,K,A*24
$BDGGA,114055.000,3018.4769,N,12004.6693,E,1,7,1.43,-8.6,M,7.0,M,,*57
$BDGLL,3018.4769,N,12004.6693,E,114055.000,A,A*47
$BDGSA,A,3,03,13,01,02,20,07,29,,,,,,1.73,1.43,0.98*1D
$BDGSV,4,1,14,03,54,199,36,08,51,325,36,13,47,308,40,01,47,137,32*6B
$BDGSV,4,2,14,10,43,223,,07,40,207,31,20,40,262,37,02,38,236,35*66
$BDGSV,4,3,14,04,37,118,,27,35,160,41,29,28,314,42,05,16,254,*63
$BDGSV,4,4,14,06,07,180,,25,02,062,*64
$BDRMC,114055.000,A,3018.4769,N,12004.6693,E,0.04,233.78,270326,,,A*7B
$BDVTG,233.78,T,,M,0.04,N,0.07,K,A*22
$BDGGA,114056.000,3018.4768,N,12004.6695,E,1,7,1.43,-8.6,M,7.0,M,,*53
$BDGLL,3018.4768,N,12004.6695,E,114056.000,A,A*43
$BDGSA,A,3,03,13,01,02,20,07,29,,,,,,1.73,1.43,0.98*1D
$BDGSV,4,1,14,03,54,199,37,08,51,325,36,13,47,308,40,01,47,137,30*68
$BDGSV,4,2,14,10,43,223,,07,40,207,38,20,40,262,44,02,38,236,35*6B
$BDGSV,4,3,14,04,37,118,,27,35,160,40,29,28,314,43,05,16,254,*63
$BDGSV,4,4,14,06,07,180,,25,02,062,*64
$BDRMC,114056.000,A,3018.4768,N,12004.6695,E,0.06,233.78,270326,,,A*7D
$BDVTG,233.78,T,,M,0.06,N,0.11,K,A*27
$BDGGA,114057.000,3018.4768,N,12004.6697,E,1,7,1.43,-8.9,M,7.0,M,,*5F
$BDGLL,3018.4768,N,12004.6697,E,114057.000,A,A*40
$BDGSA,A,3,03,13,01,02,20,07,29,,,,,,1.73,1.43,0.98*1D
$BDGSV,4,1,15,30,69,256,,03,54,199,37,08,51,325,36,13,47,308,40*60
$BDGSV,4,2,15,01,47,137,31,10,43,223,,07,40,207,38,20,40,262,44*67
$BDGSV,4,3,15,02,38,236,35,04,37,118,,27,35,160,39,29,28,314,43*65
$BDGSV,4,4,15,05,16,254,,06,07,180,,25,02,062,*54
$BDRMC,114057.000,A,3018.4768,N,12004.6697,E,0.06,233.78,270326,,,A*7E
$BDVTG,233.78,T,,M,0.06,N,0.11,K,A*27
$BDGGA,114058.000,3018.4768,N,12004.6698,E,1,7,1.43,-9.1,M,7.0,M,,*56
$BDGLL,3018.4768,N,12004.6698,E,114058.000,A,A*40
$BDGSA,A,3,03,13,01,02,20,07,29,,,,,,1.73,1.43,0.98*1D
$BDGSV,4,1,15,30,69,256,43,03,54,199,37,08,51,325,36,13,47,308,40*67
$BDGSV,4,2,15,01,47,137,32,10,43,223,,07,40,207,38,20,40,262,44*64
$BDGSV,4,3,15,02,38,236,35,04,37,118,,27,35,160,39,29,28,314,43*65
$BDGSV,4,4,15,05,16,254,,06,07,180,,25,02,062,*54
$BDRMC,114058.000,A,3018.4768,N,12004.6698,E,0.04,233.78,270326,,,A*7C
$BDVTG,233.78,T,,M,0.04,N,0.07,K,A*22
$BDGGA,114059.000,3018.4768,N,12004.6699,E,1,7,1.43,-9.1,M,7.0,M,,*56
$BDGLL,3018.4768,N,12004.6699,E,114059.000,A,A*40
$BDGSA,A,3,03,13,01,02,20,07,29,,,,,,1.73,1.43,0.98*1D
$BDGSV,4,1,15,30,69,256,43,03,54,199,38,08,51,325,36,13,47,308,40*68
$BDGSV,4,2,15,01,47,137,32,10,43,223,,07,40,207,38,20,40,262,44*64
$BDGSV,4,3,15,02,38,236,36,04,37,118,,27,35,160,39,29,28,314,43*66
$BDGSV,4,4,15,05,16,254,,06,07,180,,25,02,062,*54
$BDRMC,114059.000,A,3018.4768,N,12004.6699,E,0.04,233.78,270326,,,A*7C
$BDVTG,233.78,T,,M,0.04,N,0.08,K,A*2D
$BDGGA,114100.000,3018.4768,N,12004.6700,E,1,7,1.43,-9.2,M,7.0,M,,*59
$BDGLL,3018.4768,N,12004.6700,E,114100.000,A,A*4C
$BDGSA,A,3,03,13,01,02,20,07,29,,,,,,1.73,1.43,0.98*1D
$BDGSV,4,1,15,30,69,256,43,03,54,199,38,08,51,325,36,13,47,308,40*68
$BDGSV,4,2,15,01,47,137,33,10,43,223,,07,40,207,38,20,40,262,44*65
$BDGSV,4,3,15,02,38,236,36,04,37,118,,27,35,160,39,29,28,314,43*66
$BDGSV,4,4,15,05,16,254,,06,07,180,,25,02,062,*54
$BDRMC,114100.000,A,3018.4768,N,12004.6700,E,0.05,233.78,270326,,,A*71
$BDVTG,233.78,T,,M,0.05,N,0.08,K,A*2C
$BDGGA,114101.000,3018.4768,N,12004.6701,E,1,7,1.43,-9.3,M,7.0,M,,*58
$BDGLL,3018.4768,N,12004.6701,E,114101.000,A,A*4C
$BDGSA,A,3,03,13,01,02,20,07,29,,,,,,1.73,1.43,0.98*1D
$BDGSV,4,1,15,30,69,256,43,03,54,199,38,08,51,325,36,13,47,308,40*68
$BDGSV,4,2,15,01,47,137,33,10,43,223,,07,40,207,38,20,40,262,44*65
$BDGSV,4,3,15,02,38,236,36,04,37,118,,27,35,160,39,29,28,314,43*66
$BDGSV,4,4,15,05,16,254,,06,07,180,,25,02,062,*54
$BDRMC,114101.000,A,3018.4768,N,12004.6701,E,0.03,233.78,270326,,,A*77
$BDVTG,233.78,T,,M,0.03,N,0.06,K,A*24
$BDGGA,114102.000,3018.4767,N,12004.6701,E,1,7,1.43,-9.3,M,7.0,M,,*54
$BDGLL,3018.4767,N,12004.6701,E,114102.000,A,A*40
$BDGSA,A,3,03,13,01,02,20,07,29,,,,,,1.73,1.43,0.98*1D
$BDGSV,4,1,15,30,69,256,44,03,54,199,37,08,51,325,36,13,47,308,40*60
$BDGSV,4,2,15,01,47,137,32,10,43,223,,07,40,207,38,20,40,262,44*64
$BDGSV,4,3,15,02,38,236,36,04,37,118,,27,35,160,29,29,28,314,43*67
$BDGSV,4,4,15,05,16,254,,06,07,180,,25,02,062,*54
$BDRMC,114102.000,A,3018.4767,N,12004.6701,E,0.02,233.78,270326,,,A*7A
$BDVTG,233.78,T,,M,0.02,N,0.03,K,A*20
$BDGGA,114103.000,3018.4767,N,12004.6702,E,1,7,1.43,-9.4,M,7.0,M,,*51
$BDGLL,3018.4767,N,12004.6702,E,114103.000,A,A*42
$BDGSA,A,3,03,13,01,02,20,07,29,,,,,,1.73,1.43,0.98*1D
$BDGSV,4,1,15,30,69,256,43,03,54,199,29,08,51,325,37,13,47,308,41*68
$BDGSV,4,2,15,01,47,137,33,10,43,223,,07,40,207,28,20,40,262,44*64
$BDGSV,4,3,15,02,38,236,35,04,37,118,,27,35,160,41,29,28,314,44*6D
$BDGSV,4,4,15,05,16,254,,06,07,180,,25,02,062,*54
$BDRMC,114103.000,A,3018.4767,N,12004.6702,E,0.03,233.78,270326,,,A*79
$BDVTG,233.78,T,,M,0.03,N,0.06,K,A*24
$BDGGA,114104.000,3018.4767,N,12004.6703,E,1,7,1.43,-9.5,M,7.0,M,,*56
$BDGLL,3018.4767,N,12004.6703,E,114104.000,A,A*44
$BDGSA,A,3,03,13,01,02,20,07,29,,,,,,1.73,1.43,0.98*1D
$BDGSV,4,1,15,30,69,256,42,03,54,199,28,08,51,325,35,13,47,308,40*6B
$BDGSV,4,2,15,01,47,137,32,10,43,223,,07,40,207,18,20,40,262,35*60
$BDGSV,4,3,15,02,38,236,25,04,37,118,,27,35,160,40,29,28,314,42*6B
$BDGSV,4,4,15,05,16,254,,06,07,180,,25,02,062,*54
$BDRMC,114104.000,A,3018.4767,N,12004.6703,E,0.04,233.78,270326,,,A*78
$BDVTG,233.78,T,,M,0.04,N,0.07,K,A*22
$BDGGA,114105.000,3018.4768,N,12004.6705,E,1,6,1.59,-9.5,M,7.0,M,,*54
$BDGLL,3018.4768,N,12004.6705,E,114105.000,A,A*4C
$BDGSA,A,3,03,13,01,20,07,29,,,,,,,1.87,1.59,0.98*1F
$BDGSV,4,1,15,30,69,256,41,03,54,199,35,08,51,325,36,13,47,308,41*66
$BDGSV,4,2,15,01,47,137,41,10,43,223,,07,40,207,19,20,40,262,42*65
$BDGSV,4,3,15,02,38,236,,04,37,118,39,27,35,160,48,29,28,314,41*6D
$BDGSV,4,4,15,05,16,254,,06,07,180,,25,02,062,*54
$BDRMC,114105.000,A,3018.4768,N,12004.6705,E,0.07,233.78,270326,,,A*73
$BDVTG,233.78,T,,M,0.07,N,0.13,K,A*24
$BDGGA,114106.000,3018.4768,N,12004.6707,E,1,6,1.59,-9.5,M,7.0,M,,*55
$BDGLL,3018.4768,N,12004.6707,E,114106.000,A,A*4D
$BDGSA,A,3,03,13,01,20,07,29,,,,,,,1.87,1.59,0.98*1F
$BDGSV,4,1,15,30,69,256,41,03,54,199,25,08,51,325,37,13,47,308,41*66
$BDGSV,4,2,15,01,47,137,39,10,43,223,,07,40,207,19,20,40,262,43*6B
$BDGSV,4,3,15,02,38,236,28,04,37,118,36,27,35,160,27,29,28,314,41*61
$BDGSV,4,4,15,05,16,254,,06,07,180,,25,02,062,*54
$BDRMC,114106.000,A,3018.4768,N,12004.6707,E,0.75,81.07,270326,,,A*44
$BDVTG,81.07,T,,M,0.75,N,1.40,K,A*15
$BDGGA,114107.000,3018.4768,N,12004.6709,E,1,7,1.43,-9.5,M,7.0,M,,*50
$BDGLL,3018.4768,N,12004.6709,E,114107.000,A,A*42
$BDGSA,A,3,03,13,01,02,20,07,29,,,,,,1.73,1.43,0.98*1D
$BDGSV,4,1,15,30,69,256,41,03,54,199,25,08,51,325,38,13,47,308,40*68
$BDGSV,4,2,15,01,47,137,38,10,43,223,,07,40,207,20,20,40,262,42*61
$BDGSV,4,3,15,02,38,236,27,04,37,118,38,27,35,160,38,29,28,314,39*61
$BDGSV,4,4,15,05,16,254,,06,07,180,,25,02,062,*54
$BDRMC,114107.000,A,3018.4768,N,12004.6709,E,0.24,81.07,270326,,,A*4F
$BDVTG,81.07,T,,M,0.24,N,0.44,K,A*14
$BDGGA,114108.000,3018.4768,N,12004.6710,E,1,7,1.43,-9.5,M,7.0,M,,*57
$BDGLL,3018.4768,N,12004.6710,E,114108.000,A,A*45
$BDGSA,A,3,03,13,01,02,20,07,29,,,,,,1.73,1.43,0.98*1D
$BDGSV,4,1,15,30,69,256,41,03,54,199,38,08,51,325,38,13,47,308,39*6A
$BDGSV,4,2,15,01,47,137,38,10,43,223,,07,40,207,38,20,40,262,41*6B
$BDGSV,4,3,15,02,38,236,28,04,37,118,39,27,35,160,39,29,28,314,38*6F
$BDGSV,4,4,15,05,16,254,,06,07,180,,25,02,062,*54
$BDRMC,114108.000,A,3018.4768,N,12004.6710,E,0.42,81.07,270326,,,A*48
$BDVTG,81.07,T,,M,0.42,N,0.78,K,A*1B
$BDGGA,114109.000,3018.4768,N,12004.6711,E,1,8,1.32,-9.5,M,7.0,M,,*5E
$BDGLL,3018.4768,N,12004.6711,E,114109.000,A,A*45
$BDGSA,A,3,03,13,01,02,20,07,29,08,,,,,1.64,1.32,0.97*1A
$BDGSV,4,1,15,30,69,256,42,03,54,199,38,08,51,325,38,13,47,308,39*69
$BDGSV,4,2,15,01,47,137,38,10,43,223,,07,40,207,38,20,40,262,41*6B
$BDGSV,4,3,15,02,38,236,29,04,37,118,39,27,35,160,39,29,28,314,38*6E
$BDGSV,4,4,15,05,16,254,,06,07,180,,25,02,062,*54
$BDRMC,114109.000,A,3018.4768,N,12004.6711,E,0.42,81.07,270326,,,A*48
$BDVTG,81.07,T,,M,0.42,N,0.78,K,A*1B
$BDGGA,114110.000,3018.4769,N,12004.6711,E,1,8,1.32,-9.5,M,7.0,M,,*57
$BDGLL,3018.4769,N,12004.6711,E,114110.000,A,A*4C
$BDGSA,A,3,03,13,01,02,20,07,29,08,,,,,1.64,1.32,0.97*1A
$BDGSV,4,1,15,30,69,256,43,03,54,199,38,08,51,325,38,13,47,308,39*68
$BDGSV,4,2,15,01,47,137,37,10,43,223,,07,40,207,38,20,40,262,41*64
$BDGSV,4,3,15,02,38,236,29,04,37,118,39,27,35,160,39,29,28,314,38*6E
$BDGSV,4,4,15,05,16,254,,06,07,180,,25,02,062,*54
$BDRMC,114110.000,A,3018.4769,N,12004.6711,E,0.29,81.07,270326,,,A*4C
$BDVTG,81.07,T,,M,0.29,N,0.54,K,A*18
$BDGGA,114111.000,3018.4768,N,12004.6712,E,1,8,1.32,-9.5,M,7.0,M,,*54
$BDGLL,3018.4768,N,12004.6712,E,114111.000,A,A*4F
$BDGSA,A,3,03,13,01,02,20,07,29,08,,,,,1.64,1.32,0.97*1A
$BDGSV,4,1,15,30,69,256,44,03,54,199,38,08,51,325,38,13,47,308,39*6F
$BDGSV,4,2,15,01,47,137,37,10,43,223,,07,40,207,38,20,40,262,40*65
$BDGSV,4,3,15,02,38,236,29,04,37,118,39,27,35,160,39,29,28,314,38*6E
$BDGSV,4,4,15,05,16,254,,06,07,180,,25,02,062,*54
$BDRMC,114111.000,A,3018.4768,N,12004.6712,E,0.34,81.07,270326,,,A*43
$BDVTG,81.07,T,,M,0.34,N,0.63,K,A*10
$BDGGA,114112.000,3018.4769,N,12004.6712,E,1,8,1.32,-9.5,M,7.0,M,,*56
$BDGLL,3018.4769,N,12004.6712,E,114112.000,A,A*4D
$BDGSA,A,3,03,13,01,02,20,07,29,08,,,,,1.64,1.32,0.97*1A
$BDGSV,4,1,15,30,69,256,44,03,54,199,38,08,51,325,38,13,47,308,37*61
$BDGSV,4,2,15,01,47,137,37,10,43,223,,07,40,207,37,20,40,262,39*64
$BDGSV,4,3,15,02,38,236,30,04,37,118,39,27,35,160,39,29,28,314,38*66
$BDGSV,4,4,15,05,16,254,,06,07,180,,25,02,062,*54
$BDRMC,114112.000,A,3018.4769,N,12004.6712,E,0.30,81.07,270326,,,A*45
$BDVTG,81.07,T,,M,0.30,N,0.56,K,A*12
$BDGGA,114113.000,3018.4769,N,12004.6713,E,1,8,1.32,-9.5,M,7.0,M,,*56
$BDGLL,3018.4769,N,12004.6713,E,114113.000,A,A*4D
$BDGSA,A,3,03,13,01,02,20,07,29,08,,,,,1.64,1.32,0.97*1A
$BDGSV,4,1,15,30,69,256,44,03,54,199,38,08,51,325,38,13,47,308,37*61
$BDGSV,4,2,15,01,47,137,37,10,43,223,,07,40,207,37,20,40,262,38*65
$BDGSV,4,3,15,02,38,236,30,04,37,118,39,27,35,160,39,29,28,314,31*6F
$BDGSV,4,4,15,05,16,254,,06,07,180,,25,02,062,*54
$BDRMC,114113.000,A,3018.4769,N,12004.6713,E,0.25,81.07,270326,,,A*41
$BDVTG,81.07,T,,M,0.25,N,0.46,K,A*17
$BDGGA,114114.000,3018.4769,N,12004.6713,E,1,8,1.32,-9.5,M,7.0,M,,*51
$BDGLL,3018.4769,N,12004.6713,E,114114.000,A,A*4A
$BDGSA,A,3,03,13,01,02,20,07,29,08,,,,,1.64,1.32,0.97*1A
$BDGSV,4,1,15,30,69,256,44,03,54,199,38,08,51,325,38,13,47,308,37*61
$BDGSV,4,2,15,01,47,137,37,10,43,223,,07,40,207,37,20,40,262,37*6A
$BDGSV,4,3,15,02,38,236,31,04,37,118,39,27,35,160,39,29,28,314,32*6D
$BDGSV,4,4,15,05,16,254,,06,07,180,,25,02,062,*54
$BDRMC,114114.000,A,3018.4769,N,12004.6713,E,0.25,81.07,270326,,,A*46
$BDVTG,81.07,T,,M,0.25,N,0.47,K,A*16
$BDGGA,114115.000,3018.4769,N,12004.6714,E,1,8,1.32,-9.5,M,7.0,M,,*57
$BDGLL,3018.4769,N,12004.6714,E,114115.000,A,A*4C
$BDGSA,A,3,03,13,01,02,20,07,29,08,,,,,1.64,1.32,0.97*1A
$BDGSV,4,1,15,30,69,256,44,03,54,199,38,08,51,325,38,13,47,308,37*61
$BDGSV,4,2,15,01,47,137,37,10,43,223,,07,40,207,37,20,40,262,37*6A
$BDGSV,4,3,15,02,38,236,31,04,37,118,39,27,35,160,39,29,28,314,32*6D
$BDGSV,4,4,15,05,16,254,,06,07,180,,25,02,062,*54
$BDRMC,114115.000,A,3018.4769,N,12004.6714,E,0.24,81.07,270326,,,A*41
$BDVTG,81.07,T,,M,0.24,N,0.44,K,A*14
$BDGGA,114116.000,3018.4769,N,12004.6714,E,1,8,1.32,-9.5,M,7.0,M,,*54
$BDGLL,3018.4769,N,12004.6714,E,114116.000,A,A*4F
$BDGSA,A,3,03,13,01,02,20,07,29,08,,,,,1.64,1.32,0.97*1A
$BDGSV,4,1,15,30,69,256,44,03,54,199,38,08,51,325,38,13,47,308,37*61
$BDGSV,4,2,15,01,47,137,37,10,43,223,,07,40,207,37,20,40,262,37*6A
$BDGSV,4,3,15,02,38,236,31,04,37,118,39,27,35,160,39,29,28,314,32*6D
$BDGSV,4,4,15,05,16,254,,06,07,180,,25,02,062,*54
$BDRMC,114116.000,A,3018.4769,N,12004.6714,E,0.16,81.07,270326,,,A*43
$BDVTG,81.07,T,,M,0.16,N,0.29,K,A*1E
$BDGGA,114117.000,3018.4769,N,12004.6714,E,1,8,1.32,-9.5,M,7.0,M,,*55
$BDGLL,3018.4769,N,12004.6714,E,114117.000,A,A*4E
$BDGSA,A,3,03,13,01,02,20,07,29,08,,,,,1.64,1.32,0.97*1A
$BDGSV,4,1,15,30,69,256,44,03,54,199,38,08,51,325,38,13,47,308,37*61
$BDGSV,4,2,15,01,47,137,37,10,43,223,,07,40,207,37,20,40,262,37*6A
$BDGSV,4,3,15,02,38,236,31,04,37,118,39,27,35,160,39,29,28,314,32*6D
$BDGSV,4,4,15,05,16,254,,06,07,180,,25,02,062,*54
$BDRMC,114117.000,A,3018.4769,N,12004.6714,E,0.14,81.07,270326,,,A*40
$BDVTG,81.07,T,,M,0.14,N,0.25,K,A*10
$BDGGA,114118.000,3018.4769,N,12004.6715,E,1,8,1.32,-9.5,M,7.0,M,,*5B
$BDGLL,3018.4769,N,12004.6715,E,114118.000,A,A*40
$BDGSA,A,3,03,13,01,02,20,07,29,08,,,,,1.64,1.32,0.97*1A
$BDGSV,4,1,15,30,69,256,44,03,54,199,38,08,51,325,38,13,47,308,37*61
$BDGSV,4,2,15,01,47,137,37,10,43,223,,07,40,207,38,20,40,262,37*65
$BDGSV,4,3,15,02,38,236,31,04,37,118,39,27,35,160,39,29,28,314,32*6D
$BDGSV,4,4,15,05,16,254,,06,07,180,,25,02,062,*54
$BDRMC,114118.000,A,3018.4769,N,12004.6715,E,0.19,81.07,270326,,,A*43
$BDVTG,81.07,T,,M,0.19,N,0.35,K,A*1C
$BDGGA,114119.000,3018.4769,N,12004.6715,E,1,8,1.32,-9.5,M,7.0,M,,*5A
$BDGLL,3018.4769,N,12004.6715,E,114119.000,A,A*41
$BDGSA,A,3,03,13,01,02,20,07,29,08,,,,,1.64,1.32,0.97*1A
$BDGSV,4,1,15,30,69,256,44,03,54,199,38,08,51,325,38,13,47,308,37*61
$BDGSV,4,2,15,01,47,137,37,10,43,223,,07,40,207,38,20,40,262,36*64
$BDGSV,4,3,15,02,38,236,31,04,37,118,39,27,35,160,39,29,28,314,32*6D
$BDGSV,4,4,15,05,16,254,,06,07,180,,25,02,062,*54
$BDRMC,114119.000,A,3018.4769,N,12004.6715,E,0.07,81.07,270326,,,A*4D
$BDVTG,81.07,T,,M,0.07,N,0.12,K,A*16
$BDGGA,114120.000,3018.4769,N,12004.6715,E,1,8,1.32,-9.5,M,7.0,M,,*50
$BDGLL,3018.4769,N,12004.6715,E,114120.000,A,A*4B
$BDGSA,A,3,03,13,01,02,20,07,29,08,,,,,1.64,1.32,0.97*1A
$BDGSV,4,1,15,30,69,256,44,03,54,199,39,08,51,325,38,13,47,308,37*60
$BDGSV,4,2,15,01,47,137,37,10,43,223,,07,40,207,38,20,40,262,36*64
$BDGSV,4,3,15,02,38,236,31,04,37,118,39,27,35,160,39,29,28,314,32*6D
$BDGSV,4,4,15,05,16,254,,06,07,180,,25,02,062,*54
$BDRMC,114120.000,A,3018.4769,N,12004.6715,E,0.04,81.07,270326,,,A*44
$BDVTG,81.07,T,,M,0.04,N,0.07,K,A*11
$BDGGA,114121.000,3018.4769,N,12004.6715,E,1,8,1.32,-9.5,M,7.0,M,,*51
$BDGLL,3018.4769,N,12004.6715,E,114121.000,A,A*4A
$BDGSA,A,3,03,13,01,02,20,07,29,08,,,,,1.64,1.32,0.97*1A
$BDGSV,4,1,15,30,69,256,44,03,54,199,39,08,51,325,38,13,47,308,37*60
$BDGSV,4,2,15,01,47,137,37,10,43,223,,07,40,207,38,20,40,262,36*64
$BDGSV,4,3,15,02,38,236,31,04,37,118,39,27,35,160,39,29,28,314,32*6D
$BDGSV,4,4,15,05,16,254,,06,07,180,,25,02,062,*54
$BDRMC,114121.000,A,3018.4769,N,12004.6715,E,0.05,81.07,270326,,,A*44
$BDVTG,81.07,T,,M,0.05,N,0.09,K,A*1E
$BDGGA,114122.000,3018.4769,N,12004.6715,E,1,8,1.32,-9.5,M,7.0,M,,*52
$BDGLL,3018.4769,N,12004.6715,E,114122.000,A,A*49
$BDGSA,A,3,03,13,01,02,20,07,29,08,,,,,1.64,1.32,0.97*1A
$BDGSV,4,1,15,30,69,256,44,03,54,199,38,08,51,325,38,13,47,308,37*61
$BDGSV,4,2,15,01,47,137,37,10,43,223,,07,40,207,38,20,40,262,36*64
$BDGSV,4,3,15,02,38,236,31,04,37,118,39,27,35,160,39,29,28,314,32*6D
$BDGSV,4,4,15,05,16,254,,06,07,180,,25,02,062,*54
$BDRMC,114122.000,A,3018.4769,N,12004.6715,E,0.03,81.07,270326,,,A*41
$BDVTG,81.07,T,,M,0.03,N,0.06,K,A*17
$BDGGA,114123.000,3018.4769,N,12004.6715,E,1,8,1.32,-9.5,M,7.0,M,,*53
$BDGLL,3018.4769,N,12004.6715,E,114123.000,A,A*48
$BDGSA,A,3,03,13,01,02,20,07,29,08,,,,,1.64,1.32,0.97*1A
$BDGSV,4,1,15,30,69,256,44,03,54,199,38,08,51,325,38,13,47,308,37*61
$BDGSV,4,2,15,01,47,137,37,10,43,223,,07,40,207,38,20,40,262,36*64
$BDGSV,4,3,15,02,38,236,31,04,37,118,39,27,35,160,39,29,28,314,32*6D
$BDGSV,4,4,15,05,16,254,,06,07,180,,25,02,062,*54
$BDRMC,114123.000,A,3018.4769,N,12004.6715,E,0.03,81.07,270326,,,A*40
$BDVTG,81.07,T,,M,0.03,N,0.06,K,A*17
$BDGGA,114124.000,3018.4770,N,12004.6715,E,1,8,1.32,-9.5,M,7.0,M,,*5C
$BDGLL,3018.4770,N,12004.6715,E,114124.000,A,A*47
$BDGSA,A,3,03,13,01,02,20,07,29,08,,,,,1.64,1.32,0.97*1A
$BDGSV,4,1,15,30,69,256,44,03,54,199,38,08,51,325,38,13,47,308,37*61
$BDGSV,4,2,15,01,47,137,37,10,43,223,,07,40,207,38,20,40,262,36*64
$BDGSV,4,3,15,02,38,236,31,04,37,118,39,27,35,160,39,29,28,314,32*6D
$BDGSV,4,4,15,05,16,254,,06,07,180,,25,02,062,*54
$BDRMC,114124.000,A,3018.4770,N,12004.6715,E,0.05,81.07,270326,,,A*49
$BDVTG,81.07,T,,M,0.05,N,0.10,K,A*16
$BDGGA,114125.000,3018.4770,N,12004.6715,E,1,8,1.32,-9.5,M,7.0,M,,*5D
$BDGLL,3018.4770,N,12004.6715,E,114125.000,A,A*46
$BDGSA,A,3,03,13,01,02,20,07,29,08,,,,,1.64,1.32,0.97*1A
$BDGSV,4,1,15,30,69,256,44,03,54,199,38,08,51,325,38,13,47,308,37*61
$BDGSV,4,2,15,01,47,137,37,10,43,223,,07,40,207,38,20,40,262,36*64
$BDGSV,4,3,15,02,38,236,31,04,37,118,39,27,35,160,39,29,28,314,32*6D
$BDGSV,4,4,15,05,16,254,,06,07,180,,25,02,062,*54
$BDRMC,114125.000,A,3018.4770,N,12004.6715,E,0.04,81.07,270326,,,A*49
$BDVTG,81.07,T,,M,0.04,N,0.08,K,A*1E
$BDGGA,114126.000,3018.4770,N,12004.6715,E,1,8,1.32,-9.5,M,7.0,M,,*5E
$BDGLL,3018.4770,N,12004.6715,E,114126.000,A,A*45
$BDGSA,A,3,03,13,01,02,20,07,29,08,,,,,1.64,1.32,0.97*1A
$BDGSV,4,1,15,30,69,256,44,03,54,199,39,08,51,325,38,13,47,308,37*60
$BDGSV,4,2,15,01,47,137,37,10,43,223,,07,40,207,38,20,40,262,36*64
$BDGSV,4,3,15,02,38,236,31,04,37,118,39,27,35,160,39,29,28,314,32*6D
$BDGSV,4,4,15,05,16,254,,06,07,180,,25,02,062,*54
$BDRMC,114126.000,A,3018.4770,N,12004.6715,E,0.04,81.07,270326,,,A*4A
$BDVTG,81.07,T,,M,0.04,N,0.07,K,A*11
$BDGGA,114127.000,3018.4770,N,12004.6715,E,1,8,1.32,-9.5,M,7.0,M,,*5F
$BDGLL,3018.4770,N,12004.6715,E,114127.000,A,A*44
$BDGSA,A,3,03,13,01,02,20,07,29,08,,,,,1.64,1.32,0.97*1A
$BDGSV,4,1,15,30,69,256,44,03,54,199,39,08,51,325,38,13,47,308,37*60
$BDGSV,4,2,15,01,47,137,37,10,43,223,,07,40,207,38,20,40,262,36*64
$BDGSV,4,3,15,02,38,236,31,04,37,118,39,27,35,160,39,29,28,314,32*6D
$BDGSV,4,4,15,05,16,254,,06,07,180,,25,02,062,*54
$BDRMC,114127.000,A,3018.4770,N,12004.6715,E,0.06,81.07,270326,,,A*49
$BDVTG,81.07,T,,M,0.06,N,0.12,K,A*17
$BDGGA,114128.000,3018.4770,N,12004.6715,E,1,8,1.32,-9.5,M,7.0,M,,*50
$BDGLL,3018.4770,N,12004.6715,E,114128.000,A,A*4B
$BDGSA,A,3,03,13,01,02,20,07,29,08,,,,,1.64,1.32,0.97*1A
$BDGSV,4,1,15,30,69,256,44,03,54,199,38,08,51,325,38,13,47,308,37*61
$BDGSV,4,2,15,01,47,137,37,10,43,223,,07,40,207,38,20,40,262,36*64
$BDGSV,4,3,15,02,38,236,31,04,37,118,39,27,35,160,39,29,28,314,32*6D
$BDGSV,4,4,15,05,16,254,,06,07,180,,25,02,062,*54
$BDRMC,114128.000,A,3018.4770,N,12004.6715,E,0.02,81.07,270326,,,A*42
$BDVTG,81.07,T,,M,0.02,N,0.03,K,A*13
$BDGGA,114129.000,3018.4770,N,12004.6715,E,1,8,1.32,-9.5,M,7.0,M,,*51
$BDGLL,3018.4770,N,12004.6715,E,114129.000,A,A*4A
$BDGSA,A,3,03,13,01,02,20,07,29,08,,,,,1.64,1.32,0.97*1A
$BDGSV,4,1,15,30,69,256,44,03,54,199,38,08,51,325,38,13,47,308,37*61
$BDGSV,4,2,15,01,47,137,38,10,43,223,,07,40,207,38,20,40,262,36*6B
$BDGSV,4,3,15,02,38,236,31,04,37,118,39,27,35,160,39,29,28,314,32*6D
$BDGSV,4,4,15,05,16,254,,06,07,180,,25,02,062,*54
$BDRMC,114129.000,A,3018.4770,N,12004.6715,E,0.01,81.07,270326,,,A*40
$BDVTG,81.07,T,,M,0.01,N,0.03,K,A*10
$BDGGA,114130.000,3018.4770,N,12004.6715,E,1,8,1.32,-9.5,M,7.0,M,,*59
$BDGLL,3018.4770,N,12004.6715,E,114130.000,A,A*42
$BDGSA,A,3,03,13,01,02,20,07,29,08,,,,,1.64,1.32,0.97*1A
$BDGSV,4,1,15,30,69,256,44,03,54,199,38,08,51,325,38,13,47,308,37*61
$BDGSV,4,2,15,01,47,137,38,10,43,223,,07,40,207,38,20,40,262,36*6B
$BDGSV,4,3,15,02,38,236,31,04,37,118,39,27,35,160,38,29,28,314,32*6C
$BDGSV,4,4,15,05,16,254,,06,07,180,,25,02,062,*54
$BDRMC,114130.000,A,3018.4770,N,12004.6715,E,0.03,81.07,270326,,,A*4A
$BDVTG,81.07,T,,M,0.03,N,0.05,K,A*14
$BDGGA,114131.000,3018.4770,N,12004.6715,E,1,8,1.32,-9.5,M,7.0,M,,*58
$BDGLL,3018.4770,N,12004.6715,E,114131.000,A,A*43
$BDGSA,A,3,03,13,01,02,20,07,29,08,,,,,1.64,1.32,0.97*1A
$BDGSV,4,1,15,30,69,256,44,03,54,199,38,08,51,325,38,13,47,308,37*61
$BDGSV,4,2,15,01,47,137,37,10,43,223,,07,40,207,38,20,40,262,36*64
$BDGSV,4,3,15,02,38,236,31,04,37,118,39,27,35,160,38,29,28,314,32*6C
$BDGSV,4,4,15,05,16,254,,06,07,180,,25,02,062,*54
$BDRMC,114131.000,A,3018.4770,N,12004.6715,E,0.02,81.07,270326,,,A*4A
$BDVTG,81.07,T,,M,0.02,N,0.05,K,A*15
$BDGGA,114132.000,3018.4770,N,12004.6715,E,1,8,1.32,-9.5,M,7.0,M,,*5B
$BDGLL,3018.4770,N,12004.6715,E,114132.000,A,A*40
$BDGSA,A,3,03,13,01,02,20,07,29,08,,,,,1.64,1.32,0.97*1A
$BDGSV,4,1,15,30,69,256,44,03,54,199,38,08,51,325,38,13,47,308,37*61
$BDGSV,4,2,15,01,47,137,38,10,43,223,,07,40,207,38,20,40,262,36*6B
$BDGSV,4,3,15,02,38,236,31,04,37,118,39,27,35,160,38,29,28,314,32*6C
$BDGSV,4,4,15,05,16,254,,06,07,180,,25,02,062,*54
$BDRMC,114132.000,A,3018.4770,N,12004.6715,E,0.01,81.07,270326,,,A*4A
$BDVTG,81.07,T,,M,0.01,N,0.02,K,A*11
$BDGGA,114133.000,3018.4770,N,12004.6715,E,1,10,1.08,-9.5,M,7.0,M,,*6A
$BDGLL,3018.4770,N,12004.6715,E,114133.000,A,A*41
$BDGSA,A,3,03,30,13,01,02,20,07,29,08,04,,,1.42,1.08,0.93*14
$BDGSV,4,1,15,30,69,256,44,03,54,199,38,08,51,325,38,13,47,308,37*61
$BDGSV,4,2,15,01,47,137,38,10,43,223,,07,40,207,38,20,40,262,36*6B
$BDGSV,4,3,15,02,38,236,31,04,37,118,39,27,35,160,38,29,28,314,32*6C
$BDGSV,4,4,15,05,16,254,,06,07,180,,25,02,062,*54
$BDRMC,114133.000,A,3018.4770,N,12004.6715,E,0.02,81.07,270326,,,A*48
$BDVTG,81.07,T,,M,0.02,N,0.04,K,A*14
$BDGGA,114134.000,3018.4770,N,12004.6715,E,1,10,1.08,-9.5,M,7.0,M,,*6D
$BDGLL,3018.4770,N,12004.6715,E,114134.000,A,A*46
$BDGSA,A,3,03,30,13,01,02,20,07,29,08,04,,,1.42,1.08,0.93*14
$BDGSV,4,1,15,30,69,256,44,03,54,199,38,08,51,325,38,13,47,308,37*61
$BDGSV,4,2,15,01,47,137,37,10,43,223,,07,40,207,38,20,40,262,36*64
$BDGSV,4,3,15,02,38,236,31,04,37,118,39,27,35,160,38,29,28,314,32*6C
$BDGSV,4,4,15,05,16,254,,06,07,180,,25,02,062,*54
$BDRMC,114134.000,A,3018.4770,N,12004.6715,E,0.01,81.07,270326,,,A*4C
$BDVTG,81.07,T,,M,0.01,N,0.02,K,A*11
$BDGGA,114135.000,3018.4770,N,12004.6715,E,1,10,1.08,-9.5,M,7.0,M,,*6C
$BDGLL,3018.4770,N,12004.6715,E,114135.000,A,A*47
$BDGSA,A,3,03,30,13,01,02,20,07,29,08,04,,,1.42,1.08,0.93*14
$BDGSV,4,1,15,30,69,256,44,03,54,199,39,08,51,325,38,13,47,308,37*60
$BDGSV,4,2,15,01,47,137,37,10,43,223,,07,40,207,38,20,40,262,36*64
$BDGSV,4,3,15,02,38,236,31,04,37,118,39,27,35,160,38,29,28,314,31*6F
$BDGSV,4,4,15,05,16,254,,06,07,180,,25,02,062,*54
$BDRMC,114135.000,A,3018.4770,N,12004.6715,E,0.03,81.07,270326,,,A*4F
$BDVTG,81.07,T,,M,0.03,N,0.05,K,A*14
$BDGGA,114136.000,3018.4770,N,12004.6715,E,1,10,1.08,-9.5,M,7.0,M,,*6F
$BDGLL,3018.4770,N,12004.6715,E,114136.000,A,A*44
$BDGSA,A,3,03,30,13,01,02,20,07,29,08,04,,,1.42,1.08,0.93*14
$BDGSV,4,1,15,30,69,256,44,03,54,199,39,08,51,325,38,13,47,308,37*60
$BDGSV,4,2,15,01,47,137,37,10,43,223,,07,40,207,38,20,40,262,36*64
$BDGSV,4,3,15,02,38,236,31,04,37,118,39,27,35,160,38,29,28,314,31*6F
$BDGSV,4,4,15,05,16,254,,06,07,180,,25,02,062,*54
$BDRMC,114136.000,A,3018.4770,N,12004.6715,E,0.08,81.07,270326,,,A*47
$BDVTG,81.07,T,,M,0.08,N,0.14,K,A*1F
$BDGGA,114137.000,3018.4770,N,12004.6715,E,1,10,1.08,-9.5,M,7.0,M,,*6E
$BDGLL,3018.4770,N,12004.6715,E,114137.000,A,A*45
$BDGSA,A,3,03,30,13,01,02,20,07,29,08,04,,,1.42,1.08,0.93*14
$BDGSV,4,1,15,30,69,256,44,03,54,199,39,08,51,325,38,13,47,308,37*60
$BDGSV,4,2,15,01,47,137,37,10,43,223,,07,40,207,38,20,40,262,36*64
$BDGSV,4,3,15,02,38,236,31,04,37,118,39,27,35,160,38,29,28,314,31*6F
$BDGSV,4,4,15,05,16,254,,06,07,180,,25,02,062,*54
$BDRMC,114137.000,A,3018.4770,N,12004.6715,E,0.03,81.07,270326,,,A*4D
$BDVTG,81.07,T,,M,0.03,N,0.06,K,A*17
$BDGGA,114138.000,3018.4770,N,12004.6715,E,1,10,1.08,-9.5,M,7.0,M,,*61
$BDGLL,3018.4770,N,12004.6715,E,114138.000,A,A*4A
$BDGSA,A,3,03,30,13,01,02,20,07,29,08,04,,,1.42,1.08,0.93*14
$BDGSV,4,1,15,30,69,256,44,03,54,199,39,08,51,325,38,13,47,308,37*60
$BDGSV,4,2,15,01,47,137,37,10,43,223,,07,40,207,38,20,40,262,36*64
$BDGSV,4,3,15,02,38,236,31,04,37,118,39,27,35,160,38,29,28,314,31*6F
$BDGSV,4,4,15,05,16,254,,06,07,180,,25,02,062,*54
$BDRMC,114138.000,A,3018.4770,N,12004.6715,E,0.00,81.07,270326,,,A*41
$BDVTG,81.07,T,,M,0.00,N,0.01,K,A*13
$BDGGA,114139.000,3018.4770,N,12004.6715,E,1,11,1.04,-9.5,M,7.0,M,,*6D
$BDGLL,3018.4770,N,12004.6715,E,114139.000,A,A*4B
$BDGSA,A,3,03,30,13,27,01,02,20,07,29,08,04,,1.40,1.04,0.92*1E
$BDGSV,4,1,15,30,69,256,44,03,54,199,38,08,51,325,38,13,47,308,37*61
$BDGSV,4,2,15,01,47,137,37,10,43,223,,07,40,207,38,20,40,262,36*64
$BDGSV,4,3,15,02,38,236,31,04,37,118,39,27,35,160,38,29,28,314,31*6F
$BDGSV,4,4,15,05,16,254,,06,07,180,,25,02,062,*54
$BDRMC,114139.000,A,3018.4770,N,12004.6715,E,0.06,81.07,270326,,,A*46
$BDVTG,81.07,T,,M,0.06,N,0.10,K,A*15
$BDGGA,114140.000,3018.4770,N,12004.6715,E,1,11,1.04,-9.5,M,7.0,M,,*63
$BDGLL,3018.4770,N,12004.6715,E,114140.000,A,A*45
$BDGSA,A,3,03,30,13,27,01,02,20,07,29,08,04,,1.40,1.04,0.92*1E
$BDGSV,4,1,15,30,69,256,44,03,54,199,38,08,51,325,38,13,47,308,37*61
$BDGSV,4,2,15,01,47,137,37,10,43,223,,07,40,207,38,20,40,262,36*64
$BDGSV,4,3,15,02,38,236,31,04,37,118,39,27,35,160,38,29,28,314,31*6F
$BDGSV,4,4,15,05,16,254,,06,07,180,,25,02,062,*54
$BDRMC,114140.000,A,3018.4770,N,12004.6715,E,0.08,81.07,270326,,,A*46
$BDVTG,81.07,T,,M,0.08,N,0.15,K,A*1E
$BDGGA,114141.000,3018.4770,N,12004.6715,E,1,11,1.04,-9.5,M,7.0,M,,*62
$BDGLL,3018.4770,N,12004.6715,E,114141.000,A,A*44
$BDGSA,A,3,03,30,13,27,01,02,20,07,29,08,04,,1.40,1.04,0.92*1E
$BDGSV,4,1,15,30,69,256,44,03,54,199,38,08,51,325,38,13,47,308,37*61
$BDGSV,4,2,15,01,47,137,37,10,43,223,,07,40,207,38,20,40,262,36*64
$BDGSV,4,3,15,02,38,236,31,04,37,118,39,27,35,160,38,29,28,314,31*6F
$BDGSV,4,4,15,05,16,254,,06,07,180,,25,02,062,*54
$BDRMC,114141.000,A,3018.4770,N,12004.6715,E,0.04,81.07,270326,,,A*4B
$BDVTG,81.07,T,,M,0.04,N,0.08,K,A*1E
$BDGGA,114142.000,3018.4770,N,12004.6715,E,1,11,1.04,-9.5,M,7.0,M,,*61
$BDGLL,3018.4770,N,12004.6715,E,114142.000,A,A*47
$BDGSA,A,3,03,30,13,27,01,02,20,07,29,08,04,,1.40,1.04,0.93*1F
$BDGSV,4,1,15,30,69,256,44,03,54,199,38,08,51,325,38,13,47,308,37*61
$BDGSV,4,2,15,01,47,137,37,10,43,223,,07,40,207,38,20,40,262,36*64
$BDGSV,4,3,15,02,38,236,31,04,37,118,39,27,35,160,38,29,28,314,31*6F
$BDGSV,4,4,15,05,16,254,,06,07,180,,25,02,062,*54
$BDRMC,114142.000,A,3018.4770,N,12004.6715,E,0.07,81.07,270326,,,A*4B
$BDVTG,81.07,T,,M,0.07,N,0.14,K,A*10
$BDGGA,114143.000,3018.4770,N,12004.6715,E,1,11,1.04,-9.5,M,7.0,M,,*60
$BDGLL,3018.4770,N,12004.6715,E,114143.000,A,A*46
$BDGSA,A,3,03,30,13,27,01,02,20,07,29,08,04,,1.40,1.04,0.92*1E
$BDGSV,4,1,15,30,69,256,44,03,54,199,38,08,51,325,38,13,47,308,37*61
$BDGSV,4,2,15,01,47,137,37,10,43,223,,07,40,207,38,20,40,262,36*64
$BDGSV,4,3,15,02,38,236,31,04,37,118,39,27,35,160,38,29,28,314,30*6E
$BDGSV,4,4,15,05,16,254,,06,07,180,,25,02,062,*54
$BDRMC,114143.000,A,3018.4770,N,12004.6715,E,0.09,81.07,270326,,,A*44
$BDVTG,81.07,T,,M,0.09,N,0.16,K,A*1C
$BDGGA,114144.000,3018.4770,N,12004.6715,E,1,11,1.04,-9.5,M,7.0,M,,*67
$BDGLL,3018.4770,N,12004.6715,E,114144.000,A,A*41
$BDGSA,A,3,03,30,13,27,01,02,20,07,29,08,04,,1.40,1.04,0.92*1E
$BDGSV,4,1,15,30,69,256,44,03,54,199,38,08,51,325,38,13,47,308,37*61
$BDGSV,4,2,15,01,47,137,38,10,43,223,,07,40,207,38,20,40,262,36*6B
$BDGSV,4,3,15,02,38,236,31,04,37,118,39,27,35,160,38,29,28,314,30*6E
$BDGSV,4,4,15,05,16,254,,06,07,180,,25,02,062,*54
$BDRMC,114144.000,A,3018.4770,N,12004.6715,E,0.01,81.07,270326,,,A*4B
$BDVTG,81.07,T,,M,0.01,N,0.02,K,A*11
$BDGGA,114145.000,3018.4770,N,12004.6715,E,1,11,1.05,-9.5,M,7.0,M,,*67
$BDGLL,3018.4770,N,12004.6715,E,114145.000,A,A*40
$BDGSA,A,3,03,30,13,27,01,02,20,07,29,08,04,,1.40,1.05,0.93*1E
$BDGSV,4,1,15,30,69,256,44,03,54,199,38,08,51,325,38,13,47,308,37*61
$BDGSV,4,2,15,01,47,137,38,10,43,223,,07,40,207,38,20,40,262,36*6B
$BDGSV,4,3,15,02,38,236,31,04,37,118,39,27,35,160,38,29,28,314,30*6E
$BDGSV,4,4,15,05,16,254,,06,07,180,,25,02,062,*54
$BDRMC,114145.000,A,3018.4770,N,12004.6715,E,0.04,81.07,270326,,,A*4F
$BDVTG,81.07,T,,M,0.04,N,0.08,K,A*1E
$BDGGA,114146.000,3018.4770,N,12004.6715,E,1,11,1.04,-9.5,M,7.0,M,,*65
$BDGLL,3018.4770,N,12004.6715,E,114146.000,A,A*43
$BDGSA,A,3,03,30,13,27,01,02,20,07,29,08,04,,1.40,1.04,0.92*1E
$BDGSV,4,1,15,30,69,256,44,03,54,199,38,08,51,325,38,13,47,308,37*61
$BDGSV,4,2,15,01,47,137,37,10,43,223,,07,40,207,38,20,40,262,36*64
$BDGSV,4,3,15,02,38,236,31,04,37,118,39,27,35,160,38,29,28,314,30*6E
$BDGSV,4,4,15,05,16,254,,06,07,180,,25,02,062,*54
$BDRMC,114146.000,A,3018.4770,N,12004.6715,E,0.03,81.07,270326,,,A*4B
$BDVTG,81.07,T,,M,0.03,N,0.05,K,A*14
$BDGGA,114147.000,3018.4770,N,12004.6715,E,1,11,1.05,-9.5,M,7.0,M,,*65
$BDGLL,3018.4770,N,12004.6715,E,114147.000,A,A*42
$BDGSA,A,3,03,30,13,27,01,02,20,07,29,08,04,,1.40,1.05,0.93*1E
$BDGSV,4,1,15,30,69,256,44,03,54,199,38,08,51,325,38,13,47,308,37*61
$BDGSV,4,2,15,01,47,137,37,10,43,223,,07,40,207,38,20,40,262,36*64
$BDGSV,4,3,15,02,38,236,31,04,37,118,39,27,35,160,38,29,28,314,30*6E
$BDGSV,4,4,15,05,16,254,,06,07,180,,25,02,062,*54
$BDRMC,114147.000,A,3018.4770,N,12004.6715,E,0.05,81.07,270326,,,A*4C
$BDVTG,81.07,T,,M,0.05,N,0.09,K,A*1E
$BDGGA,114148.000,3018.4770,N,12004.6715,E,1,11,1.04,-9.5,M,7.0,M,,*6B
$BDGLL,3018.4770,N,12004.6715,E,114148.000,A,A*4D
$BDGSA,A,3,03,30,13,27,01,02,20,07,29,08,04,,1.40,1.04,0.92*1E
$BDGSV,4,1,15,30,69,256,44,03,54,199,38,08,51,325,38,13,47,308,37*61
$BDGSV,4,2,15,01,47,137,37,10,43,223,,07,40,207,38,20,40,262,36*64
$BDGSV,4,3,15,02,38,236,31,04,37,118,39,27,35,160,38,29,28,314,30*6E
$BDGSV,4,4,15,05,16,254,,06,07,180,,25,02,062,*54
$BDRMC,114148.000,A,3018.4770,N,12004.6715,E,0.08,81.07,270326,,,A*4E
$BDVTG,81.07,T,,M,0.08,N,0.16,K,A*1D
$BDGGA,114149.000,3018.4770,N,12004.6715,E,1,11,1.04,-9.5,M,7.0,M,,*6A
$BDGLL,3018.4770,N,12004.6715,E,114149.000,A,A*4C
$BDGSA,A,3,03,30,13,27,01,02,20,07,29,08,04,,1.40,1.04,0.93*1F
$BDGSV,4,1,15,30,69,256,44,03,54,199,38,08,51,325,38,13,47,308,37*61
$BDGSV,4,2,15,01,47,137,37,10,43,223,,07,40,207,38,20,40,262,36*64
$BDGSV,4,3,15,02,38,236,31,04,37,118,39,27,35,160,38,29,28,314,30*6E
$BDGSV,4,4,15,05,16,254,,06,07,180,,25,02,062,*54
$BDRMC,114149.000,A,3018.4770,N,12004.6715,E,0.22,81.07,270326,,,A*47
$BDVTG,81.07,T,,M,0.22,N,0.41,K,A*17
$BDGGA,114150.000,3018.4770,N,12004.6715,E,1,11,1.04,-9.5,M,7.0,M,,*62
$BDGLL,3018.4770,N,12004.6715,E,114150.000,A,A*44
$BDGSA,A,3,03,30,13,27,01,02,20,07,29,08,04,,1.40,1.04,0.92*1E
$BDGSV,4,1,15,30,69,256,44,03,54,199,38,08,51,325,38,13,47,308,37*61
$BDGSV,4,2,15,01,47,137,37,10,43,223,,07,40,207,38,20,40,262,36*64
$BDGSV,4,3,15,02,38,236,31,04,37,118,39,27,35,160,38,29,28,314,29*66
$BDGSV,4,4,15,05,16,254,,06,07,180,,25,02,062,*54
$BDRMC,114150.000,A,3018.4770,N,12004.6715,E,0.10,81.07,270326,,,A*4E
$BDVTG,81.07,T,,M,0.10,N,0.18,K,A*1A
$BDGGA,114151.000,3018.4770,N,12004.6715,E,1,11,1.04,-9.5,M,7.0,M,,*63
$BDGLL,3018.4770,N,12004.6715,E,114151.000,A,A*45
$BDGSA,A,3,03,30,13,27,01,02,20,07,29,08,04,,1.40,1.04,0.92*1E
$BDGSV,4,1,15,30,69,256,44,03,54,199,38,08,51,325,38,13,47,308,37*61
$BDGSV,4,2,15,01,47,137,37,10,43,223,,07,40,207,38,20,40,262,36*64
$BDGSV,4,3,15,02,38,236,31,04,37,118,39,27,35,160,38,29,28,314,29*66
$BDGSV,4,4,15,05,16,254,,06,07,180,,25,02,062,*54
$BDRMC,114151.000,A,3018.4770,N,12004.6715,E,0.05,81.07,270326,,,A*4B
$BDVTG,81.07,T,,M,0.05,N,0.09,K,A*1E
$BDGGA,114152.000,3018.4770,N,12004.6715,E,1,11,1.04,-9.5,M,7.0,M,,*60
$BDGLL,3018.4770,N,12004.6715,E,114152.000,A,A*46
$BDGSA,A,3,03,30,13,27,01,02,20,07,29,08,04,,1.40,1.04,0.92*1E
$BDGSV,4,1,15,30,69,256,44,03,54,199,38,08,51,325,38,13,47,308,37*61
$BDGSV,4,2,15,01,47,137,37,10,43,223,,07,40,207,38,20,40,262,36*64
$BDGSV,4,3,15,02,38,236,31,04,37,118,39,27,35,160,38,29,28,314,29*66
$BDGSV,4,4,15,05,16,254,,06,07,180,,25,02,062,*54
$BDRMC,114152.000,A,3018.4770,N,12004.6715,E,0.12,81.07,270326,,,A*4E
$BDVTG,81.07,T,,M,0.12,N,0.21,K,A*12
$BDGGA,114153.000,3018.4770,N,12004.6714,E,1,11,1.04,-9.5,M,7.0,M,,*60
$BDGLL,3018.4770,N,12004.6714,E,114153.000,A,A*46
$BDGSA,A,3,03,30,13,27,01,02,20,07,29,08,04,,1.40,1.04,0.93*1F
$BDGSV,4,1,15,30,69,256,44,03,54,199,38,08,51,325,38,13,47,308,37*61
$BDGSV,4,2,15,01,47,137,37,10,43,223,,07,40,207,38,20,40,262,36*64
$BDGSV,4,3,15,02,38,236,31,04,37,118,39,27,35,160,38,29,28,314,29*66
$BDGSV,4,4,15,05,16,254,,06,07,180,,25,02,062,*54
$BDRMC,114153.000,A,3018.4770,N,12004.6714,E,0.06,81.07,270326,,,A*4B
$BDVTG,81.07,T,,M,0.06,N,0.11,K,A*14
$BDGGA,114154.000,3018.4770,N,12004.6714,E,1,11,1.04,-9.5,M,7.0,M,,*67
$BDGLL,3018.4770,N,12004.6714,E,114154.000,A,A*41
$BDGSA,A,3,03,30,13,27,01,02,20,07,29,08,04,,1.40,1.04,0.92*1E
$BDGSV,4,1,15,30,69,256,44,03,54,199,38,08,51,325,38,13,47,308,37*61
$BDGSV,4,2,15,01,47,137,37,10,43,223,,07,40,207,38,20,40,262,36*64
$BDGSV,4,3,15,02,38,236,31,04,37,118,39,27,35,160,38,29,28,314,29*66
$BDGSV,4,4,15,05,16,254,,06,07,180,,25,02,062,*54
$BDRMC,114154.000,A,3018.4770,N,12004.6714,E,0.02,81.07,270326,,,A*48
$BDVTG,81.07,T,,M,0.02,N,0.03,K,A*13
$BDGGA,114155.000,3018.4770,N,12004.6714,E,1,11,1.04,-9.5,M,7.0,M,,*66
$BDGLL,3018.4770,N,12004.6714,E,114155.000,A,A*40
$BDGSA,A,3,03,30,13,27,01,02,20,07,29,08,04,,1.40,1.04,0.93*1F
$BDGSV,4,1,15,30,69,256,44,03,54,199,38,08,51,325,38,13,47,308,37*61
$BDGSV,4,2,15,01,47,137,37,10,43,223,,07,40,207,38,20,40,262,36*64
$BDGSV,4,3,15,02,38,236,31,04,37,118,39,27,35,160,38,29,28,314,29*66
$BDGSV,4,4,15,05,16,254,,06,07,180,,25,02,062,*54
$BDRMC,114155.000,A,3018.4770,N,12004.6714,E,0.11,81.07,270326,,,A*4B
$BDVTG,81.07,T,,M,0.11,N,0.21,K,A*11
$BDGGA,114156.000,3018.4770,N,12004.6714,E,1,11,1.04,-9.4,M,7.0,M,,*64
$BDGLL,3018.4770,N,12004.6714,E,114156.000,A,A*43
$BDGSA,A,3,03,30,13,27,01,02,20,07,29,08,04,,1.40,1.04,0.93*1F
$BDGSV,4,1,15,30,69,256,44,03,54,199,38,08,51,325,38,13,47,308,37*61
$BDGSV,4,2,15,01,47,137,37,10,43,223,,07,40,207,38,20,40,262,36*64
$BDGSV,4,3,15,02,38,236,31,04,37,118,39,27,35,160,38,29,28,314,29*66
$BDGSV,4,4,15,05,16,254,,06,07,180,,25,02,062,*54
$BDRMC,114156.000,A,3018.4770,N,12004.6714,E,0.12,81.07,270326,,,A*4B
$BDVTG,81.07,T,,M,0.12,N,0.22,K,A*11
$BDGGA,114157.000,3018.4770,N,12004.6714,E,1,11,1.04,-9.4,M,7.0,M,,*65
$BDGLL,3018.4770,N,12004.6714,E,114157.000,A,A*42
$BDGSA,A,3,03,30,13,27,01,02,20,07,29,08,04,,1.40,1.04,0.93*1F
$BDGSV,4,1,15,30,69,256,44,03,54,199,38,08,51,325,38,13,47,308,37*61
$BDGSV,4,2,15,01,47,137,37,10,43,223,,07,40,207,38,20,40,262,36*64
$BDGSV,4,3,15,02,38,236,32,04,37,118,39,27,35,160,38,29,28,314,29*65
$BDGSV,4,4,15,05,16,254,,06,07,180,,25,02,062,*54
$BDRMC,114157.000,A,3018.4770,N,12004.6714,E,0.06,81.07,270326,,,A*4F
$BDVTG,81.07,T,,M,0.06,N,0.10,K,A*15
$BDGGA,114158.000,3018.4770,N,12004.6713,E,1,11,1.04,-9.4,M,7.0,M,,*6D
$BDGLL,3018.4770,N,12004.6713,E,114158.000,A,A*4A
$BDGSA,A,3,03,30,13,27,01,02,20,07,29,08,04,,1.40,1.04,0.93*1F
$BDGSV,4,1,15,30,69,256,44,03,54,199,38,08,51,325,38,13,47,308,37*61
$BDGSV,4,2,15,01,47,137,37,10,43,223,,07,40,207,38,20,40,262,36*64
$BDGSV,4,3,15,02,38,236,31,04,37,118,39,27,35,160,38,29,28,314,29*66
$BDGSV,4,4,15,05,16,254,,06,07,180,,25,02,062,*54
$BDRMC,114158.000,A,3018.4770,N,12004.6713,E,0.16,81.07,270326,,,A*46
$BDVTG,81.07,T,,M,0.16,N,0.30,K,A*16
$BDGGA,114159.000,3018.4770,N,12004.6713,E,1,11,1.04,-9.4,M,7.0,M,,*6C
$BDGLL,3018.4770,N,12004.6713,E,114159.000,A,A*4B
$BDGSA,A,3,03,30,13,27,01,02,20,07,29,08,04,,1.40,1.04,0.93*1F
$BDGSV,4,1,15,30,69,256,44,03,54,199,38,08,51,325,38,13,47,308,37*61
$BDGSV,4,2,15,01,47,137,37,10,43,223,,07,40,207,38,20,40,262,35*67
$BDGSV,4,3,15,02,38,236,31,04,37,118,39,27,35,160,38,29,28,314,29*66
$BDGSV,4,4,15,05,16,254,,06,07,180,,25,02,062,*54
$BDRMC,114159.000,A,3018.4770,N,12004.6713,E,0.05,81.07,270326,,,A*45
$BDVTG,81.07,T,,M,0.05,N,0.10,K,A*16
$BDGGA,114200.000,3018.4770,N,12004.6713,E,1,11,1.04,-9.4,M,7.0,M,,*63
$BDGLL,3018.4770,N,12004.6713,E,114200.000,A,A*44
$BDGSA,A,3,03,30,13,27,01,02,20,07,29,08,04,,1.40,1.04,0.93*1F
$BDGSV,4,1,15,30,69,256,44,03,54,199,38,08,51,325,38,13,47,308,37*61
$BDGSV,4,2,15,01,47,137,37,10,43,223,,07,40,207,38,20,40,262,35*67
$BDGSV,4,3,15,02,38,236,31,04,37,118,39,27,35,160,38,29,28,314,29*66
$BDGSV,4,4,15,05,16,254,,06,07,180,,25,02,062,*54
$BDRMC,114200.000,A,3018.4770,N,12004.6713,E,0.15,81.07,270326,,,A*4B
$BDVTG,81.07,T,,M,0.15,N,0.28,K,A*1C
$BDGGA,114201.000,3018.4770,N,12004.6713,E,1,11,1.04,-9.5,M,7.0,M,,*63
$BDGLL,3018.4770,N,12004.6713,E,114201.000,A,A*45
$BDGSA,A,3,03,30,13,27,01,02,20,07,29,08,04,,1.40,1.04,0.93*1F
$BDGSV,4,1,15,30,69,256,44,03,54,199,38,08,51,325,38,13,47,308,37*61
$BDGSV,4,2,15,01,47,137,37,10,43,223,,07,40,207,38,20,40,262,35*67
$BDGSV,4,3,15,02,38,236,31,04,37,118,39,27,35,160,38,29,28,314,29*66
$BDGSV,4,4,15,05,16,254,,06,07,180,,25,02,062,*54
$BDRMC,114201.000,A,3018.4770,N,12004.6713,E,0.08,81.07,270326,,,A*46
$BDVTG,81.07,T,,M,0.08,N,0.14,K,A*1F
$BDGGA,114202.000,3018.4770,N,12004.6714,E,1,11,1.04,-9.5,M,7.0,M,,*67
$BDGLL,3018.4770,N,12004.6714,E,114202.000,A,A*41
$BDGSA,A,3,03,30,13,27,01,02,20,07,29,08,04,,1.40,1.04,0.93*1F
$BDGSV,4,1,15,30,69,256,44,03,54,199,38,08,51,325,38,13,47,308,37*61
$BDGSV,4,2,15,01,47,137,37,10,43,223,,07,40,207,38,20,40,262,35*67
$BDGSV,4,3,15,02,38,236,31,04,37,118,39,27,35,160,39,29,28,314,28*66
$BDGSV,4,4,15,05,16,254,,06,07,180,,25,02,062,*54
$BDRMC,114202.000,A,3018.4770,N,12004.6714,E,0.12,81.07,270326,,,A*49
$BDVTG,81.07,T,,M,0.12,N,0.22,K,A*11
$BDGGA,114203.000,3018.4770,N,12004.6714,E,1,11,1.04,-9.5,M,7.0,M,,*66
$BDGLL,3018.4770,N,12004.6714,E,114203.000,A,A*40
$BDGSA,A,3,03,30,13,27,01,02,20,07,29,08,04,,1.40,1.04,0.93*1F
$BDGSV,4,1,15,30,69,256,44,03,54,199,38,08,51,325,38,13,47,308,37*61
$BDGSV,4,2,15,01,47,137,37,10,43,223,,07,40,207,38,20,40,262,35*67
$BDGSV,4,3,15,02,38,236,31,04,37,118,39,27,35,160,39,29,28,314,28*66
$BDGSV,4,4,15,05,16,254,,06,07,180,,25,02,062,*54
$BDRMC,114203.000,A,3018.4770,N,12004.6714,E,0.35,81.07,270326,,,A*4D
$BDVTG,81.07,T,,M,0.35,N,0.65,K,A*17
$BDGGA,114204.000,3018.4770,N,12004.6714,E,1,11,1.04,-9.5,M,7.0,M,,*61
$BDGLL,3018.4770,N,12004.6714,E,114204.000,A,A*47
$BDGSA,A,3,03,30,13,27,01,02,20,07,29,08,04,,1.40,1.04,0.93*1F
$BDGSV,4,1,15,30,69,256,44,03,54,199,38,08,51,325,38,13,47,308,37*61
$BDGSV,4,2,15,01,47,137,37,10,43,223,,07,40,207,38,20,40,262,35*67
$BDGSV,4,3,15,02,38,236,31,04,37,118,39,27,35,160,39,29,28,314,28*66
$BDGSV,4,4,15,05,16,254,,06,07,180,,25,02,062,*54
$BDRMC,114204.000,A,3018.4770,N,12004.6714,E,0.15,81.07,270326,,,A*48
$BDVTG,81.07,T,,M,0.15,N,0.28,K,A*1C
$BDGGA,114205.000,3018.4771,N,12004.6714,E,1,11,1.04,-9.6,M,7.0,M,,*62
$BDGLL,3018.4771,N,12004.6714,E,114205.000,A,A*47
$BDGSA,A,3,03,30,13,27,01,02,20,07,29,08,04,,1.40,1.04,0.93*1F
$BDGSV,4,1,15,30,69,256,44,03,54,199,38,08,51,325,38,13,47,308,37*61
$BDGSV,4,2,15,01,47,137,37,10,43,223,,07,40,207,38,20,40,262,35*67
$BDGSV,4,3,15,02,38,236,31,04,37,118,39,27,35,160,39,29,28,314,28*66
$BDGSV,4,4,15,05,16,254,,06,07,180,,25,02,062,*54
$BDRMC,114205.000,A,3018.4771,N,12004.6714,E,0.15,81.07,270326,,,A*48
$BDVTG,81.07,T,,M,0.15,N,0.27,K,A*13
$BDGGA,114206.000,3018.4771,N,12004.6714,E,1,11,1.04,-9.6,M,7.0,M,,*61
$BDGLL,3018.4771,N,12004.6714,E,114206.000,A,A*44
$BDGSA,A,3,03,30,13,27,01,02,20,07,29,08,04,,1.40,1.04,0.93*1F
$BDGSV,4,1,15,30,69,256,44,03,54,199,38,08,51,325,38,13,47,308,37*61
$BDGSV,4,2,15,01,47,137,37,10,43,223,,07,40,207,38,20,40,262,35*67
$BDGSV,4,3,15,02,38,236,31,04,37,118,39,27,35,160,39,29,28,314,28*66
$BDGSV,4,4,15,05,16,254,,06,07,180,,25,02,062,*54
$BDRMC,114206.000,A,3018.4771,N,12004.6714,E,0.18,81.07,270326,,,A*46
$BDVTG,81.07,T,,M,0.18,N,0.33,K,A*1B
$BDGGA,114207.000,3018.4771,N,12004.6715,E,1,11,1.04,-9.6,M,7.0,M,,*61
$BDGLL,3018.4771,N,12004.6715,E,114207.000,A,A*44
$BDGSA,A,3,03,30,13,27,01,02,20,07,29,08,04,,1.40,1.04,0.93*1F
$BDGSV,4,1,15,30,69,256,44,03,54,199,38,08,51,325,38,13,47,308,37*61
$BDGSV,4,2,15,01,47,137,37,10,43,223,,07,40,207,38,20,40,262,35*67
$BDGSV,4,3,15,02,38,236,31,04,37,118,39,27,35,160,39,29,28,314,28*66
$BDGSV,4,4,15,05,16,254,,06,07,180,,25,02,062,*54
$BDRMC,114207.000,A,3018.4771,N,12004.6715,E,0.07,81.07,270326,,,A*48
$BDVTG,81.07,T,,M,0.07,N,0.13,K,A*17
$BDGGA,114208.000,3018.4771,N,12004.6715,E,1,11,1.04,-9.6,M,7.0,M,,*6E
$BDGLL,3018.4771,N,12004.6715,E,114208.000,A,A*4B
$BDGSA,A,3,03,30,13,27,01,02,20,07,29,08,04,,1.40,1.04,0.93*1F
$BDGSV,4,1,15,30,69,256,44,03,54,199,38,08,51,325,38,13,47,308,37*61
$BDGSV,4,2,15,01,47,137,37,10,43,223,,07,40,207,38,20,40,262,35*67
$BDGSV,4,3,15,02,38,236,31,04,37,118,39,27,35,160,39,29,28,314,28*66
$BDGSV,4,4,15,05,16,254,,06,07,180,,25,02,062,*54
$BDRMC,114208.000,A,3018.4771,N,12004.6715,E,0.10,81.07,270326,,,A*41
$BDVTG,81.07,T,,M,0.10,N,0.18,K,A*1A
$BDGGA,114209.000,3018.4771,N,12004.6715,E,1,11,1.04,-9.6,M,7.0,M,,*6F
$BDGLL,3018.4771,N,12004.6715,E,114209.000,A,A*4A
$BDGSA,A,3,03,30,13,27,01,02,20,07,29,08,04,,1.40,1.04,0.93*1F
$BDGSV,4,1,15,30,69,256,44,03,54,199,38,08,51,325,38,13,47,308,37*61
$BDGSV,4,2,15,01,47,137,37,10,43,223,,07,40,207,38,20,40,262,35*67
$BDGSV,4,3,15,02,38,236,31,04,37,118,39,27,35,160,39,29,28,314,28*66
$BDGSV,4,4,15,05,16,254,,06,07,180,,25,02,062,*54
$BDRMC,114209.000,A,3018.4771,N,12004.6715,E,0.12,81.07,270326,,,A*42
$BDVTG,81.07,T,,M,0.12,N,0.22,K,A*11
$BDGGA,114210.000,3018.4771,N,12004.6715,E,1,11,1.04,-9.6,M,7.0,M,,*67
$BDGLL,3018.4771,N,12004.6715,E,114210.000,A,A*42
$BDGSA,A,3,03,30,13,27,01,02,20,07,29,08,04,,1.40,1.04,0.93*1F
$BDGSV,4,1,15,30,69,256,44,03,54,199,38,08,51,325,38,13,47,308,37*61
$BDGSV,4,2,15,01,47,137,36,10,43,223,,07,40,207,38,20,40,262,35*66
$BDGSV,4,3,15,02,38,236,31,04,37,118,39,27,35,160,39,29,28,314,28*66
$BDGSV,4,4,15,05,16,254,,06,07,180,,25,02,062,*54
$BDRMC,114210.000,A,3018.4771,N,12004.6715,E,0.08,81.07,270326,,,A*41
$BDVTG,81.07,T,,M,0.08,N,0.15,K,A*1E
$BDGGA,114211.000,3018.4771,N,12004.6715,E,1,11,1.04,-9.6,M,7.0,M,,*66
$BDGLL,3018.4771,N,12004.6715,E,114211.000,A,A*43
$BDGSA,A,3,03,30,13,27,01,02,20,07,29,08,04,,1.40,1.04,0.93*1F
$BDGSV,4,1,15,30,69,256,44,03,54,199,38,08,51,325,38,13,47,308,37*61
$BDGSV,4,2,15,01,47,137,37,10,43,223,,07,40,207,38,20,40,262,35*67
$BDGSV,4,3,15,02,38,236,31,04,37,118,39,27,35,160,39,29,28,314,29*67
$BDGSV,4,4,15,05,16,254,,06,07,180,,25,02,062,*54
$BDRMC,114211.000,A,3018.4771,N,12004.6715,E,0.07,81.07,270326,,,A*4F
$BDVTG,81.07,T,,M,0.07,N,0.13,K,A*17
$BDGGA,114212.000,3018.4771,N,12004.6715,E,1,11,1.04,-9.6,M,7.0,M,,*65
$BDGLL,3018.4771,N,12004.6715,E,114212.000,A,A*40
$BDGSA,A,3,03,30,13,27,01,02,20,07,29,08,04,,1.40,1.04,0.93*1F
$BDGSV,4,1,15,30,69,256,44,03,54,199,38,08,51,325,38,13,47,308,37*61
$BDGSV,4,2,15,01,47,137,37,10,43,223,,07,40,207,38,20,40,262,35*67
$BDGSV,4,3,15,02,38,236,31,04,37,118,39,27,35,160,39,29,28,314,29*67
$BDGSV,4,4,15,05,16,254,,06,07,180,,25,02,062,*54
$BDRMC,114212.000,A,3018.4771,N,12004.6715,E,0.09,81.07,270326,,,A*42
$BDVTG,81.07,T,,M,0.09,N,0.16,K,A*1C
$BDGGA,114213.000,3018.4771,N,12004.6715,E,1,11,1.04,-9.6,M,7.0,M,,*64
$BDGLL,3018.4771,N,12004.6715,E,114213.000,A,A*41
$BDGSA,A,3,03,30,13,27,01,02,20,07,29,08,04,,1.40,1.04,0.93*1F
$BDGSV,4,1,15,30,69,256,44,03,54,199,38,08,51,325,38,13,47,308,37*61
$BDGSV,4,2,15,01,47,137,37,10,43,223,,07,40,207,38,20,40,262,35*67
$BDGSV,4,3,15,02,38,236,31,04,37,118,39,27,35,160,39,29,28,314,29*67
$BDGSV,4,4,15,05,16,254,,06,07,180,,25,02,062,*54
$BDRMC,114213.000,A,3018.4771,N,12004.6715,E,0.03,81.07,270326,,,A*49
$BDVTG,81.07,T,,M,0.03,N,0.06,K,A*17
$BDGGA,114214.000,3018.4771,N,12004.6716,E,1,11,1.04,-9.6,M,7.0,M,,*60
$BDGLL,3018.4771,N,12004.6716,E,114214.000,A,A*45
$BDGSA,A,3,03,30,13,27,01,02,20,07,29,08,04,,1.40,1.04,0.93*1F
$BDGSV,4,1,15,30,69,256,44,03,54,199,38,08,51,325,38,13,47,308,37*61
$BDGSV,4,2,15,01,47,137,37,10,43,223,,07,40,207,38,20,40,262,35*67
$BDGSV,4,3,15,02,38,236,31,04,37,118,39,27,35,160,39,29,28,314,29*67
$BDGSV,4,4,15,05,16,254,,06,07,180,,25,02,062,*54
$BDRMC,114214.000,A,3018.4771,N,12004.6716,E,0.06,81.07,270326,,,A*48
$BDVTG,81.07,T,,M,0.06,N,0.10,K,A*15
$BDGGA,114215.000,3018.4771,N,12004.6716,E,1,11,1.04,-9.6,M,7.0,M,,*61
$BDGLL,3018.4771,N,12004.6716,E,114215.000,A,A*44
$BDGSA,A,3,03,30,13,27,01,02,20,07,29,08,04,,1.40,1.04,0.93*1F
$BDGSV,4,1,15,30,69,256,44,03,54,199,38,08,51,325,38,13,47,308,37*61
$BDGSV,4,2,15,01,47,137,37,10,43,223,,07,40,207,38,20,40,262,35*67
$BDGSV,4,3,15,02,38,236,31,04,37,118,39,27,35,160,39,29,28,314,29*67
$BDGSV,4,4,15,05,16,254,,06,07,180,,25,02,062,*54
$BDRMC,114215.000,A,3018.4771,N,12004.6716,E,0.08,81.07,270326,,,A*47
$BDVTG,81.07,T,,M,0.08,N,0.14,K,A*1F
$BDGGA,114216.000,3018.4771,N,12004.6715,E,1,11,1.04,-9.6,M,7.0,M,,*61
$BDGLL,3018.4771,N,12004.6715,E,114216.000,A,A*44
$BDGSA,A,3,03,30,13,27,01,02,20,07,29,08,04,,1.40,1.04,0.93*1F
$BDGSV,4,1,15,30,69,256,44,03,54,199,38,08,51,325,38,13,47,308,37*61
$BDGSV,4,2,15,01,47,137,37,10,43,223,,07,40,207,38,20,40,262,35*67
$BDGSV,4,3,15,02,38,236,31,04,37,118,39,27,35,160,39,29,28,314,29*67
$BDGSV,4,4,15,05,16,254,,06,07,180,,25,02,062,*54
$BDRMC,114216.000,A,3018.4771,N,12004.6715,E,0.05,81.07,270326,,,A*4A
$BDVTG,81.07,T,,M,0.05,N,0.09,K,A*1E
$BDGGA,114217.000,3018.4771,N,12004.6716,E,1,11,1.04,-9.6,M,7.0,M,,*63
$BDGLL,3018.4771,N,12004.6716,E,114217.000,A,A*46
$BDGSA,A,3,03,30,13,27,01,02,20,07,29,08,04,,1.40,1.04,0.93*1F
$BDGSV,4,1,15,30,69,256,44,03,54,199,38,08,51,325,38,13,47,308,37*61
$BDGSV,4,2,15,01,47,137,37,10,43,223,,07,40,207,38,20,40,262,35*67
$BDGSV,4,3,15,02,38,236,31,04,37,118,39,27,35,160,39,29,28,314,29*67
$BDGSV,4,4,15,05,16,254,,06,07,180,,25,02,062,*54
$BDRMC,114217.000,A,3018.4771,N,12004.6716,E,0.03,81.07,270326,,,A*4E
$BDVTG,81.07,T,,M,0.03,N,0.05,K,A*14
$BDGGA,114218.000,3018.4771,N,12004.6715,E,1,11,1.04,-9.6,M,7.0,M,,*6F
$BDGLL,3018.4771,N,12004.6715,E,114218.000,A,A*4A
$BDGSA,A,3,03,30,13,27,01,02,20,07,29,08,04,,1.40,1.04,0.93*1F
$BDGSV,4,1,15,30,69,256,44,03,54,199,38,08,51,325,38,13,47,308,37*61
$BDGSV,4,2,15,01,47,137,37,10,43,223,,07,40,207,38,20,40,262,35*67
$BDGSV,4,3,15,02,38,236,31,04,37,118,39,27,35,160,39,29,28,314,29*67
$BDGSV,4,4,15,05,16,254,,06,07,180,,25,02,062,*54
$BDRMC,114218.000,A,3018.4771,N,12004.6715,E,0.08,81.07,270326,,,A*49
$BDVTG,81.07,T,,M,0.08,N,0.14,K,A*1F
$BDGGA,114219.000,3018.4771,N,12004.6716,E,1,11,1.04,-9.7,M,7.0,M,,*6C
$BDGLL,3018.4771,N,12004.6716,E,114219.000,A,A*48
$BDGSA,A,3,03,30,13,27,01,02,20,07,29,08,04,,1.40,1.04,0.93*1F
$BDGSV,4,1,15,30,69,256,44,03,54,199,38,08,51,325,38,13,47,308,37*61
$BDGSV,4,2,15,01,47,137,37,10,43,223,,07,40,207,38,20,40,262,35*67
$BDGSV,4,3,15,02,38,236,31,04,37,118,39,27,35,160,39,29,28,314,29*67
$BDGSV,4,4,15,05,16,254,,06,07,180,,25,02,062,*54
$BDRMC,114219.000,A,3018.4771,N,12004.6716,E,0.05,81.07,270326,,,A*46
$BDVTG,81.07,T,,M,0.05,N,0.09,K,A*1E
$BDGGA,114220.000,3018.4771,N,12004.6716,E,1,11,1.04,-9.7,M,7.0,M,,*66
$BDGLL,3018.4771,N,12004.6716,E,114220.000,A,A*42
$BDGSA,A,3,03,30,13,27,01,02,20,07,29,08,04,,1.40,1.04,0.93*1F
$BDGSV,4,1,15,30,69,256,44,03,54,199,38,08,51,325,38,13,47,308,37*61
$BDGSV,4,2,15,01,47,137,37,10,43,223,,07,40,207,38,20,40,262,35*67
$BDGSV,4,3,15,02,38,236,31,04,37,118,39,27,35,160,39,29,28,314,29*67
$BDGSV,4,4,15,05,16,254,,06,07,180,,25,02,062,*54
$BDRMC,114220.000,A,3018.4771,N,12004.6716,E,0.03,81.07,270326,,,A*4A
$BDVTG,81.07,T,,M,0.03,N,0.05,K,A*14
$BDGGA,114221.000,3018.4771,N,12004.6716,E,1,11,1.04,-9.7,M,7.0,M,,*67
$BDGLL,3018.4771,N,12004.6716,E,114221.000,A,A*43
$BDGSA,A,3,03,30,13,27,01,02,20,07,29,08,04,,1.40,1.04,0.93*1F
$BDGSV,4,1,15,30,69,256,44,03,54,199,38,08,51,325,38,13,47,308,37*61
$BDGSV,4,2,15,01,47,137,37,10,43,223,,07,40,207,38,20,40,262,35*67
$BDGSV,4,3,15,02,38,236,31,04,37,118,39,27,35,160,39,29,28,314,29*67
$BDGSV,4,4,15,05,16,254,,06,07,180,,25,02,062,*54
$BDRMC,114221.000,A,3018.4771,N,12004.6716,E,0.21,81.07,270326,,,A*4B
$BDVTG,81.07,T,,M,0.21,N,0.39,K,A*1B
$BDGGA,114222.000,3018.4772,N,12004.6716,E,1,11,1.04,-9.7,M,7.0,M,,*67
$BDGLL,3018.4772,N,12004.6716,E,114222.000,A,A*43
$BDGSA,A,3,03,30,13,27,01,02,20,07,29,08,04,,1.40,1.04,0.93*1F
$BDGSV,4,1,15,30,69,256,44,03,54,199,38,08,51,325,38,13,47,308,37*61
$BDGSV,4,2,15,01,47,137,37,10,43,223,,07,40,207,38,20,40,262,35*67
$BDGSV,4,3,15,02,38,236,31,04,37,118,39,27,35,160,39,29,28,314,30*6F
$BDGSV,4,4,15,05,16,254,,06,07,180,,25,02,062,*54
