29,28,232,44*7B
$GPGSV,4,3,13,21,21,085,,11,12,144,18,30,06,039,,194,,,*79
$GPGSV,4,4,13,195,,,*46
$BDGSV,5,1,18,03,55,199,39,20,52,304,44,08,50,343,29,13,47,326,36*6E
$BDGSV,5,2,18,01,47,137,,30,47,207,40,29,44,287,38,02,39,237,35*65
$BDGSV,5,3,18,04,37,118,,10,28,219,,07,25,206,30,16,25,174,*6B
$BDGSV,5,4,18,06,19,181,33,23,19,078,14,05,16,255,,19,14,267,*6B
$BDGSV,5,5,18,09,10,187,,27,07,163,*61
$GNRMC,125150.000,A,3018.4433,N,12004.7381,E,0.14,262.17,270326,,,D*70
$GNVTG,262.17,T,,M,0.14,N,0.25,K,D*24
$GNGGA,125151.000,3018.4433,N,12004.7381,E,2,16,0.79,-13.3,M,7.0,M,,*50
$GNGLL,3018.4433,N,12004.7381,E,125151.000,A,D*41
$GPGSA,A,3,15,20,05,18,24,29,11,,,,,,1.18,0.79,0.88*03
$BDGSA,A,3,20,08,03,30,13,06,29,07,02,,,,1.18,0.79,0.88*15
$GPGSV,4,1,13,15,69,333,44,20,56,027,25,13,51,033,,05,45,067,27*73
$GPGSV,4,2,13,18,42,316,42,24,40,176,24,41,36,236,38,29,28,232,44*7A
$GPGSV,4,3,13,21,21,085,,11,12,144,18,30,06,039,,194,,,*79
$GPGSV,4,4,13,195,,,*46
$BDGSV,5,1,18,03,55,199,39,20,52,304,44,08,50,343,29,13,47,326,36*6E
$BDGSV,5,2,18,01,47,137,,30,47,207,39,29,44,287,37,02,39,237,35*64
$BDGSV,5,3,18,04,37,118,,10,28,219,,07,25,206,28,16,25,174,*62
$BDGSV,5,4,18,06,19,181,30,23,19,078,14,05,16,255,,19,14,267,*68
$BDGSV,5,5,18,09,10,187,,27,07,163,*61
$GNRMC,125151.000,A,3018.4433,N,12004.7381,E,0.17,262.17,270326,,,D*72
$GNVTG,262.17,T,,M,0.17,N,0.31,K,D*22
$GNGGA,125152.000,3018.4432,N,12004.7380,E,2,17,0.71,-13.3,M,7.0,M,,*5A
$GNGLL,3018.4432,N,12004.7380,E,125152.000,A,D*42
$GPGSA,A,3,15,20,05,18,24,29,11,,,,,,1.11,0.71,0.86*0C
$BDGSA,A,3,20,08,03,30,13,23,06,29,07,02,,,1.11,0.71,0.86*1B
$GPGSV,4,1,13,15,69,333,44,20,56,027,26,13,51,033,,05,45,067,27*70
$GPGSV,4,2,13,18,42,316,43,24,40,176,24,41,36,236,39,29,28,232,44*7A
$GPGSV,4,3,13,21,21,085,,11,12,144,18,30,06,039,,194,,,*79
$GPGSV,4,4,13,195,,,*46
$BDGSV,5,1,18,03,55,199,39,20,52,304,43,08,50,343,29,13,47,326,36*69
$BDGSV,5,2,18,01,47,137,,30,47,207,39,29,44,287,36,02,39,237,35*65
$BDGSV,5,3,18,04,37,118,,10,28,219,,07,25,206,29,16,25,174,*63
$BDGSV,5,4,18,06,19,181,30,23,19,078,14,05,16,255,,19,14,267,*68
$BDGSV,5,5,18,09,10,187,,27,07,163,*61
$GNRMC,125152.000,A,3018.4432,N,12004.7380,E,0.18,262.17,270326,,,D*7E
$GNVTG,262.17,T,,M,0.18,N,0.34,K,D*28
$GNGGA,125153.000,3018.4432,N,12004.7380,E,2,17,0.71,-13.3,M,7.0,M,,*5B
$GNGLL,3018.4432,N,12004.7380,E,125153.000,A,D*43
$GPGSA,A,3,15,20,05,18,24,29,11,,,,,,1.11,0.71,0.86*0C
$BDGSA,A,3,20,08,03,30,13,23,06,29,07,02,,,1.11,0.71,0.86*1B
$GPGSV,4,1,13,15,69,333,44,20,56,027,26,13,51,033,,05,45,067,27*70
$GPGSV,4,2,13,18,42,316,42,24,40,176,24,41,36,236,39,29,28,232,44*7B
$GPGSV,4,3,13,21,21,085,18,11,12,144,19,30,06,039,,194,,,*71
$GPGSV,4,4,13,195,,,*46
$BDGSV,5,1,18,03,55,199,39,20,52,304,43,08,50,343,29,13,47,326,36*69
$BDGSV,5,2,18,01,47,137,,30,47,207,39,29,44,287,36,02,39,237,35*65
$BDGSV,5,3,18,04,37,118,,10,28,219,,07,25,206,29,16,25,174,*63
$BDGSV,5,4,18,06,19,181,29,23,19,078,14,05,16,255,,19,14,267,*60
$BDGSV,5,5,18,09,10,187,,27,07,163,*61
$GNRMC,125153.000,A,3018.4432,N,12004.7380,E,0.19,262.17,270326,,,D*7E
$GNVTG,262.17,T,,M,0.19,N,0.35,K,D*28
$GNGGA,125154.000,3018.4432,N,12004.7381,E,2,18,0.67,-13.3,M,7.0,M,,*55
$GNGLL,3018.4432,N,12004.7381,E,125154.000,A,D*45
$GPGSA,A,3,15,20,05,18,24,29,21,11,,,,,1.08,0.67,0.85*03
$BDGSA,A,3,20,08,03,30,13,23,06,29,07,02,,,1.08,0.67,0.85*17
$GPGSV,4,1,13,15,69,333,44,20,56,027,26,13,51,033,,05,45,067,27*70
$GPGSV,4,2,13,18,42,316,42,24,40,176,24,41,36,236,39,29,28,232,44*7B
$GPGSV,4,3,13,21,21,085,17,11,12,144,19,30,06,039,,194,,,*7E
$GPGSV,4,4,13,195,,,*46
$BDGSV,5,1,18,03,55,199,39,20,52,304,43,08,50,343,29,13,47,326,36*69
$BDGSV,5,2,18,01,47,137,,30,47,207,39,29,44,287,37,02,39,237,35*64
$BDGSV,5,3,18,04,37,118,,10,28,219,,07,25,206,30,16,25,174,*6B
$BDGSV,5,4,18,06,19,181,28,23,19,078,15,05,16,255,,19,14,267,*60
$BDGSV,5,5,18,09,10,187,,27,07,163,*61
$GNRMC,125154.000,A,3018.4432,N,12004.7381,E,0.17,262.17,270326,,,D*76
$GNVTG,262.17,T,,M,0.17,N,0.31,K,D*22
$GNGGA,125155.000,3018.4431,N,12004.7380,E,2,17,0.71,-13.3,M,7.0,M,,*5E
$GNGLL,3018.4431,N,12004.7380,E,125155.000,A,D*46
$GPGSA,A,3,15,20,05,18,24,29,11,,,,,,1.11,0.71,0.86*0C
$BDGSA,A,3,20,08,03,30,13,23,06,29,07,02,,,1.11,0.71,0.86*1B
$GPGSV,4,1,13,15,69,333,44,20,56,027,26,13,51,033,,05,45,067,27*70
$GPGSV,4,2,13,18,42,316,42,24,40,176,23,41,36,236,39,29,28,232,44*7C
$GPGSV,4,3,13,21,21,085,15,11,12,144,19,30,06,039,17,194,,,*7A
$GPGSV,4,4,13,195,,,*46
$BDGSV,5,1,18,03,55,199,39,20,52,304,44,08,50,343,29,13,47,326,36*6E
$BDGSV,5,2,18,01,47,137,,30,47,207,39,29,44,287,38,02,39,237,35*6B
$BDGSV,5,3,18,04,37,118,,10,28,219,,07,25,206,29,16,25,174,*63
$BDGSV,5,4,18,06,19,181,28,23,19,078,15,05,16,255,,19,14,267,*60
$BDGSV,5,5,18,09,10,187,,27,07,163,*61
$GNRMC,125155.000,A,3018.4431,N,12004.7380,E,0.15,262.17,270326,,,D*77
$GNVTG,262.17,T,,M,0.15,N,0.28,K,D*28
$GNGGA,125156.000,3018.4431,N,12004.7382,E,2,17,0.71,-13.3,M,7.0,M,,*5F
$GNGLL,3018.4431,N,12004.7382,E,125156.000,A,D*47
$GPGSA,A,3,15,20,05,18,24,29,11,,,,,,1.11,0.71,0.86*0C
$BDGSA,A,3,20,08,03,30,13,23,06,29,07,02,,,1.11,0.71,0.86*1B
$GPGSV,4,1,13,15,69,333,44,20,56,027,26,13,51,033,,05,45,067,27*70
$GPGSV,4,2,13,18,42,316,42,24,40,176,23,41,36,236,40,29,28,232,45*73
$GPGSV,4,3,13,21,21,085,17,11,12,144,19,30,06,039,16,194,,,*79
$GPGSV,4,4,13,195,,,*46
$BDGSV,5,1,18,03,55,199,39,20,52,304,43,08,50,343,30,13,47,326,36*61
$BDGSV,5,2,18,01,47,137,,30,47,207,39,29,44,287,37,02,39,237,36*67
$BDGSV,5,3,18,04,37,118,,10,28,219,,07,25,206,29,16,25,174,*63
$BDGSV,5,4,18,06,19,181,29,23,19,078,15,05,16,255,,19,14,267,*61
$BDGSV,5,5,18,09,10,187,,27,07,163,*61
$GNRMC,125156.000,A,3018.4431,N,12004.7382,E,0.15,262.17,270326,,,D*76
$GNVTG,262.17,T,,M,0.15,N,0.29,K,D*29
$GNGGA,125157.000,3018.4430,N,12004.7382,E,2,17,0.71,-13.3,M,7.0,M,,*5F
$GNGLL,3018.4430,N,12004.7382,E,125157.000,A,D*47
$GPGSA,A,3,15,20,05,18,24,29,11,,,,,,1.11,0.71,0.86*0C
$BDGSA,A,3,20,08,03,30,13,23,06,29,07,02,,,1.11,0.71,0.86*1B
$GPGSV,4,1,13,15,69,333,44,20,56,027,26,13,51,033,,05,45,067,27*70
$GPGSV,4,2,13,18,42,316,41,24,40,176,23,41,36,236,39,29,28,232,44*7F
$GPGSV,4,3,13,21,21,085,18,11,12,144,20,30,06,039,15,194,,,*7F
$GPGSV,4,4,13,195,,,*46
$BDGSV,5,1,18,03,55,199,40,20,52,304,43,08,50,343,29,13,47,326,35*64
$BDGSV,5,2,18,01,47,137,,30,47,207,39,29,44,287,37,02,39,237,35*64
$BDGSV,5,3,18,04,37,118,,10,28,219,,07,25,206,30,16,25,174,*6B
$BDGSV,5,4,18,06,19,181,29,23,19,078,15,05,16,255,,19,14,267,*61
$BDGSV,5,5,18,09,10,187,,27,07,163,*61
$GNRMC,125157.000,A,3018.4430,N,12004.7382,E,0.14,262.17,270326,,,D*77
$GNVTG,262.17,T,,M,0.14,N,0.26,K,D*27
$GNGGA,125158.000,3018.4430,N,12004.7382,E,2,17,0.69,-13.3,M,7.0,M,,*59
$GNGLL,3018.4430,N,12004.7382,E,125158.000,A,D*48
$GPGSA,A,3,15,20,13,05,18,24,29,11,30,,,,1.04,0.69,0.78*01
$BDGSA,A,3,03,30,13,23,06,29,07,02,,,,,1.04,0.69,0.78*1D
$GPGSV,4,1,13,15,69,333,44,20,56,027,26,13,51,033,25,05,45,067,27*77
$GPGSV,4,2,13,18,42,316,41,24,40,176,23,41,36,236,40,29,28,232,44*71
$GPGSV,4,3,13,21,21,085,18,11,12,144,20,30,06,039,15,194,,,*7F
$GPGSV,4,4,13,195,,,*46
$BDGSV,5,1,18,03,55,199,39,20,52,304,,08,50,343,,13,47,326,35*66
$BDGSV,5,2,18,01,47,137,,30,47,207,40,29,44,287,36,02,39,237,35*6B
$BDGSV,5,3,18,04,37,118,,10,28,219,,07,25,206,28,16,25,174,*62
$BDGSV,5,4,18,06,19,181,31,23,19,078,14,05,16,255,,19,14,267,*69
$BDGSV,5,5,18,09,10,187,,27,07,163,*61
$GNRMC,125158.000,A,3018.4430,N,12004.7382,E,0.11,262.17,270326,,,D*7D
$GNVTG,262.17,T,,M,0.11,N,0.20,K,D*24
$GNGGA,125159.000,3018.4429,N,12004.7384,E,2,19,0.64,-13.4,M,7.0,M,,*52
$GNGLL,3018.4429,N,12004.7384,E,125159.000,A,D*47
$GPGSA,A,3,15,20,13,05,18,24,29,21,11,30,,,1.01,0.64,0.78*0A
$BDGSA,A,3,03,30,20,13,23,06,29,07,02,,,,1.01,0.64,0.78*17
$GPGSV,4,1,13,15,69,333,44,20,56,027,26,13,51,033,25,05,45,067,27*77
$GPGSV,4,2,13,18,42,316,41,24,40,176,23,41,36,236,40,29,28,232,45*70
$GPGSV,4,3,13,21,21,085,18,11,12,144,21,30,06,039,15,194,,,*7E
$GPGSV,4,4,13,195,,,37*42
$BDGSV,5,1,18,03,55,199,39,20,52,304,46,08,50,343,,13,47,326,36*67
$BDGSV,5,2,18,01,47,137,,30,47,207,40,29,44,287,35,02,39,237,35*68
$BDGSV,5,3,18,04,37,118,,10,28,219,,07,25,206,30,16,25,174,*6B
$BDGSV,5,4,18,06,19,181,32,23,19,078,14,05,16,255,,19,14,267,*6A
$BDGSV,5,5,18,09,10,187,,27,07,163,*61
$GNRMC,125159.000,A,3018.4429,N,12004.7384,E,0.12,262.17,270326,,,D*71
$GNVTG,262.17,T,,M,0.12,N,0.22,K,D*25
$GNGGA,125200.000,3018.4428,N,12004.7385,E,2,19,0.66,-13.3,M,7.0,M,,*58
$GNGLL,3018.4428,N,12004.7385,E,125200.000,A,D*48
$GPGSA,A,3,15,20,13,05,18,24,29,11,30,,,,1.02,0.66,0.78*08
$BDGSA,A,3,03,30,20,13,23,06,08,29,07,02,,,1.02,0.66,0.78*1E
$GPGSV,4,1,13,15,69,333,44,20,56,027,26,13,51,033,23,05,45,067,27*71
$GPGSV,4,2,13,18,42,316,31,24,40,176,24,41,36,236,40,29,28,232,45*70
$GPGSV,4,3,13,21,21,085,,11,12,144,21,30,06,039,15,194,,,*77
$GPGSV,4,4,13,195,,,35*40
$BDGSV,5,1,18,03,55,199,39,20,52,304,42,08,50,343,28,13,47,326,35*6A
$BDGSV,5,2,18,01,47,137,,30,47,207,40,29,44,287,36,02,39,237,35*6B
$BDGSV,5,3,18,04,37,118,,10,28,219,,07,25,206,29,16,25,174,*63
$BDGSV,5,4,18,06,19,181,32,23,19,078,15,05,16,255,,19,14,267,*6B
$BDGSV,5,5,18,09,10,187,,27,07,163,*61
$GNRMC,125200.000,A,3018.4428,N,12004.7385,E,0.12,262.17,270326,,,D*7E
$GNVTG,262.17,T,,M,0.12,N,0.22,K,D*25
$GNGGA,125201.000,3018.4427,N,12004.7387,E,2,18,0.70,-13.3,M,7.0,M,,*52
$GNGLL,3018.4427,N,12004.7387,E,125201.000,A,D*44
$GPGSA,A,3,15,20,13,05,18,24,29,11,30,,,,1.05,0.70,0.78*08
$BDGSA,A,3,03,30,20,13,06,08,29,07,02,,,,1.05,0.70,0.78*1F
$GPGSV,4,1,13,15,69,333,44,20,56,027,26,13,51,033,25,05,45,067,27*77
$GPGSV,4,2,13,18,42,316,42,24,40,176,24,41,36,236,40,29,28,232,45*74
$GPGSV,4,3,13,21,21,085,19,11,12,144,21,30,06,039,15,194,,,*7F
$GPGSV,4,4,13,195,,,34*41
$BDGSV,5,1,18,03,55,199,39,20,52,304,44,08,50,343,29,13,47,326,35*6D
$BDGSV,5,2,18,01,47,137,,30,47,207,40,29,44,287,37,02,39,237,35*6A
$BDGSV,5,3,18,04,37,118,,10,28,219,,07,25,206,29,16,25,174,*63
$BDGSV,5,4,18,06,19,181,32,23,19,078,14,05,16,255,,19,14,267,*6A
$BDGSV,5,5,18,09,10,187,,27,07,163,*61
$GNRMC,125201.000,A,3018.4427,N,12004.7387,E,0.14,262.17,270326,,,D*74
$GNVTG,262.17,T,,M,0.14,N,0.27,K,D*26
$GNGGA,125202.000,3018.4427,N,12004.7389,E,2,18,0.70,-13.3,M,7.0,M,,*5F
$GNGLL,3018.4427,N,12004.7389,E,125202.000,A,D*49
$GPGSA,A,3,15,20,13,05,18,24,29,11,30,,,,1.05,0.70,0.78*08
$BDGSA,A,3,03,30,20,13,06,08,29,07,02,,,,1.05,0.70,0.78*1F
$GPGSV,4,1,13,15,69,333,44,20,56,027,27,13,51,033,24,05,45,067,27*77
$GPGSV,4,2,13,18,42,316,42,24,40,176,24,41,36,236,39,29,28,232,44*7B
$GPGSV,4,3,13,21,21,085,18,11,12,144,21,30,06,039,15,194,,,*7E
$GPGSV,4,4,13,195,,,34*41
$BDGSV,5,1,18,03,55,199,39,20,52,304,45,08,50,343,30,13,47,326,36*67
$BDGSV,5,2,18,01,47,137,,30,47,207,40,29,44,287,37,02,39,237,35*6A
$BDGSV,5,3,18,04,37,118,,10,28,219,,07,25,206,29,16,25,174,*63
$BDGSV,5,4,18,06,19,181,32,23,19,078,11,05,16,255,,19,14,267,*6F
$BDGSV,5,5,18,09,10,187,,27,07,163,*61
$GNRMC,125202.000,A,3018.4427,N,12004.7389,E,0.16,262.17,270326,,,D*7B
$GNVTG,262.17,T,,M,0.16,N,0.30,K,D*22
$GNGGA,125203.000,3018.4426,N,12004.7391,E,2,18,0.70,-13.3,M,7.0,M,,*56
$GNGLL,3018.4426,N,12004.7391,E,125203.000,A,D*40
$GPGSA,A,3,15,20,13,05,18,24,29,11,30,,,,1.05,0.70,0.78*08
$BDGSA,A,3,03,30,20,13,06,08,29,07,02,,,,1.05,0.70,0.78*1F
$GPGSV,4,1,13,15,69,333,44,20,56,027,27,13,51,033,24,05,45,067,27*77
$GPGSV,4,2,13,18,42,316,41,24,40,176,23,41,36,236,40,29,28,232,44*71
$GPGSV,4,3,13,21,21,085,17,11,12,144,22,30,06,039,14,194,,,*73
$GPGSV,4,4,13,195,,,35*40
$BDGSV,5,1,18,03,55,199,39,20,52,304,44,08,50,343,30,13,47,326,36*66
$BDGSV,5,2,18,01,47,137,,30,47,207,40,29,44,287,37,02,39,237,35*6A
$BDGSV,5,3,18,04,37,118,,10,28,219,,07,25,206,29,16,25,174,*63
$BDGSV,5,4,18,06,19,181,32,23,19,078,14,05,16,255,,19,14,267,*6A
$BDGSV,5,5,18,09,10,187,,27,07,163,*61
$GNRMC,125203.000,A,3018.4426,N,12004.7391,E,0.19,262.17,270326,,,D*7D
$GNVTG,262.17,T,,M,0.19,N,0.35,K,D*28
$GNGGA,125204.000,3018.4426,N,12004.7393,E,2,19,0.66,-13.3,M,7.0,M,,*55
$GNGLL,3018.4426,N,12004.7393,E,125204.000,A,D*45
$GPGSA,A,3,15,20,13,05,18,24,29,11,30,,,,1.02,0.66,0.78*08
$BDGSA,A,3,03,30,20,13,23,06,08,29,07,02,,,1.02,0.66,0.78*1E
$GPGSV,4,1,13,15,69,333,44,20,56,027,28,13,51,033,24,05,45,067,27*78
$GPGSV,4,2,13,18,42,316,41,24,40,176,24,41,36,236,39,29,28,232,43*7F
$GPGSV,4,3,13,21,21,085,19,11,12,144,22,30,06,039,14,194,,,*7D
$GPGSV,4,4,13,195,,,37*42
$BDGSV,5,1,18,03,55,199,39,20,52,304,44,08,50,343,30,13,47,326,36*66
$BDGSV,5,2,18,01,47,137,,30,47,207,40,29,44,287,37,02,39,237,34*6B
$BDGSV,5,3,18,04,37,118,,10,28,219,,07,25,206,28,16,25,174,*62
$BDGSV,5,4,18,06,19,181,32,23,19,078,13,05,16,255,,19,14,267,*6D
$BDGSV,5,5,18,09,10,187,,27,07,163,*61
$GNRMC,125204.000,A,3018.4426,N,12004.7393,E,0.19,262.17,270326,,,D*78
$GNVTG,262.17,T,,M,0.19,N,0.36,K,D*2B
$GNGGA,125205.000,3018.4426,N,12004.7394,E,2,20,0.63,-13.3,M,7.0,M,,*5C
$GNGLL,3018.4426,N,12004.7394,E,125205.000,A,D*43
$GPGSA,A,3,15,20,13,05,18,24,29,21,11,30,,,1.00,0.63,0.78*0C
$BDGSA,A,3,03,30,20,13,23,06,08,29,07,02,,,1.00,0.63,0.78*19
$GPGSV,4,1,13,15,69,333,44,20,56,027,28,13,51,033,25,05,45,067,26*78
$GPGSV,4,2,13,18,42,316,42,24,40,176,24,41,36,236,38,29,28,232,43*7D
$GPGSV,4,3,13,21,21,085,22,11,12,144,22,30,06,039,13,194,,,*72
$GPGSV,4,4,13,195,,,37*42
$BDGSV,5,1,18,03,55,199,39,20,52,304,43,08,50,343,30,13,47,326,36*61
$BDGSV,5,2,18,01,47,137,,30,47,207,40,29,44,287,36,02,39,237,34*6A
$BDGSV,5,3,18,04,37,118,,10,28,219,,07,25,206,29,16,25,174,*63
$BDGSV,5,4,18,06,19,181,32,23,19,078,12,05,16,255,,19,14,267,*6C
$BDGSV,5,5,18,09,10,187,,27,07,163,*61
$GNRMC,125205.000,A,3018.4426,N,12004.7394,E,0.20,262.17,270326,,,D*74
$GNVTG,262.17,T,,M,0.20,N,0.38,K,D*2F
$GNGGA,125206.000,3018.4425,N,12004.7396,E,2,20,0.63,-13.3,M,7.0,M,,*5E
$GNGLL,3018.4425,N,12004.7396,E,125206.000,A,D*41
$GPGSA,A,3,15,20,13,05,18,24,29,21,11,30,,,1.00,0.63,0.78*0C
$BDGSA,A,3,03,30,20,13,23,06,08,29,07,02,,,1.00,0.63,0.78*19
$GPGSV,4,1,13,15,69,333,44,20,56,027,28,13,51,033,24,05,45,067,26*79
$GPGSV,4,2,13,18,42,316,42,24,40,176,24,41,36,236,39,29,28,232,43*7C
$GPGSV,4,3,13,21,21,085,20,11,12,144,22,30,06,039,13,194,,,*70
$GPGSV,4,4,13,195,,,36*43
$BDGSV,5,1,18,03,55,199,39,20,52,304,43,08,50,343,30,13,47,326,36*61
$BDGSV,5,2,18,01,47,137,,30,47,207,40,29,44,287,37,02,39,237,34*6B
$BDGSV,5,3,18,04,37,118,,10,28,219,,07,25,206,30,16,25,174,*6B
$BDGSV,5,4,18,06,19,181,33,23,19,078,12,05,16,255,,19,14,267,*6D
$BDGSV,5,5,18,09,10,187,,27,07,163,*61
$GNRMC,125206.000,A,3018.4425,N,12004.7396,E,0.04,262.17,270326,,,D*70
$GNVTG,262.17,T,,M,0.04,N,0.08,K,D*2A
$GNGGA,125207.000,3018.4424,N,12004.7396,E,2,19,0.65,-13.3,M,7.0,M,,*52
$GNGLL,3018.4424,N,12004.7396,E,125207.000,A,D*41
$GPGSA,A,3,15,20,13,05,18,24,29,21,11,30,,,1.02,0.65,0.78*08
$BDGSA,A,3,03,30,20,13,06,08,29,07,02,,,,1.02,0.65,0.78*1C
$GPGSV,4,1,13,15,69,333,44,20,56,027,27,13,51,033,24,05,45,067,25*75
$GPGSV,4,2,13,18,42,316,42,24,40,176,24,41,36,236,38,29,28,232,44*7A
$GPGSV,4,3,13,21,21,085,19,11,12,144,22,30,06,039,13,194,,,*7A
$GPGSV,4,4,13,195,,,35*40
$BDGSV,5,1,18,03,55,199,39,20,52,304,43,08,50,343,30,13,47,326,35*62
$BDGSV,5,2,18,01,47,137,,30,47,207,40,29,44,287,38,02,39,237,34*64
$BDGSV,5,3,18,04,37,118,,10,28,219,,07,25,206,31,16,25,174,*6A
$BDGSV,5,4,18,06,19,181,34,23,19,078,11,05,16,255,,19,14,267,*69
$BDGSV,5,5,18,09,10,187,,27,07,163,*61
$GNRMC,125207.000,A,3018.4424,N,12004.7396,E,0.10,262.17,270326,,,D*75
$GNVTG,262.17,T,,M,0.10,N,0.19,K,D*2F
$GNGGA,125208.000,3018.4424,N,12004.7397,E,2,19,0.65,-13.3,M,7.0,M,,*5C
$GNGLL,3018.4424,N,12004.7397,E,125208.000,A,D*4F
$GPGSA,A,3,15,20,13,05,18,24,29,21,11,30,,,1.02,0.65,0.78*08
$BDGSA,A,3,03,30,20,13,06,08,29,07,02,,,,1.02,0.65,0.78*1C
$GPGSV,4,1,13,15,69,333,44,20,56,027,27,13,51,033,24,05,45,067,24*74
$GPGSV,4,2,13,18,42,316,42,24,40,176,24,41,36,236,38,29,28,232,44*7A
$GPGSV,4,3,13,21,21,085,18,11,12,144,22,30,06,039,13,194,,,*7B
$GPGSV,4,4,13,195,,,35*40
$BDGSV,5,1,18,03,55,199,39,20,52,304,44,08,50,343,30,13,47,326,35*65
$BDGSV,5,2,18,01,47,137,,30,47,207,40,29,44,287,39,02,39,237,34*65
$BDGSV,5,3,18,04,37,118,,10,28,219,,07,25,206,31,16,25,174,*6A
$BDGSV,5,4,18,06,19,181,34,23,19,078,10,05,16,255,,19,14,267,*68
$BDGSV,5,5,18,09,10,187,,27,07,163,*61
$GNRMC,125208.000,A,3018.4424,N,12004.7397,E,0.12,262.17,270326,,,D*79
$GNVTG,262.17,T,,M,0.12,N,0.23,K,D*24
$GNGGA,125209.000,3018.4424,N,12004.7398,E,2,19,0.65,-13.3,M,7.0,M,,*52
$GNGLL,3018.4424,N,12004.7398,E,125209.000,A,D*41
$GPGSA,A,3,15,20,13,05,18,24,29,21,11,30,,,1.02,0.65,0.78*08
$BDGSA,A,3,03,30,20,13,06,08,29,07,02,,,,1.02,0.65,0.78*1C
$GPGSV,4,1,13,15,69,333,44,20,56,027,28,13,51,033,25,05,45,067,24*7A
$GPGSV,4,2,13,18,42,316,42,24,40,176,25,41,36,236,38,29,28,232,44*7B
$GPGSV,4,3,13,21,21,085,18,11,12,144,22,30,06,039,12,194,,,*7A
$GPGSV,4,4,13,195,,,35*40
$BDGSV,5,1,18,03,55,199,39,20,52,304,44,08,50,343,31,13,47,326,35*64
$BDGSV,5,2,18,01,47,137,,30,47,207,39,29,44,287,38,02,39,237,34*6A
$BDGSV,5,3,18,04,37,118,,10,28,219,,07,25,206,29,16,25,174,*63
$BDGSV,5,4,18,06,19,181,34,23,19,078,12,05,16,255,,19,14,267,*6A
$BDGSV,5,5,18,09,10,187,,27,07,163,*61
$GNRMC,125209.000,A,3018.4424,N,12004.7398,E,0.13,262.17,270326,,,D*76
$GNVTG,262.17,T,,M,0.13,N,0.24,K,D*22
$GNGGA,125210.000,3018.4424,N,12004.7398,E,2,19,0.65,-13.3,M,7.0,M,,*5A
$GNGLL,3018.4424,N,12004.7398,E,125210.000,A,D*49
$GPGSA,A,3,15,20,13,05,18,24,29,21,11,30,,,1.02,0.65,0.78*08
$BDGSA,A,3,03,30,20,13,06,08,29,07,02,,,,1.02,0.65,0.78*1C
$GPGSV,4,1,13,15,69,333,44,20,56,027,28,13,51,033,25,05,45,067,23*7D
$GPGSV,4,2,13,18,42,316,42,24,40,176,27,41,36,236,38,29,28,232,44*79
$GPGSV,4,3,13,21,21,085,18,11,12,144,22,30,06,039,12,194,,,*7A
$GPGSV,4,4,13,195,,,35*40
$BDGSV,5,1,18,03,55,199,39,20,52,304,44,08,50,343,31,13,47,326,35*64
$BDGSV,5,2,18,01,47,137,,30,47,207,40,29,44,287,37,02,39,237,34*6B
$BDGSV,5,3,18,04,37,118,,10,28,219,,07,25,206,29,16,25,174,*63
$BDGSV,5,4,18,06,19,181,33,23,19,078,,05,16,255,,19,14,267,*6E
$BDGSV,5,5,18,09,10,187,,27,07,163,*61
$GNRMC,125210.000,A,3018.4424,N,12004.7398,E,0.08,262.17,270326,,,D*74
$GNVTG,262.17,T,,M,0.08,N,0.14,K,D*2B
$GNGGA,125211.000,3018.4423,N,12004.7398,E,2,19,0.65,-13.3,M,7.0,M,,*5C
$GNGLL,3018.4423,N,12004.7398,E,125211.000,A,D*4F
$GPGSA,A,3,15,20,13,05,18,24,29,21,11,30,,,1.02,0.65,0.78*08
$BDGSA,A,3,03,30,20,13,06,08,29,07,02,,,,1.02,0.65,0.78*1C
$GPGSV,4,1,13,15,69,333,44,20,56,027,28,13,51,033,25,05,45,067,23*7D
$GPGSV,4,2,13,18,42,316,42,24,40,176,27,41,36,236,38,29,28,232,44*79
$GPGSV,4,3,13,21,21,085,18,11,12,144,22,30,06,039,12,194,,,*7A
$GPGSV,4,4,13,195,,,35*40
$BDGSV,5,1,18,03,55,199,39,20,52,304,44,08,50,343,31,13,47,326,36*67
$BDGSV,5,2,18,01,47,137,,30,47,207,40,29,44,287,37,02,39,237,34*6B
$BDGSV,5,3,18,04,37,118,,10,28,219,,07,25,206,29,16,25,174,*63
$BDGSV,5,4,18,06,19,181,32,23,19,078,,05,16,255,,19,14,267,*6F
$BDGSV,5,5,18,09,10,187,,27,07,163,*61
$GNRMC,125211.000,A,3018.4423,N,12004.7398,E,0.06,262.17,270326,,,D*7C
$GNVTG,262.17,T,,M,0.06,N,0.11,K,D*20
$GNGGA,125212.000,3018.4423,N,12004.7399,E,2,18,0.70,-13.2,M,7.0,M,,*5A
$GNGLL,3018.4423,N,12004.7399,E,125212.000,A,D*4D
$GPGSA,A,3,15,20,13,05,18,24,29,11,30,,,,1.05,0.70,0.78*08
$BDGSA,A,3,03,30,20,13,06,08,29,07,02,,,,1.05,0.70,0.78*1F
$GPGSV,4,1,13,15,69,333,44,20,56,027,28,13,51,033,24,05,45,067,23*7C
$GPGSV,4,2,13,18,42,316,42,24,40,176,28,41,36,236,38,29,28,232,44*76
$GPGSV,4,3,13,21,21,085,,11,12,144,22,30,06,039,12,194,,,*73
$GPGSV,4,4,13,195,,,35*40
$BDGSV,5,1,18,03,55,199,39,20,52,304,44,08,50,343,31,13,47,326,36*67
$BDGSV,5,2,18,01,47,137,,30,47,207,40,29,44,287,37,02,39,237,34*6B
$BDGSV,5,3,18,04,37,118,,10,28,219,,07,25,206,28,16,25,174,*62
$BDGSV,5,4,18,06,19,181,32,23,19,078,,05,16,255,,19,14,267,*6F
$BDGSV,5,5,18,09,10,187,,27,07,163,*61
$GNRMC,125212.000,A,3018.4423,N,12004.7399,E,0.06,262.17,270326,,,D*7E
$GNVTG,262.17,T,,M,0.06,N,0.12,K,D*23
$GNGGA,125213.000,3018.4423,N,12004.7399,E,2,18,0.70,-13.2,M,7.0,M,,*5B
$GNGLL,3018.4423,N,12004.7399,E,125213.000,A,D*4C
$GPGSA,A,3,15,20,13,05,18,24,29,11,30,,,,1.05,0.70,0.78*08
$BDGSA,A,3,03,30,20,13,06,08,29,07,02,,,,1.05,0.70,0.78*1F
$GPGSV,4,1,13,15,69,333,44,20,56,027,28,13,51,033,24,05,45,067,24*7B
$GPGSV,4,2,13,18,42,316,42,24,40,176,28,41,36,236,39,29,28,232,43*70
$GPGSV,4,3,13,21,21,085,,11,12,144,22,30,06,039,12,194,,,*73
$GPGSV,4,4,13,195,,,36*43
$BDGSV,5,1,18,03,55,199,38,20,52,304,44,08,50,343,31,13,47,326,36*66
$BDGSV,5,2,18,01,47,137,,30,47,207,39,29,44,287,37,02,39,237,33*62
$BDGSV,5,3,18,04,37,118,,10,28,219,,07,25,206,28,16,25,174,*62
$BDGSV,5,4,18,06,19,181,31,23,19,078,,05,16,255,,19,14,267,*6C
$BDGSV,5,5,18,09,10,187,,27,07,163,*61
$GNRMC,125213.000,A,3018.4423,N,12004.7399,E,0.06,262.17,270326,,,D*7F
$GNVTG,262.17,T,,M,0.06,N,0.12,K,D*23
$GNGGA,125214.000,3018.4422,N,12004.7400,E,2,18,0.70,-13.2,M,7.0,M,,*5A
$GNGLL,3018.4422,N,12004.7400,E,125214.000,A,D*4D
$GPGSA,A,3,15,20,13,05,18,24,29,11,30,,,,1.05,0.70,0.78*08
$BDGSA,A,3,03,30,20,13,06,08,29,07,02,,,,1.05,0.70,0.78*1F
$GPGSV,4,1,14,15,69,333,44,20,56,027,28,13,51,033,24,05,45,067,24*7C
$GPGSV,4,2,14,18,42,316,31,24,40,176,28,41,36,236,39,29,28,232,44*74
$GPGSV,4,3,14,21,21,085,,11,12,144,22,30,06,039,11,194,,,*77
$GPGSV,4,4,14,195,,,35,23,,,35*40
$BDGSV,5,1,18,03,55,199,39,20,52,304,42,08,50,343,31,13,47,326,35*62
$BDGSV,5,2,18,01,47,137,,30,47,207,40,29,44,287,35,02,39,237,33*6E
$BDGSV,5,3,18,04,37,118,,10,28,219,,07,25,206,29,16,25,174,*63
$BDGSV,5,4,18,06,19,181,32,23,19,078,,05,16,255,,19,14,267,*6F
$BDGSV,5,5,18,09,10,187,,27,07,163,*61
$GNRMC,125214.000,A,3018.4422,N,12004.7400,E,0.08,262.17,270326,,,D*70
$GNVTG,262.17,T,,M,0.08,N,0.14,K,D*2B
$GNGGA,125215.000,3018.4422,N,12004.7401,E,2,17,0.75,-13.2,M,7.0,M,,*50
$GNGLL,3018.4422,N,12004.7401,E,125215.000,A,D*4D
$GPGSA,A,3,15,20,13,05,18,24,29,11,,,,,1.16,0.75,0.88*03
$BDGSA,A,3,03,30,20,13,06,08,29,07,02,,,,1.16,0.75,0.88*17
$GPGSV,4,1,14,15,69,333,44,20,56,027,28,13,51,033,23,05,45,067,23*7C
$GPGSV,4,2,14,18,42,316,42,24,40,176,27,41,36,236,40,29,28,232,44*71
$GPGSV,4,3,14,21,21,085,,11,12,144,21,30,06,039,,194,,,*74
$GPGSV,4,4,14,195,,,35,23,,,39*4C
$BDGSV,5,1,18,03,55,199,39,20,52,304,43,08,50,343,31,13,47,326,36*60
$BDGSV,5,2,18,01,47,137,,30,47,207,40,29,44,287,36,02,39,237,34*6A
$BDGSV,5,3,18,04,37,118,,10,28,219,,07,25,206,30,16,25,174,*6B
$BDGSV,5,4,18,06,19,181,32,23,19,078,,05,16,255,,19,14,267,*6F
$BDGSV,5,5,18,09,10,187,,27,07,163,*61
$GNRMC,125215.000,A,3018.4422,N,12004.7401,E,0.11,262.17,270326,,,D*78
$GNVTG,262.17,T,,M,0.11,N,0.20,K,D*24
$GNGGA,125216.000,3018.4421,N,12004.7401,E,2,17,0.75,-13.2,M,7.0,M,,*50
$GNGLL,3018.4421,N,12004.7401,E,125216.000,A,D*4D
$GPGSA,A,3,15,20,13,05,18,24,29,11,,,,,1.16,0.75,0.88*03
$BDGSA,A,3,03,30,20,13,06,08,29,07,02,,,,1.16,0.75,0.88*17
$GPGSV,4,1,14,15,69,333,44,20,56,027,28,13,51,033,23,05,45,067,22*7D
$GPGSV,4,2,14,18,42,316,42,24,40,176,28,41,36,236,40,29,28,232,44*7E
$GPGSV,4,3,14,21,21,085,,11,12,144,21,30,06,039,,194,,,*74
$GPGSV,4,4,14,195,,,35,23,,,42*40
$BDGSV,5,1,18,03,55,199,39,20,52,304,43,08,50,343,31,13,47,326,36*60
$BDGSV,5,2,18,01,47,137,,30,47,207,40,29,44,287,37,02,39,237,34*6B
$BDGSV,5,3,18,04,37,118,,10,28,219,,07,25,206,30,16,25,174,*6B
$BDGSV,5,4,18,06,19,181,32,23,19,078,,05,16,255,,19,14,267,*6F
$BDGSV,5,5,18,09,10,187,,27,07,163,*61
$GNRMC,125216.000,A,3018.4421,N,12004.7401,E,0.15,262.17,270326,,,D*7C
$GNVTG,262.17,T,,M,0.15,N,0.27,K,D*27
$GNGGA,125217.000,3018.4421,N,12004.7402,E,2,17,0.75,-13.2,M,7.0,M,,*52
$GNGLL,3018.4421,N,12004.7402,E,125217.000,A,D*4F
$GPGSA,A,3,15,20,13,05,18,24,29,11,,,,,1.16,0.75,0.88*03
$BDGSA,A,3,03,30,20,13,06,08,29,07,02,,,,1.16,0.75,0.88*17
$GPGSV,4,1,14,15,69,333,44,20,56,027,28,13,51,033,24,05,45,067,21*79
$GPGSV,4,2,14,18,42,316,42,24,40,176,29,41,36,236,40,29,28,232,44*7F
$GPGSV,4,3,14,21,21,085,,11,12,144,21,30,06,039,,194,,,*74
$GPGSV,4,4,14,195,,,35,23,,,42*40
$BDGSV,5,1,18,03,55,199,39,20,52,304,43,08,50,343,31,13,47,326,35*63
$BDGSV,5,2,18,01,47,137,,30,47,207,40,29,44,287,38,02,39,237,34*64
$BDGSV,5,3,18,04,37,118,,10,28,219,,07,25,206,31,16,25,174,*6A
$BDGSV,5,4,18,06,19,181,32,23,19,078,,05,16,255,,19,14,267,*6F
$BDGSV,5,5,18,09,10,187,,27,07,163,*61
$GNRMC,125217.000,A,3018.4421,N,12004.7402,E,0.17,262.17,270326,,,D*7C
$GNVTG,262.17,T,,M,0.17,N,0.31,K,D*22
$GNGGA,125218.000,3018.4421,N,12004.7402,E,2,17,0.75,-13.2,M,7.0,M,,*5D
$GNGLL,3018.4421,N,12004.7402,E,125218.000,A,D*40
$GPGSA,A,3,15,20,13,05,18,24,29,11,,,,,1.16,0.75,0.88*03
$BDGSA,A,3,03,30,20,13,06,08,29,07,02,,,,1.16,0.75,0.88*17
$GPGSV,4,1,14,15,69,333,44,20,56,027,28,13,51,033,24,05,45,067,21*79
$GPGSV,4,2,14,18,42,316,42,24,40,176,29,41,36,236,40,29,28,232,44*7F
$GPGSV,4,3,14,21,21,085,,11,12,144,21,30,06,039,,194,,,*74
$GPGSV,4,4,14,195,,,35,23,,,39*4C
$BDGSV,5,1,18,03,55,199,39,20,52,304,43,08,50,343,30,13,47,326,35*62
$BDGSV,5,2,18,01,47,137,,30,47,207,40,29,44,287,38,02,39,237,34*64
$BDGSV,5,3,18,04,37,118,,10,28,219,,07,25,206,31,16,25,174,*6A
$BDGSV,5,4,18,06,19,181,32,23,19,078,,05,16,255,,19,14,267,*6F
$BDGSV,5,5,18,09,10,187,,27,07,163,*61
$GNRMC,125218.000,A,3018.4421,N,12004.7402,E,0.16,262.17,270326,,,D*72
$GNVTG,262.17,T,,M,0.16,N,0.30,K,D*22
$GNGGA,125219.000,3018.4421,N,12004.7403,E,2,17,0.75,-13.2,M,7.0,M,,*5D
$GNGLL,3018.4421,N,12004.7403,E,125219.000,A,D*40
$GPGSA,A,3,15,20,13,05,18,24,29,11,,,,,1.16,0.75,0.88*03
$BDGSA,A,3,03,30,20,13,06,08,29,07,02,,,,1.16,0.75,0.88*17
$GPGSV,4,1,14,15,69,333,44,20,56,027,28,13,51,033,24,05,45,067,21*79
$GPGSV,4,2,14,18,42,316,42,24,40,176,29,41,36,236,40,29,28,232,44*7F
$GPGSV,4,3,14,21,21,085,,11,12,144,21,30,06,039,,194,,,*74
$GPGSV,4,4,14,195,,,34,23,,,42*41
$BDGSV,5,1,18,03,55,199,39,20,52,304,43,08,50,343,30,13,47,326,35*62
$BDGSV,5,2,18,01,47,137,,30,47,207,40,29,44,287,39,02,39,237,34*65
$BDGSV,5,3,18,04,37,118,,10,28,219,,07,25,206,31,16,25,174,*6A
$BDGSV,5,4,18,06,19,181,32,23,19,078,,05,16,255,,19,14,267,*6F
$BDGSV,5,5,18,09,10,187,,27,07,163,*61
$GNRMC,125219.000,A,3018.4421,N,12004.7403,E,0.13,262.17,270326,,,D*77
$GNVTG,262.17,T,,M,0.13,N,0.24,K,D*22
$GNGGA,125220.000,3018.4421,N,12004.7403,E,2,17,0.75,-13.2,M,7.0,M,,*57
$GNGLL,3018.4421,N,12004.7403,E,125220.000,A,D*4A
$GPGSA,A,3,15,20,13,05,18,24,29,11,,,,,1.16,0.75,0.88*03
$BDGSA,A,3,03,30,20,13,06,08,29,07,02,,,,1.16,0.75,0.88*17
$GPGSV,4,1,14,15,69,333,44,20,56,027,28,13,51,033,24,05,45,067,21*79
$GPGSV,4,2,14,18,42,316,42,24,40,176,29,41,36,236,40,29,28,232,44*7F
$GPGSV,4,3,14,21,21,085,,11,12,144,21,30,06,039,,194,,,*74
$GPGSV,4,4,14,195,,,34,23,,,41*42
$BDGSV,5,1,18,03,55,199,39,20,52,304,43,08,50,343,30,13,47,326,35*62
$BDGSV,5,2,18,01,47,137,,30,47,207,40,29,44,287,39,02,39,237,34*65
$BDGSV,5,3,18,04,37,118,,10,28,219,,07,25,206,31,16,25,174,*6A
$BDGSV,5,4,18,06,20,181,32,23,19,078,,05,16,255,,19,14,267,*65
$BDGSV,5,5,18,09,10,187,,27,07,163,*61
$GNRMC,125220.000,A,3018.4421,N,12004.7403,E,0.11,262.17,270326,,,D*7F
$GNVTG,262.17,T,,M,0.11,N,0.20,K,D*24
$GNGGA,125221.000,3018.4421,N,12004.7404,E,2,17,0.75,-13.2,M,7.0,M,,*51
$GNGLL,3018.4421,N,12004.7404,E,125221.000,A,D*4C
$GPGSA,A,3,15,20,13,05,18,24,29,11,,,,,1.16,0.75,0.88*03
$BDGSA,A,3,03,30,20,13,06,08,29,07,02,,,,1.16,0.75,0.88*17
$GPGSV,4,1,14,15,69,333,44,20,56,027,28,13,51,033,24,05,45,067,21*79
$GPGSV,4,2,14,18,42,316,42,24,40,176,29,41,36,236,40,29,28,232,44*7F
$GPGSV,4,3,14,21,21,085,,11,12,144,20,30,06,039,,194,,,*75
$GPGSV,4,4,14,195,,,33,23,,,41*45
$BDGSV,5,1,18,03,55,199,39,20,52,304,44,08,50,343,30,13,47,326,35*65
$BDGSV,5,2,18,01,47,137,,30,47,207,40,29,44,287,39,02,39,237,34*65
$BDGSV,5,3,18,04,37,118,,10,28,219,,07,25,206,31,16,25,174,*6A
$BDGSV,5,4,18,06,20,181,32,23,19,078,,05,16,255,,19,14,267,*65
$BDGSV,5,5,18,09,10,187,,27,07,163,*61
$GNRMC,125221.000,A,3018.4421,N,12004.7404,E,0.10,262.17,270326,,,D*78
$GNVTG,262.17,T,,M,0.10,N,0.19,K,D*2F
$GNGGA,125222.000,3018.4421,N,12004.7404,E,2,17,0.75,-13.1,M,7.0,M,,*51
$GNGLL,3018.4421,N,12004.7404,E,125222.000,A,D*4F
$GPGSA,A,3,15,20,13,05,18,24,29,11,,,,,1.16,0.75,0.88*03
$BDGSA,A,3,03,30,20,13,06,08,29,07,02,,,,1.16,0.75,0.88*17
$GPGSV,4,1,14,15,69,333,44,20,56,027,28,13,51,033,23,05,45,067,22*7D
$GPGSV,4,2,14,18,42,316,42,24,40,176,29,41,36,236,40,29,28,232,44*7F
$GPGSV,4,3,14,21,21,085,,11,12,144,19,30,06,039,,194,,,*7F
$GPGSV,4,4,14,195,,,33,23,,,40*44
$BDGSV,5,1,18,03,55,199,39,20,52,304,43,08,51,343,30,13,47,326,35*63
$BDGSV,5,2,18,01,47,137,,30,47,207,40,29,44,287,40,02,39,237,34*6B
$BDGSV,5,3,18,04,37,118,,10,28,219,,07,25,206,31,16,25,174,*6A
$BDGSV,5,4,18,06,20,181,31,23,19,078,,05,16,255,,19,14,267,*66
$BDGSV,5,5,18,09,10,187,,27,07,163,*61
$GNRMC,125222.000,A,3018.4421,N,12004.7404,E,0.11,262.17,270326,,,D*7A
$GNVTG,262.17,T,,M,0.11,N,0.20,K,D*24
$GNGGA,125223.000,3018.4421,N,12004.7404,E,2,16,0.79,-13.1,M,7.0,M,,*5D
$GNGLL,3018.4421,N,12004.7404,E,125223.000,A,D*4E
$GPGSA,A,3,15,20,05,18,24,29,11,,,,,,1.18,0.79,0.88*03
$BDGSA,A,3,03,30,20,13,06,08,29,07,02,,,,1.18,0.79,0.88*15
$GPGSV,4,1,14,15,69,333,43,20,56,027,27,13,51,033,22,05,45,067,22*74
$GPGSV,4,2,14,18,42,316,42,24,40,176,27,41,36,236,40,29,28,232,44*71
$GPGSV,4,3,14,21,21,085,,11,12,144,19,30,06,039,,194,,,*7F
$GPGSV,4,4,14,195,,,34,23,,,40*43
$BDGSV,5,1,18,03,55,199,39,20,52,304,43,08,51,343,30,13,47,326,35*63
$BDGSV,5,2,18,01,47,137,,30,47,207,40,29,44,287,40,02,39,237,34*6B
$BDGSV,5,3,18,04,37,118,,10,28,219,,07,25,206,22,16,25,174,*68
$BDGSV,5,4,18,06,20,181,32,23,19,078,,05,16,255,,19,14,267,*65
$BDGSV,5,5,18,09,10,187,,27,07,163,*61
$GNRMC,125223.000,A,3018.4421,N,12004.7404,E,0.13,262.17,270326,,,D*79
$GNVTG,262.17,T,,M,0.13,N,0.23,K,D*25
$GNGGA,125224.000,3018.4421,N,12004.7405,E,2,16,0.79,-13.1,M,7.0,M,,*5B
$GNGLL,3018.4421,N,12004.7405,E,125224.000,A,D*48
$GPGSA,A,3,15,20,05,18,24,29,11,,,,,,1.18,0.79,0.88*03
$BDGSA,A,3,03,30,20,13,06,08,29,07,02,,,,1.18,0.79,0.88*15
$GPGSV,4,1,14,15,69,333,43,20,56,027,26,13,51,033,21,05,45,067,22*76
$GPGSV,4,2,14,18,42,316,42,24,40,176,26,41,36,236,40,29,28,232,44*70
$GPGSV,4,3,14,21,21,085,,11,12,144,19,30,06,039,,194,,,*7F
$GPGSV,4,4,14,195,,,35,23,,,40*42
$BDGSV,5,1,18,03,55,199,39,20,52,304,42,08,51,343,30,13,47,326,36*61
$BDGSV,5,2,18,01,47,137,,30,47,207,40,29,44,287,33,02,39,237,33*68
$BDGSV,5,3,18,04,37,118,,10,28,219,,07,25,206,24,16,25,174,*6E
$BDGSV,5,4,18,06,20,181,33,23,19,078,,05,16,255,,19,14,267,*64
$BDGSV,5,5,18,09,10,187,,27,07,163,*61
$GNRMC,125224.000,A,3018.4421,N,12004.7405,E,0.12,262.17,270326,,,D*7E
$GNVTG,262.17,T,,M,0.12,N,0.23,K,D*24
$GNGGA,125225.000,3018.4420,N,12004.7406,E,2,17,0.75,-13.1,M,7.0,M,,*55
$GNGLL,3018.4420,N,12004.7406,E,125225.000,A,D*4B
$GPGSA,A,3,15,20,13,05,18,24,29,11,,,,,1.16,0.75,0.88*03
$BDGSA,A,3,03,30,20,13,06,08,29,07,02,,,,1.16,0.75,0.88*17
$GPGSV,4,1,14,15,69,333,43,20,56,027,26,13,51,033,21,05,45,067,22*76
$GPGSV,4,2,14,18,42,316,41,24,40,176,27,41,36,236,40,29,28,232,43*75
$GPGSV,4,3,14,21,21,085,,11,12,144,19,30,06,039,,194,,,*7F
$GPGSV,4,4,14,195,,,35,23,,,41*43
$BDGSV,5,1,18,03,55,199,39,20,52,304,43,08,51,343,30,13,47,326,35*63
$BDGSV,5,2,18,01,47,137,,30,47,207,40,29,44,287,35,02,39,237,33*6E
$BDGSV,5,3,18,04,37,118,,10,28,219,,07,25,206,26,16,25,174,*6C
$BDGSV,5,4,18,06,20,181,33,23,19,078,,05,16,255,,19,14,267,*64
$BDGSV,5,5,18,09,10,187,,27,07,163,*61
$GNRMC,125225.000,A,3018.4420,N,12004.7406,E,0.10,262.17,270326,,,D*7F
$GNVTG,262.17,T,,M,0.10,N,0.19,K,D*2F
$GNGGA,125226.000,3018.4420,N,12004.7406,E,2,16,0.79,-13.1,M,7.0,M,,*5B
$GNGLL,3018.4420,N,12004.7406,E,125226.000,A,D*48
$GPGSA,A,3,15,20,05,18,24,29,11,,,,,,1.18,0.79,0.88*03
$BDGSA,A,3,03,30,20,13,06,08,29,07,02,,,,1.18,0.79,0.88*15
$GPGSV,4,1,14,15,69,333,43,20,56,027,26,13,51,033,20,05,45,067,22*77
$GPGSV,4,2,14,18,42,316,41,24,40,176,28,41,36,236,39,29,28,232,43*74
$GPGSV,4,3,14,21,21,085,,11,12,144,19,30,06,039,,194,,,*7F
$GPGSV,4,4,14,195,,,35,23,,,42*40
$BDGSV,5,1,18,03,55,199,39,20,52,304,43,08,51,343,31,13,47,326,36*61
$BDGSV,5,2,18,01,47,137,,30,47,207,40,29,44,287,34,02,39,237,33*6F
$BDGSV,5,3,18,04,37,118,,10,28,219,,07,25,206,28,16,25,174,*62
$BDGSV,5,4,18,06,20,181,33,23,19,078,,05,16,255,,19,14,267,*64
$BDGSV,5,5,18,09,10,187,,27,07,163,*61
$GNRMC,125226.000,A,3018.4420,N,12004.7406,E,0.08,262.17,270326,,,D*75
$GNVTG,262.17,T,,M,0.08,N,0.15,K,D*2A
$GNGGA,125227.000,3018.4419,N,12004.7407,E,2,17,0.75,-13.1,M,7.0,M,,*5C
$GNGLL,3018.4419,N,12004.7407,E,125227.000,A,D*42
$GPGSA,A,3,15,20,13,05,18,24,29,11,,,,,1.16,0.75,0.88*03
$BDGSA,A,3,03,30,20,13,06,08,29,07,02,,,,1.16,0.75,0.88*17
$GPGSV,4,1,14,15,69,333,43,20,56,027,25,13,51,033,22,05,45,067,21*75
$GPGSV,4,2,14,18,42,316,34,24,40,176,29,41,36,236,39,29,28,232,44*70
$GPGSV,4,3,14,21,21,085,,11,12,144,19,30,06,039,,194,,,*7F
$GPGSV,4,4,14,195,,,36,23,,,41*40
$BDGSV,5,1,18,03,55,199,39,20,52,304,44,08,51,343,30,13,47,326,37*66
$BDGSV,5,2,18,01,47,137,,30,47,207,40,29,44,287,35,02,39,237,34*69
$BDGSV,5,3,18,04,37,118,,10,28,219,,07,25,206,29,16,25,174,*63
$BDGSV,5,4,18,06,20,181,33,23,19,078,,05,16,255,,19,14,267,*64
$BDGSV,5,5,18,09,10,187,,27,07,163,*61
$GNRMC,125227.000,A,3018.4419,N,12004.7407,E,0.09,262.17,270326,,,D*7E
$GNVTG,262.17,T,,M,0.09,N,0.16,K,D*28
$GNGGA,125228.000,3018.4419,N,12004.7409,E,2,17,0.75,-13.1,M,7.0,M,,*5D
$GNGLL,3018.4419,N,12004.7409,E,125228.000,A,D*43
$GPGSA,A,3,15,20,13,05,18,24,29,11,,,,,1.16,0.75,0.88*03
$BDGSA,A,3,03,30,20,13,06,08,29,07,02,,,,1.16,0.75,0.88*17
$GPGSV,4,1,14,15,69,333,42,20,56,027,27,13,51,033,32,05,45,067,21*77
$GPGSV,4,2,14,18,42,316,36,24,40,176,28,41,36,236,40,29,28,232,44*7D
$GPGSV,4,3,14,21,21,085,,11,12,144,19,30,06,039,,194,,,*7F
$GPGSV,4,4,14,195,,,36,23,,,40*41
$BDGSV,5,1,18,03,55,199,39,20,52,304,43,08,51,343,31,13,47,326,36*61
$BDGSV,5,2,18,01,47,137,,30,47,207,40,29,44,287,35,02,39,237,34*69
$BDGSV,5,3,18,04,37,118,,10,28,219,,07,25,206,29,16,25,174,*63
$BDGSV,5,4,18,06,20,181,33,23,19,078,,05,16,255,,19,14,267,*64
$BDGSV,5,5,18,09,10,187,,27,07,163,*61
$GNRMC,125228.000,A,3018.4419,N,12004.7409,E,0.07,262.17,270326,,,D*71
$GNVTG,262.17,T,,M,0.07,N,0.12,K,D*22
$GNGGA,125229.000,3018.4420,N,12004.7407,E,2,17,0.75,-13.1,M,7.0,M,,*58
$GNGLL,3018.4420,N,12004.7407,E,125229.000,A,D*46
$GPGSA,A,3,15,20,13,05,18,24,29,11,,,,,1.16,0.75,0.88*03
$BDGSA,A,3,03,30,20,13,06,08,29,07,02,,,,1.16,0.75,0.88*17
$GPGSV,4,1,14,15,69,333,43,20,56,027,28,13,51,033,32,05,45,067,22*7A
$GPGSV,4,2,14,18,42,316,36,24,40,176,28,41,36,236,38,29,28,232,43*75
$GPGSV,4,3,14,21,21,085,,11,12,144,19,30,06,039,,194,,,*7F
$GPGSV,4,4,14,195,,,36,23,,,40*41
$BDGSV,5,1,18,03,55,199,39,20,52,304,44,08,51,343,33,13,47,326,37*65
$BDGSV,5,2,18,01,47,137,,30,47,207,39,29,44,287,37,02,39,237,33*62
$BDGSV,5,3,18,04,37,118,,10,28,219,,07,25,206,30,16,25,174,*6B
$BDGSV,5,4,18,06,20,181,34,23,19,078,,05,16,255,,19,14,267,*63
$BDGSV,5,5,18,09,10,187,,27,07,163,*61
$GNRMC,125229.000,A,3018.4420,N,12004.7407,E,0.06,262.17,270326,,,D*75
$GNVTG,262.17,T,,M,0.06,N,0.12,K,D*23
$GNGGA,125230.000,3018.4420,N,12004.7408,E,2,17,0.75,-13.1,M,7.0,M,,*5F
$GNGLL,3018.4420,N,12004.7408,E,125230.000,A,D*41
$GPGSA,A,3,15,20,13,05,18,24,29,11,,,,,1.16,0.75,0.88*03
$BDGSA,A,3,03,30,20,13,06,08,29,07,02,,,,1.16,0.75,0.88*17
$GPGSV,4,1,14,15,69,333,44,20,56,027,29,13,51,033,31,05,45,067,23*7E
$GPGSV,4,2,14,18,42,316,37,24,40,176,26,41,36,236,39,29,28,232,43*7B
$GPGSV,4,3,14,21,21,085,,11,12,144,19,30,06,039,,194,,,*7F
$GPGSV,4,4,14,195,,,35,23,,,40*42
$BDGSV,5,1,18,03,55,199,37,20,52,304,45,08,51,343,35,13,47,326,38*63
$BDGSV,5,2,18,01,47,137,,30,47,207,38,29,44,287,37,02,39,237,33*63
$BDGSV,5,3,18,04,37,118,,10,28,219,,07,25,206,28,16,25,174,*62
$BDGSV,5,4,18,06,20,181,33,23,19,078,,05,16,255,,19,14,267,*64
$BDGSV,5,5,18,09,10,187,,27,07,163,*61
$GNRMC,125230.000,A,3018.4420,N,12004.7408,E,0.12,262.17,270326,,,D*77
$GNVTG,262.17,T,,M,0.12,N,0.22,K,D*25
$GNGGA,125231.000,3018.4420,N,12004.7408,E,2,17,0.75,-13.1,M,7.0,M,,*5E
$GNGLL,3018.4420,N,12004.7408,E,125231.000,A,D*40
$GPGSA,A,3,15,20,13,05,18,24,29,11,,,,,1.16,0.75,0.88*03
$BDGSA,A,3,03,30,20,13,06,08,29,07,02,,,,1.16,0.75,0.88*17
$GPGSV,4,1,14,15,69,333,44,20,56,027,30,13,51,033,32,05,45,067,23*75
$GPGSV,4,2,14,18,42,316,37,24,40,176,26,41,36,236,40,29,28,232,43*75
$GPGSV,4,3,14,21,21,085,,11,12,144,18,30,06,039,,194,,,*7E
$GPGSV,4,4,14,195,,,25,23,,,41*42
$BDGSV,5,1,18,03,55,199,37,20,52,304,45,08,51,343,36,13,47,326,39*61
$BDGSV,5,2,18,01,47,137,,30,47,207,38,29,44,287,38,02,39,237,33*6C
$BDGSV,5,3,18,04,37,118,,10,28,219,,07,25,206,29,16,25,174,*63
$BDGSV,5,4,18,06,20,181,32,23,19,078,,05,16,255,,19,14,267,*65
$BDGSV,5,5,18,09,10,187,,27,07,163,*61
$GNRMC,125231.000,A,3018.4420,N,12004.7408,E,0.31,262.17,270326,,,D*77
$GNVTG,262.17,T,,M,0.31,N,0.57,K,D*26
$GNGGA,125232.000,3018.4420,N,12004.7408,E,2,17,0.75,-13.1,M,7.0,M,,*5D
$GNGLL,3018.4420,N,12004.7408,E,125232.000,A,D*43
$GPGSA,A,3,15,20,13,05,18,24,29,11,,,,,1.16,0.75,0.88*03
$BDGSA,A,3,03,30,20,13,06,08,29,07,02,,,,1.16,0.75,0.88*17
$GPGSV,4,1,14,15,69,333,44,20,56,027,30,13,51,033,32,05,45,067,23*75
$GPGSV,4,2,14,18,42,316,37,24,40,176,24,41,36,236,41,29,28,232,43*76
$GPGSV,4,3,14,21,21,085,,11,12,144,16,30,06,039,,194,,,*70
$GPGSV,4,4,14,195,,,18,23,,,41*4C
$BDGSV,5,1,18,03,55,199,37,20,52,304,45,08,51,343,36,13,47,326,39*61
$BDGSV,5,2,18,01,47,137,,30,47,207,39,29,44,287,38,02,39,237,34*6A
$BDGSV,5,3,18,04,37,118,,10,28,219,,07,25,206,30,16,25,174,*6B
$BDGSV,5,4,18,06,20,181,31,23,19,078,,05,16,255,,19,14,267,*66
$BDGSV,5,5,18,09,10,187,,27,07,163,*61
$GNRMC,125232.000,A,3018.4420,N,12004.7408,E,0.12,262.17,270326,,,D*75
$GNVTG,262.17,T,,M,0.12,N,0.22,K,D*25
$GNGGA,125233.000,3018.4420,N,12004.7408,E,2,18,0.69,-13.1,M,7.0,M,,*5E
$GNGLL,3018.4420,N,12004.7408,E,125233.000,A,D*42
$GPGSA,A,3,15,20,13,05,18,24,29,21,11,,,,1.10,0.69,0.86*05
$BDGSA,A,3,03,30,20,13,06,08,29,07,02,,,,1.10,0.69,0.86*12
$GPGSV,4,1,14,15,69,333,44,20,56,027,30,13,51,033,32,05,45,067,24*72
$GPGSV,4,2,14,18,42,316,36,24,40,176,25,41,36,236,41,29,28,232,44*71
$GPGSV,4,3,14,21,21,085,20,11,12,144,15,30,06,039,,194,,,*71
$GPGSV,4,4,14,195,,,25,23,,,42*41
$BDGSV,5,1,18,03,55,199,37,20,52,304,45,08,51,343,37,13,47,326,39*60
$BDGSV,5,2,18,01,47,137,,30,47,207,38,29,44,287,37,02,39,237,34*64
$BDGSV,5,3,18,04,37,118,,10,28,219,,07,25,206,30,16,25,174,*6B
$BDGSV,5,4,18,06,20,181,30,23,19,078,,05,16,255,,19,15,268,*69
$BDGSV,5,5,18,09,10,187,,27,07,163,*61
$GNRMC,125233.000,A,3018.4420,N,12004.7408,E,0.34,262.17,270326,,,D*70
$GNVTG,262.17,T,,M,0.34,N,0.63,K,D*24
$GNGGA,125234.000,3018.4421,N,12004.7408,E,2,18,0.69,-13.1,M,7.0,M,,*58
$GNGLL,3018.4421,N,12004.7408,E,125234.000,A,D*44
$GPGSA,A,3,15,20,13,05,18,24,29,21,11,,,,1.10,0.69,0.86*05
$BDGSA,A,3,03,30,20,13,06,08,29,07,02,,,,1.10,0.69,0.86*12
$GPGSV,4,1,14,15,69,333,44,20,56,027,30,13,51,033,32,05,45,067,24*72
$GPGSV,4,2,14,18,42,316,38,24,40,176,24,41,36,236,42,29,28,232,44*7D
$GPGSV,4,3,14,21,21,085,21,11,12,144,14,30,06,039,,194,,,*71
$GPGSV,4,4,14,195,,,23,23,,,41*44
$BDGSV,5,1,18,03,55,199,36,20,52,305,45,08,51,343,37,13,47,326,40*6E
$BDGSV,5,2,18,01,47,137,,30,47,207,39,29,44,287,37,02,39,237,34*65
$BDGSV,5,3,18,04,37,118,,10,28,219,,07,25,206,30,16,25,174,*6B
$BDGSV,5,4,18,06,20,181,30,23,19,078,,05,16,255,,19,15,268,*69
$BDGSV,5,5,18,09,10,187,,27,07,163,*61
$GNRMC,125234.000,A,3018.4421,N,12004.7408,E,0.20,262.17,270326,,,D*73
$GNVTG,262.17,T,,M,0.20,N,0.36,K,D*21
$GNGGA,125235.000,3018.4421,N,12004.7407,E,2,17,0.73,-13.1,M,7.0,M,,*52
$GNGLL,3018.4421,N,12004.7407,E,125235.000,A,D*4A
$GPGSA,A,3,15,20,13,05,18,24,29,21,,,,,1.14,0.73,0.88*04
$BDGSA,A,3,03,30,20,13,06,08,29,07,02,,,,1.14,0.73,0.88*13
$GPGSV,4,1,14,15,69,333,44,20,56,027,30,13,51,033,32,05,45,067,24*72
$GPGSV,4,2,14,18,42,316,39,24,40,176,24,41,36,236,43,29,28,232,44*7D
$GPGSV,4,3,14,21,21,085,19,11,12,144,,30,06,039,,194,,,*7F
$GPGSV,4,4,14,195,,,23,23,,,40*45
$BDGSV,5,1,18,03,55,199,36,20,52,305,45,08,51,343,37,13,47,326,40*6E
$BDGSV,5,2,18,01,47,137,,30,47,207,39,29,44,287,36,02,39,237,35*65
$BDGSV,5,3,18,04,37,118,,10,28,219,,07,25,206,30,16,25,174,*6B
$BDGSV,5,4,18,06,20,181,30,23,19,078,,05,16,255,,19,15,268,*69
$BDGSV,5,5,18,09,10,187,,27,07,163,*61
$GNRMC,125235.000,A,3018.4421,N,12004.7407,E,0.17,262.17,270326,,,D*79
$GNVTG,262.17,T,,M,0.17,N,0.31,K,D*22
$GNGGA,125236.000,3018.4421,N,12004.7407,E,2,17,0.72,-13.1,M,7.0,M,,*50
$GNGLL,3018.4421,N,12004.7407,E,125236.000,A,D*49
$GPGSA,A,3,15,20,13,05,18,24,29,21,,,,,1.14,0.72,0.88*05
$BDGSA,A,3,03,30,20,13,06,08,29,07,02,,,,1.14,0.72,0.88*12
$GPGSV,4,1,14,15,69,333,44,20,56,027,30,13,51,033,33,05,45,067,23*74
$GPGSV,4,2,14,18,42,316,40,24,40,176,24,41,36,236,43,29,28,232,43*74
$GPGSV,4,3,14,21,21,085,20,11,12,144,,30,06,039,,194,,,*75
$GPGSV,4,4,14,195,,,22,23,,,41*45
$BDGSV,5,1,18,03,55,199,35,20,52,305,45,08,51,343,37,13,47,326,40*6D
$BDGSV,5,2,18,01,47,137,,30,47,207,40,29,44,287,36,02,39,237,35*6B
$BDGSV,5,3,18,04,37,118,,10,28,219,,07,25,206,31,16,25,174,*6A
$BDGSV,5,4,18,06,20,181,29,23,19,078,,05,16,255,,19,15,268,*61
$BDGSV,5,5,18,09,10,187,,27,07,163,*61
$GNRMC,125236.000,A,3018.4421,N,12004.7407,E,0.18,262.17,270326,,,D*75
$GNVTG,262.17,T,,M,0.18,N,0.33,K,D*2F
$GNGGA,125237.000,3018.4421,N,12004.7407,E,2,17,0.73,-13.1,M,7.0,M,,*50
$GNGLL,3018.4421,N,12004.7407,E,125237.000,A,D*48
$GPGSA,A,3,15,20,13,05,18,24,29,21,,,,,1.14,0.73,0.88*04
$BDGSA,A,3,03,30,20,13,06,08,29,07,02,,,,1.14,0.73,0.88*13
$GPGSV,4,1,14,15,69,333,44,20,56,027,30,13,51,033,33,05,45,067,23*74
$GPGSV,4,2,14,18,42,316,40,24,40,176,24,41,36,236,43,29,28,232,44*73
$GPGSV,4,3,14,21,21,085,20,11,12,144,,30,06,039,,194,,,*75
$GPGSV,4,4,14,195,,,21,23,,,41*46
$BDGSV,5,1,18,03,55,199,36,20,52,305,45,08,51,343,37,13,47,326,40*6E
$BDGSV,5,2,18,01,47,137,,30,47,207,38,29,44,287,37,02,39,237,34*64
$BDGSV,5,3,18,04,37,118,,10,28,219,,07,25,206,24,16,25,174,*6E
$BDGSV,5,4,18,06,20,181,29,23,19,078,,05,16,255,,19,15,268,*61
$BDGSV,5,5,18,09,10,187,,27,07,163,*61
$GNRMC,125237.000,A,3018.4421,N,12004.7407,E,0.20,262.17,270326,,,D*7F
$GNVTG,262.17,T,,M,0.20,N,0.38,K,D*2F
$GNGGA,125238.000,3018.4421,N,12004.7407,E,2,16,0.76,-13.2,M,7.0,M,,*58
$GNGLL,3018.4421,N,12004.7407,E,125238.000,A,D*47
$GPGSA,A,3,15,20,13,05,18,29,21,,,,,,1.17,0.76,0.89*05
$BDGSA,A,3,03,30,20,13,06,08,29,07,02,,,,1.17,0.76,0.89*14
$GPGSV,4,1,14,15,69,333,44,20,56,027,30,13,51,033,33,05,45,067,23*74
$GPGSV,4,2,14,18,42,316,40,24,40,176,23,41,36,236,43,29,28,232,44*74
$GPGSV,4,3,14,21,21,085,20,11,12,144,,30,06,039,,194,,,*75
$GPGSV,4,4,14,195,,,21,23,,,41*46
$BDGSV,5,1,18,03,55,199,35,20,52,305,45,08,51,343,37,13,47,326,39*63
$BDGSV,5,2,18,01,47,137,,30,47,207,39,29,44,287,27,02,39,237,35*65
$BDGSV,5,3,18,04,37,118,,10,28,219,,07,25,206,25,16,25,174,*6F
$BDGSV,5,4,18,06,20,181,28,23,19,078,,05,16,255,,19,15,268,*60
$BDGSV,5,5,18,09,10,187,,27,07,163,*61
$GNRMC,125238.000,A,3018.4421,N,12004.7407,E,0.37,262.17,270326,,,D*76
$GNVTG,262.17,T,,M,0.37,N,0.68,K,D*2C
$GNGGA,125239.000,3018.4421,N,12004.7406,E,2,16,0.76,-13.1,M,7.0,M,,*5B
$GNGLL,3018.4421,N,12004.7406,E,125239.000,A,D*47
$GPGSA,A,3,15,20,13,05,18,29,21,,,,,,1.17,0.76,0.89*05
$BDGSA,A,3,03,30,20,13,06,08,29,07,02,,,,1.17,0.76,0.89*14
$GPGSV,4,1,14,15,69,333,45,20,56,027,30,13,51,033,33,05,45,067,23*75
$GPGSV,4,2,14,18,42,316,40,24,40,176,22,41,36,236,43,29,28,232,44*75
$GPGSV,4,3,14,21,21,085,20,11,12,144,,30,06,039,,194,,,*75
$GPGSV,4,4,14,195,,,23,23,,,41*44
$BDGSV,5,1,18,03,55,199,35,20,52,305,45,08,51,343,38,13,47,326,39*6C
$BDGSV,5,2,18,01,47,137,,30,47,207,39,29,44,287,39,02,39,237,35*6A
$BDGSV,5,3,18,04,37,118,,10,28,219,,07,25,206,25,16,25,174,*6F
$BDGSV,5,4,18,06,20,181,28,23,19,078,,05,16,255,,19,15,268,*60
$BDGSV,5,5,18,09,10,187,,27,07,163,*61
$GNRMC,125239.000,A,3018.4421,N,12004.7406,E,0.23,262.17,270326,,,D*73
$GNVTG,262.17,T,,M,0.23,N,0.43,K,D*20
$GNGGA,125240.000,3018.4421,N,12004.7406,E,2,16,0.76,-13.2,M,7.0,M,,*56
$GNGLL,3018.4421,N,12004.7406,E,125240.000,A,D*49
$GPGSA,A,3,15,20,13,05,18,29,21,,,,,,1.17,0.76,0.89*05
$BDGSA,A,3,03,30,20,13,06,08,29,07,02,,,,1.17,0.76,0.89*14
$GPGSV,4,1,14,15,69,333,45,20,56,027,30,13,51,033,33,05,45,067,24*72
$GPGSV,4,2,14,18,42,316,40,24,40,176,21,41,36,236,44,29,28,232,44*71
$GPGSV,4,3,14,21,21,085,20,11,12,144,,30,06,039,,194,,,*75
$GPGSV,4,4,14,195,,,22,23,,,41*45
$BDGSV,5,1,18,03,55,199,35,20,52,305,45,08,51,343,38,13,47,326,39*6C
$BDGSV,5,2,18,01,47,137,,30,47,207,39,29,44,287,39,02,39,237,36*69
$BDGSV,5,3,18,04,37,118,,10,28,219,,07,25,206,25,16,25,174,*6F
$BDGSV,5,4,18,06,20,181,28,23,19,078,,05,16,255,,19,15,268,*60
$BDGSV,5,5,18,09,10,187,,27,07,163,*61
$GNRMC,125240.000,A,3018.4421,N,12004.7406,E,0.21,262.17,270326,,,D*7F
$GNVTG,262.17,T,,M,0.21,N,0.39,K,D*2F
$GNGGA,125241.000,3018.4422,N,12004.7406,E,2,17,0.72,-13.2,M,7.0,M,,*51
$GNGLL,3018.4422,N,12004.7406,E,125241.000,A,D*4B
$GPGSA,A,3,15,20,13,05,18,24,29,21,,,,,1.14,0.72,0.88*05
$BDGSA,A,3,03,30,20,13,06,08,29,07,02,,,,1.14,0.72,0.88*12
$GPGSV,4,1,14,15,69,333,46,20,56,027,30,13,51,033,33,05,45,067,24*71
$GPGSV,4,2,14,18,42,316,39,24,40,176,21,41,36,236,43,29,28,232,45*79
$GPGSV,4,3,14,21,21,085,21,11,12,144,,30,06,039,,194,,,*74
$GPGSV,4,4,14,195,,,23,23,,,40*45
$BDGSV,5,1,18,03,55,199,34,20,52,305,45,08,51,343,38,13,47,326,39*6D
$BDGSV,5,2,18,01,47,137,,30,47,207,38,29,44,287,39,02,39,237,36*68
$BDGSV,5,3,18,04,37,118,,10,28,219,,07,25,206,25,16,25,174,*6F
$BDGSV,5,4,18,06,20,181,27,23,19,078,,05,16,255,,19,15,268,*6F
$BDGSV,5,5,18,09,10,187,,27,06,163,*60
$GNRMC,125241.000,A,3018.4422,N,12004.7406,E,0.50,262.17,270326,,,D*7B
$GNVTG,262.17,T,,M,0.50,N,0.93,K,D*29
$GNGGA,125242.000,3018.4422,N,12004.7405,E,2,17,0.72,-13.2,M,7.0,M,,*51
$GNGLL,3018.4422,N,12004.7405,E,125242.000,A,D*4B
$GPGSA,A,3,15,20,13,05,18,24,29,21,,,,,1.14,0.72,0.88*05
$BDGSA,A,3,03,30,20,13,06,08,29,07,02,,,,1.14,0.72,0.88*12
$GPGSV,4,1,14,15,69,333,44,20,56,027,29,13,51,033,33,05,45,067,24*7B
$GPGSV,4,2,14,18,42,316,40,24,40,176,29,41,36,236,33,29,28,232,43*7E
$GPGSV,4,3,14,21,21,085,21,11,12,144,,30,06,039,,194,,,*74
$GPGSV,4,4,14,195,,,39,23,,,41*4F
$BDGSV,5,1,18,03,55,199,41,20,52,305,45,08,51,343,36,13,47,326,32*6A
$BDGSV,5,2,18,01,47,137,,30,47,207,39,29,44,287,40,02,39,237,29*69
$BDGSV,5,3,18,04,37,118,,10,28,219,,07,25,206,26,16,25,174,*6C
$BDGSV,5,4,18,06,20,181,35,23,19,078,,05,16,255,,19,15,268,*6C
$BDGSV,5,5,18,09,10,187,,27,06,163,*60
$GNRMC,125242.000,A,3018.4422,N,12004.7405,E,0.17,262.17,270326,,,D*78
$GNVTG,262.17,T,,M,0.17,N,0.32,K,D*21
$GNGGA,125243.000,3018.4422,N,12004.7405,E,2,17,0.72,-13.2,M,7.0,M,,*50
$GNGLL,3018.4422,N,12004.7405,E,125243.000,A,D*4A
$GPGSA,A,3,15,20,13,05,18,24,29,21,,,,,1.14,0.72,0.88*05
$BDGSA,A,3,03,30,20,13,06,08,29,07,02,,,,1.14,0.72,0.88*12
$GPGSV,4,1,14,15,69,333,44,20,56,027,27,13,51,033,24,05,45,067,24*73
$GPGSV,4,2,14,18,42,316,30,24,40,176,29,41,36,236,41,29,28,232,43*7C
$GPGSV,4,3,14,21,21,085,21,11,12,144,,30,06,039,,194,,,*74
$GPGSV,4,4,14,195,,,38,23,,,33*4B
$BDGSV,5,1,18,03,55,199,40,20,52,305,44,08,51,343,35,13,47,326,33*68
$BDGSV,5,2,18,01,47,137,,30,47,207,40,29,44,286,38,02,39,237,31*60
$BDGSV,5,3,18,04,37,118,,10,28,219,,07,25,206,28,16,25,174,*62
$BDGSV,5,4,18,06,20,181,35,23,19,078,,05,16,255,,19,15,268,*6C
$BDGSV,5,5,18,09,10,187,,27,06,163,*60
$GNRMC,125243.000,A,3018.4422,N,12004.7405,E,0.15,262.17,270326,,,D*7B
$GNVTG,262.17,T,,M,0.15,N,0.28,K,D*28
$GNGGA,125244.000,3018.4422,N,12004.7405,E,2,17,0.72,-13.2,M,7.0,M,,*57
$GNGLL,3018.4422,N,12004.7405,E,125244.000,A,D*4D
$GPGSA,A,3,15,20,13,05,18,24,29,21,,,,,1.14,0.72,0.88*05
$BDGSA,A,3,03,30,20,13,06,08,29,07,02,,,,1.14,0.72,0.88*12
$GPGSV,4,1,14,15,69,333,44,20,56,027,28,13,51,033,24,05,45,067,25*7D
$GPGSV,4,2,14,18,42,316,40,24,40,176,29,41,36,236,40,29,28,232,43*7A
$GPGSV,4,3,14,21,21,085,21,11,12,144,,30,06,039,,194,,,*74
$GPGSV,4,4,14,195,,,38,23,,,42*4D
$BDGSV,5,1,18,03,55,199,40,20,52,305,44,08,51,343,34,13,47,326,40*6D
$BDGSV,5,2,18,01,47,137,,30,46,206,40,29,44,286,38,02,39,237,32*63
$BDGSV,5,3,18,04,37,118,,10,28,219,,07,25,206,28,16,25,174,*62
$BDGSV,5,4,18,06,20,181,34,23,19,078,,05,16,255,,19,15,268,*6D
$BDGSV,5,5,18,09,10,187,,27,06,163,*60
$GNRMC,125244.000,A,3018.4422,N,12004.7405,E,0.05,262.17,270326,,,D*7D
$GNVTG,262.17,T,,M,0.05,N,0.10,K,D*22
$GNGGA,125245.000,3018.4422,N,12004.7406,E,2,16,0.82,-13.2,M,7.0,M,,*5B
$GNGLL,3018.4422,N,12004.7406,E,125245.000,A,D*4F
$GPGSA,A,3,15,20,13,05,18,24,29,,,,,,1.23,0.82,0.91*05
$BDGSA,A,3,03,30,20,13,06,08,29,07,02,,,,1.23,0.82,0.91*11
$GPGSV,4,1,14,15,69,333,44,20,56,027,29,13,51,033,24,05,45,067,25*7C
$GPGSV,4,2,14,18,42,316,40,24,40,176,29,41,36,236,39,29,28,232,43*74
$GPGSV,4,3,14,21,21,085,,11,12,144,18,30,06,039,,194,,,*7E
$GPGSV,4,4,14,195,,,38,23,,,41*4E
$BDGSV,5,1,18,03,55,199,40,20,52,305,44,08,51,343,34,13,47,326,40*6D
$BDGSV,5,2,18,01,47,137,,30,46,206,40,29,44,286,37,02,39,237,33*6D
$BDGSV,5,3,18,04,37,118,,10,28,219,,07,25,206,29,16,25,174,*63
$BDGSV,5,4,18,06,20,181,34,23,19,078,,05,16,255,,19,15,268,*6D
$BDGSV,5,5,18,09,10,187,,27,06,163,*60
$GNRMC,125245.000,A,3018.4422,N,12004.7406,E,0.10,262.17,270326,,,D*7B
$GNVTG,262.17,T,,M,0.10,N,0.18,K,D*2E
$GNGGA,125246.000,3018.4422,N,12004.7406,E,2,16,0.82,-13.2,M,7.0,M,,*58
$GNGLL,3018.4422,N,12004.7406,E,125246.000,A,D*4C
$GPGSA,A,3,15,20,13,05,18,24,29,,,,,,1.23,0.82,0.91*05
$BDGSA,A,3,03,30,20,13,06,08,29,07,02,,,,1.23,0.82,0.91*11
$GPGSV,4,1,14,15,69,333,44,20,56,027,29,13,51,033,24,05,45,067,25*7C
$GPGSV,4,2,14,18,42,316,39,24,40,176,29,41,36,236,39,29,28,232,43*7A
$GPGSV,4,3,14,21,21,085,,11,12,144,18,30,06,039,,194,,,*7E
$GPGSV,4,4,14,195,,,38,23,,,41*4E
$BDGSV,5,1,18,03,55,199,40,20,52,305,44,08,51,343,34,13,47,326,39*63
$BDGSV,5,2,18,01,47,137,,30,46,206,40,29,44,286,37,02,39,237,33*6D
$BDGSV,5,3,18,04,37,118,,10,28,219,,07,25,206,30,16,25,174,*6B
$BDGSV,5,4,18,06,20,181,34,23,19,078,,05,16,255,,19,15,268,*6D
$BDGSV,5,5,18,09,10,187,,27,06,163,*60
$GNRMC,125246.000,A,3018.4422,N,12004.7406,E,0.10,262.17,270326,,,D*78
$GNVTG,262.17,T,,M,0.10,N,0.19,K,D*2F
$GNGGA,125247.000,3018.4422,N,12004.7406,E,2,17,0.75,-13.2,M,7.0,M,,*50
$GNGLL,3018.4422,N,12004.7406,E,125247.000,A,D*4D
$GPGSA,A,3,15,20,13,05,18,24,29,11,,,,,1.16,0.75,0.88*03
$BDGSA,A,3,03,30,20,13,06,08,29,07,02,,,,1.16,0.75,0.88*17
$GPGSV,4,1,14,15,69,333,44,20,56,027,29,13,51,033,24,05,45,067,25*7C
$GPGSV,4,2,14,18,42,316,39,24,40,176,29,41,36,236,39,29,28,232,43*7A
$GPGSV,4,3,14,21,21,085,,11,12,144,19,30,06,039,,194,,,*7F
$GPGSV,4,4,14,195,,,38,23,,,41*4E
$BDGSV,5,1,18,03,55,199,40,20,52,305,44,08,51,343,33,13,47,326,39*64
$BDGSV,5,2,18,01,47,137,,30,46,206,40,29,44,286,37,02,39,237,33*6D
$BDGSV,5,3,18,04,37,118,,10,28,219,,07,25,206,30,16,25,174,*6B
$BDGSV,5,4,18,06,20,181,34,23,19,078,,05,16,255,,19,15,268,*6D
$BDGSV,5,5,18,09,10,187,,27,06,163,*60
$GNRMC,125247.000,A,3018.4422,N,12004.7406,E,0.06,262.17,270326,,,D*7E
$GNVTG,262.17,T,,M,0.06,N,0.12,K,D*23
$GNGGA,125248.000,3018.4422,N,12004.7406,E,2,17,0.75,-13.2,M,7.0,M,,*5F
$GNGLL,3018.4422,N,12004.7406,E,125248.000,A,D*42
$GPGSA,A,3,15,20,13,05,18,24,29,11,,,,,1.16,0.75,0.88*03
$BDGSA,A,3,03,30,20,13,06,08,29,07,02,,,,1.16,0.75,0.88*17
$GPGSV,4,1,14,15,69,333,44,20,56,027,29,13,51,033,24,05,45,067,25*7C
$GPGSV,4,2,14,18,42,316,39,24,40,176,29,41,36,236,38,29,28,232,43*7B
$GPGSV,4,3,14,21,21,085,,11,12,144,19,30,06,039,,194,,,*7F
$GPGSV,4,4,14,195,,,37,23,,,41*41
$BDGSV,5,1,18,03,55,199,40,20,52,305,44,08,51,343,32,13,47,326,39*65
$BDGSV,5,2,18,01,47,137,,30,46,206,40,29,44,286,37,02,39,237,33*6D
$BDGSV,5,3,18,04,37,118,,10,28,219,,07,25,206,30,16,25,174,*6B
$BDGSV,5,4,18,06,20,181,34,23,19,078,,05,16,255,,19,15,268,*6D
$BDGSV,5,5,18,09,10,187,,27,06,163,*60
$GNRMC,125248.000,A,3018.4422,N,12004.7406,E,0.03,262.17,270326,,,D*74
$GNVTG,262.17,T,,M,0.03,N,0.05,K,D*20
$GNGGA,125249.000,3018.4422,N,12004.7406,E,2,18,0.69,-13.2,M,7.0,M,,*5C
$GNGLL,3018.4422,N,12004.7406,E,125249.000,A,D*43
$GPGSA,A,3,15,20,13,05,18,24,29,21,11,,,,1.10,0.69,0.86*05
$BDGSA,A,3,03,30,20,13,06,08,29,07,02,,,,1.10,0.69,0.86*12
$GPGSV,4,1,14,15,69,333,44,20,56,027,29,13,51,033,24,05,45,068,25*73
$GPGSV,4,2,14,18,42,316,39,24,40,176,29,41,36,236,38,29,28,232,43*7B
$GPGSV,4,3,14,21,21,085,17,11,12,144,19,30,06,039,,194,,,*79
$GPGSV,4,4,14,195,,,37,23,,,40*40
$BDGSV,5,1,18,03,55,199,40,20,52,305,44,08,51,343,32,13,47,326,39*65
$BDGSV,5,2,18,01,47,137,,30,46,206,40,29,44,286,37,02,39,237,33*6D
$BDGSV,5,3,18,04,37,118,,10,28,219,,07,25,206,30,16,25,174,*6B
$BDGSV,5,4,18,06,20,181,34,23,19,078,,05,16,255,,19,15,268,*6D
$BDGSV,5,5,18,09,10,187,,27,06,163,*60
$GNRMC,125249.000,A,3018.4422,N,12004.7406,E,0.11,262.17,270326,,,D*76
$GNVTG,262.17,T,,M,0.11,N,0.21,K,D*25
$GNGGA,125250.000,3018.4422,N,12004.7406,E,2,17,0.75,-13.2,M,7.0,M,,*56
$GNGLL,3018.4422,N,12004.7406,E,125250.000,A,D*4B
$GPGSA,A,3,15,20,13,05,18,24,29,11,,,,,1.16,0.75,0.88*03
$BDGSA,A,3,03,30,20,13,06,08,29,07,02,,,,1.16,0.75,0.88*17
$GPGSV,4,1,14,15,69,333,44,20,56,027,29,13,51,033,24,05,45,068,25*73
$GPGSV,4,2,14,18,42,316,39,24,40,176,29,41,36,236,38,29,28,232,43*7B
$GPGSV,4,3,14,21,21,085,17,11,12,144,18,30,06,039,,194,,,*78
$GPGSV,4,4,14,195,,,37,23,,,40*40
$BDGSV,5,1,18,03,55,199,40,20,52,305,44,08,51,343,32,13,47,326,38*64
$BDGSV,5,2,18,01,47,137,,30,46,206,40,29,44,286,37,02,39,237,33*6D
$BDGSV,5,3,18,04,37,118,,10,28,219,,07,25,206,30,16,25,174,*6B
$BDGSV,5,4,18,06,20,181,34,23,19,078,,05,16,255,,19,15,268,*6D
$BDGSV,5,5,18,09,10,187,,27,06,163,*60
$GNRMC,125250.000,A,3018.4422,N,12004.7406,E,0.02,262.17,270326,,,D*7C
$GNVTG,262.17,T,,M,0.02,N,0.03,K,D*27
$GNGGA,125251.000,3018.4422,N,12004.7406,E,2,17,0.75,-13.3,M,7.0,M,,*56
$GNGLL,3018.4422,N,12004.7406,E,125251.000,A,D*4A
$GPGSA,A,3,15,20,13,05,18,24,29,11,,,,,1.16,0.75,0.88*03
$BDGSA,A,3,03,30,20,13,06,08,29,07,02,,,,1.16,0.75,0.88*17
$GPGSV,4,1,14,15,69,333,44,20,56,027,29,13,51,033,24,05,45,068,25*73
$GPGSV,4,2,14,18,42,316,39,24,40,176,29,41,36,236,38,29,28,232,43*7B
$GPGSV,4,3,14,21,21,085,15,11,12,144,18,30,06,039,,194,,,*7A
$GPGSV,4,4,14,195,,,36,23,,,40*41
$BDGSV,5,1,18,03,55,199,40,20,52,305,44,08,51,343,32,13,47,326,38*64
$BDGSV,5,2,18,01,47,137,,30,46,206,40,29,44,286,37,02,39,237,34*6A
$BDGSV,5,3,18,04,37,118,,10,28,219,,07,25,206,30,16,25,174,*6B
$BDGSV,5,4,18,06,20,181,34,23,19,078,,05,16,255,,19,15,268,*6D
$BDGSV,5,5,18,09,10,187,,27,06,163,*60
$GNRMC,125251.000,A,3018.4422,N,12004.7406,E,0.05,262.17,270326,,,D*7A
$GNVTG,262.17,T,,M,0.05,N,0.09,K,D*2A
$GNGGA,125252.000,3018.4422,N,12004.7406,E,2,18,0.69,-13.3,M,7.0,M,,*57
$GNGLL,3018.4422,N,12004.7406,E,125252.000,A,D*49
$GPGSA,A,3,15,20,13,05,18,24,29,21,11,,,,1.10,0.69,0.86*05
$BDGSA,A,3,03,30,20,13,06,08,29,07,02,,,,1.10,0.69,0.86*12
$GPGSV,4,1,14,15,69,333,44,20,56,027,28,13,51,033,25,05,45,068,24*72
$GPGSV,4,2,14,18,42,316,37,24,40,176,29,41,36,236,39,29,28,232,43*74
$GPGSV,4,3,14,21,21,085,16,11,12,144,18,30,06,039,,194,,,*79
$GPGSV,4,4,14,195,,,36,23,,,40*41
$BDGSV,5,1,18,03,55,199,40,20,52,305,44,08,51,343,32,13,47,326,38*64
$BDGSV,5,2,18,01,47,137,,30,46,206,40,29,44,286,38,02,39,237,34*65
$BDGSV,5,3,18,04,37,118,,10,28,219,,07,25,206,30,16,25,174,*6B
$BDGSV,5,4,18,06,20,181,34,23,19,078,,05,16,255,,19,15,268,*6D
$BDGSV,5,5,18,09,10,187,,27,06,163,*60
$GNRMC,125252.000,A,3018.4422,N,12004.7406,E,0.21,262.17,270326,,,D*7F
$GNVTG,262.17,T,,M,0.21,N,0.39,K,D*2F
$GNGGA,125253.000,3018.4423,N,12004.7407,E,2,18,0.69,-13.3,M,7.0,M,,*56
$GNGLL,3018.4423,N,12004.7407,E,125253.000,A,D*48
$GPGSA,A,3,15,20,13,05,18,24,29,21,11,,,,1.10,0.69,0.86*05
$BDGSA,A,3,03,30,20,13,06,08,29,07,02,,,,1.10,0.69,0.86*12
$GPGSV,4,1,14,15,69,333,43,20,56,027,28,13,51,033,27,05,45,068,23*70
$GPGSV,4,2,14,18,42,316,36,24,40,176,29,41,36,236,40,29,28,232,43*7B
$GPGSV,4,3,14,21,21,085,16,11,12,144,18,30,06,039,,194,,,*79
$GPGSV,4,4,14,195,,,37,23,,,41*41
$BDGSV,5,1,18,03,55,199,40,20,52,305,44,08,51,343,24,13,47,326,38*63
$BDGSV,5,2,18,01,47,137,,30,46,206,40,29,44,286,39,02,39,237,34*64
$BDGSV,5,3,18,04,37,118,,10,28,219,,07,25,206,30,16,25,174,*6B
$BDGSV,5,4,18,06,20,181,34,23,19,078,,05,16,255,,19,15,268,*6D
$BDGSV,5,5,18,09,10,187,,27,06,163,*60
$GNRMC,125253.000,A,3018.4423,N,12004.7407,E,0.23,262.17,270326,,,D*7C
$GNVTG,262.17,T,,M,0.23,N,0.43,K,D*20
$GNGGA,125254.000,3018.4423,N,12004.7406,E,2,17,0.75,-13.2,M,7.0,M,,*53
$GNGLL,3018.4423,N,12004.7406,E,125254.000,A,D*4E
$GPGSA,A,3,15,20,13,05,18,24,29,11,,,,,1.16,0.75,0.88*03
$BDGSA,A,3,03,30,20,13,06,08,29,07,02,,,,1.16,0.75,0.88*17
$GPGSV,4,1,14,15,69,333,42,20,56,027,28,13,51,033,28,05,45,068,22*7F
$GPGSV,4,2,14,18,42,316,36,24,40,176,28,41,36,236,40,29,28,232,43*7A
$GPGSV,4,3,14,21,21,085,,11,12,144,18,30,06,039,,194,,,*7E
$GPGSV,4,4,14,195,,,37,23,,,41*41
$BDGSV,5,1,18,03,55,199,40,20,52,305,43,08,51,343,26,13,47,326,36*68
$BDGSV,5,2,18,01,47,137,,30,46,206,40,29,44,286,40,02,39,237,34*6A
$BDGSV,5,3,18,04,37,118,,10,28,219,,07,25,206,30,16,25,174,*6B
$BDGSV,5,4,18,06,20,181,34,23,19,078,,05,16,255,,19,15,268,*6D
$BDGSV,5,5,18,09,10,187,,27,06,163,*60
$GNRMC,125254.000,A,3018.4423,N,12004.7406,E,0.23,262.17,270326,,,D*7A
$GNVTG,262.17,T,,M,0.23,N,0.42,K,D*21
$GNGGA,125255.000,3018.4423,N,12004.7406,E,2,17,0.75,-13.2,M,7.0,M,,*52
$GNGLL,3018.4423,N,12004.7406,E,125255.000,A,D*4F
$GPGSA,A,3,15,20,13,05,18,24,29,11,,,,,1.16,0.75,0.88*03
$BDGSA,A,3,03,30,20,13,06,08,29,07,02,,,,1.16,0.75,0.88*17
$GPGSV,4,1,14,15,69,333,43,20,56,027,30,13,51,033,30,05,45,068,23*7F
$GPGSV,4,2,14,18,42,316,35,24,40,176,27,41,36,236,38,29,28,232,44*7E
$GPGSV,4,3,14,21,21,085,,11,12,144,18,30,06,039,,194,,,*7E
$GPGSV,4,4,14,195,,,35,23,,,40*42
$BDGSV,5,1,18,03,55,199,38,20,52,305,43,08,51,343,39,13,47,326,37*68
$BDGSV,5,2,18,01,47,137,,30,46,206,39,29,44,286,32,02,39,237,33*66
$BDGSV,5,3,18,04,37,118,,10,28,219,,07,25,206,22,16,25,174,*68
$BDGSV,5,4,18,06,20,181,33,23,19,078,,05,16,255,,19,15,268,*6A
$BDGSV,5,5,18,09,10,187,,27,06,163,*60
$GNRMC,125255.000,A,3018.4423,N,12004.7406,E,0.27,262.17,270326,,,D*7F
$GNVTG,262.17,T,,M,0.27,N,0.50,K,D*26
$GNGGA,125256.000,3018.4423,N,12004.7405,E,2,16,0.77,-13.2,M,7.0,M,,*51
$GNGLL,3018.4423,N,12004.7405,E,125256.000,A,D*4F
$GPGSA,A,3,15,20,13,05,18,29,11,,,,,,1.18,0.77,0.89*08
$BDGSA,A,3,03,30,20,13,06,08,29,07,02,,,,1.18,0.77,0.89*1A
$GPGSV,4,1,14,15,69,333,44,20,56,027,30,13,51,033,31,05,45,068,24*7E
$GPGSV,4,2,14,18,42,316,35,24,40,176,19,41,36,236,39,29,28,232,43*75
$GPGSV,4,3,14,21,21,085,,11,12,144,17,30,06,039,,194,,,*71
$GPGSV,4,4,14,195,,,25,23,,,41*42
$BDGSV,5,1,18,03,55,199,37,20,52,305,44,08,51,343,38,13,47,326,37*61
$BDGSV,5,2,18,01,47,137,,30,46,206,38,29,44,286,34,02,39,237,33*61
$BDGSV,5,3,18,04,37,118,,10,28,219,,07,25,206,29,16,25,174,*63
$BDGSV,5,4,18,06,20,181,25,23,19,078,,05,16,255,,19,15,268,*6D
$BDGSV,5,5,18,09,10,187,,27,06,163,*60
$GNRMC,125256.000,A,3018.4423,N,12004.7405,E,0.51,262.17,270326,,,D*7E
$GNVTG,262.17,T,,M,0.51,N,0.95,K,D*2E
$GNGGA,125257.000,3018.4424,N,12004.7405,E,2,16,0.77,-13.3,M,7.0,M,,*56
$GNGLL,3018.4424,N,12004.7405,E,125257.000,A,D*49
$GPGSA,A,3,15,20,13,05,18,29,11,,,,,,1.18,0.77,0.89*08
$BDGSA,A,3,03,30,20,13,06,08,29,07,02,,,,1.18,0.77,0.89*1A
$GPGSV,4,1,14,15,69,333,44,20,56,027,31,13,50,034,32,05,45,068,25*7B
$GPGSV,4,2,14,18,42,316,35,24,40,176,19,41,36,236,41,29,28,232,44*7D
$GPGSV,4,3,14,21,21,085,,11,12,144,17,30,06,039,,194,,,*71
$GPGSV,4,4,14,195,,,26,23,,,42*42
$BDGSV,5,1,18,03,55,199,36,20,52,305,45,08,51,343,38,13,47,326,37*61
$BDGSV,5,2,18,01,47,137,,30,46,206,38,29,44,286,35,02,39,237,34*67
$BDGSV,5,3,18,04,37,118,,10,28,219,,07,25,206,22,16,25,174,*68
$BDGSV,5,4,18,06,20,181,26,23,19,078,,05,16,255,,19,15,268,*6E
$BDGSV,5,5,18,09,10,187,,27,06,163,*60
$GNRMC,125257.000,A,3018.4424,N,12004.7405,E,0.55,262.17,270326,,,D*7C
$GNVTG,262.17,T,,M,0.55,N,1.02,K,D*25
$GNGGA,125258.000,3018.4425,N,12004.7404,E,2,17,0.75,-13.3,M,7.0,M,,*5A
$GNGLL,3018.4425,N,12004.7404,E,125258.000,A,D*46
$GPGSA,A,3,15,20,13,05,18,24,29,11,,,,,1.16,0.75,0.88*03
$BDGSA,A,3,03,30,20,13,06,08,29,07,02,,,,1.16,0.75,0.88*17
$GPGSV,4,1,14,15,69,333,44,20,56,027,32,13,50,034,32,05,45,068,25*78
$GPGSV,4,2,14,18,42,316,35,24,40,176,20,41,36,236,40,29,28,232,42*70
$GPGSV,4,3,14,21,21,085,,11,12,144,17,30,06,039,,194,,,*71
$GPGSV,4,4,14,195,,,25,23,,,40*43
$BDGSV,5,1,18,03,55,199,36,20,52,305,45,08,51,343,38,13,47,326,38*6E
$BDGSV,5,2,18,01,47,137,,30,46,206,37,29,44,286,36,02,39,237,33*6C
