$GPGGA,090353.000,3018.4814,N,12004.7092,E,1,8,0.95,48.5,M,7.0,M,,*52
$GPGLL,3018.4814,N,12004.7092,E,090353.000,A,A*5D
$GPGSA,A,3,21,11,05,12,194,09,20,25,,,,,1.27,0.95,0.83*34
$GPRMC,090353.000,A,3018.4814,N,12004.7092,E,4.97,243.43,270326,,,A*60
$GPGGA,090354.000,3018.4807,N,12004.7086,E,1,8,0.95,49.1,M,7.0,M,,*57
$GPGLL,3018.4807,N,12004.7086,E,090354.000,A,A*5D
$GPGSA,A,3,21,11,05,12,194,09,20,25,,,,,1.27,0.95,0.83*34
$GPRMC,090354.000,A,3018.4807,N,12004.7086,E,5.15,239.62,270326,,,A*65
$GPGGA,090355.000,3018.4802,N,12004.7089,E,1,7,0.97,49.6,M,7.0,M,,*56
$GPGLL,3018.4802,N,12004.7089,E,090355.000,A,A*56
$GPGSA,A,3,11,05,12,194,09,20,25,,,,,,2.14,0.97,1.90*35
$GPRMC,090355.000,A,3018.4802,N,12004.7089,E,4.84,231.77,270326,,,A*6B
$GPGGA,090356.000,3018.4803,N,12004.7100,E,1,7,0.96,49.9,M,7.0,M,,*5A
$GPGLL,3018.4803,N,12004.7100,E,090356.000,A,A*54
$GPGSA,A,3,11,05,12,194,09,20,25,,,,,,1.30,0.96,0.89*38
$GPRMC,090356.000,A,3018.4803,N,12004.7100,E,3.64,233.98,270326,,,A*63
$GPGGA,090357.000,3018.4796,N,12004.7097,E,1,7,0.96,50.6,M,7.0,M,,*50
$GPGLL,3018.4796,N,12004.7097,E,090357.000,A,A*59
$GPGSA,A,3,11,05,12,194,09,20,25,,,,,,1.30,0.96,0.89*38
$GPRMC,090357.000,A,3018.4796,N,12004.7097,E,4.29,228.19,270326,,,A*63
$GPGGA,090358.000,3018.4790,N,12004.7092,E,1,7,0.97,51.2,M,7.0,M,,*58
$GPGLL,3018.4790,N,12004.7092,E,090358.000,A,A*55
$GPGSA,A,3,11,05,12,194,09,20,25,,,,,,2.14,0.97,1.90*35
$GPRMC,090358.000,A,3018.4790,N,12004.7092,E,4.51,225.96,270326,,,A*6A
$GPGGA,090359.000,3018.4786,N,12004.7094,E,1,7,0.97,51.7,M,7.0,M,,*5D
$GPGLL,3018.4786,N,12004.7094,E,090359.000,A,A*55
$GPGSA,A,3,11,05,12,194,09,20,25,,,,,,2.14,0.97,1.90*35
$GPRMC,090359.000,A,3018.4786,N,12004.7094,E,5.33,230.92,270326,,,A*6F
$GPGGA,090400.000,3018.4785,N,12004.7104,E,1,8,0.86,52.2,M,7.0,M,,*54
$GPGLL,3018.4785,N,12004.7104,E,090400.000,A,A*55
$GPGSA,A,3,11,05,12,194,09,17,20,25,,,,,1.23,0.86,0.88*3C
$GPRMC,090400.000,A,3018.4785,N,12004.7104,E,4.60,229.92,270326,,,A*60
$GPGGA,090401.000,3018.4779,N,12004.7104,E,1,9,0.83,52.9,M,7.0,M,,*59
$GPGLL,3018.4779,N,12004.7104,E,090401.000,A,A*57
$GPGSA,A,3,11,05,12,194,09,17,13,20,25,,,,1.20,0.83,0.87*37
$GPRMC,090401.000,A,3018.4779,N,12004.7104,E,4.93,230.85,270326,,,A*60
$GPGGA,090402.000,3018.4773,N,12004.7102,E,1,9,0.83,53.6,M,7.0,M,,*58
$GPGLL,3018.4773,N,12004.7102,E,090402.000,A,A*58
$GPGSA,A,3,11,05,12,194,09,17,13,20,25,,,,1.20,0.83,0.87*37
$GPRMC,090402.000,A,3018.4773,N,12004.7102,E,5.46,229.11,270326,,,A*63
$GPGGA,090403.000,3018.4769,N,12004.7097,E,1,8,0.90,54.3,M,7.0,M,,*5E
$GPGLL,3018.4769,N,12004.7097,E,090403.000,A,A*5F
$GPGSA,A,3,11,05,12,194,09,13,20,25,,,,,1.26,0.90,0.88*3A
$GPRMC,090403.000,A,3018.4769,N,12004.7097,E,5.30,231.96,270326,,,A*63
$GPGGA,090404.000,3018.4762,N,12004.7084,E,1,8,0.93,55.1,M,7.0,M,,*50
$GPGLL,3018.4762,N,12004.7084,E,090404.000,A,A*51
$GPGSA,A,3,11,05,12,194,09,13,20,25,,,,,2.04,0.93,1.82*31
$GPRMC,090404.000,A,3018.4762,N,12004.7084,E,6.54,231.51,270326,,,A*67
$GPGGA,090405.000,3018.4755,N,12004.7072,E,1,8,0.93,55.9,M,7.0,M,,*54
$GPGLL,3018.4755,N,12004.7072,E,090405.000,A,A*5D
$GPGSA,A,3,11,05,12,194,09,13,20,25,,,,,2.04,0.93,1.82*31
$GPRMC,090405.000,A,3018.4755,N,12004.7072,E,6.25,233.63,270326,,,A*6E
$GPGGA,090406.000,3018.4751,N,12004.7059,E,1,8,0.93,56.8,M,7.0,M,,*58
$GPGLL,3018.4751,N,12004.7059,E,090406.000,A,A*53
$GPGSA,A,3,11,05,12,194,09,13,20,25,,,,,2.04,0.93,1.82*31
$GPRMC,090406.000,A,3018.4751,N,12004.7059,E,6.60,237.81,270326,,,A*69
$GPGGA,090407.000,3018.4749,N,12004.7053,E,1,8,0.90,57.6,M,7.0,M,,*56
$GPGLL,3018.4749,N,12004.7053,E,090407.000,A,A*51
$GPGSA,A,3,11,05,12,194,09,13,20,25,,,,,1.26,0.90,0.88*3A
$GPRMC,090407.000,A,3018.4749,N,12004.7053,E,5.86,241.36,270326,,,A*6D
$GPGGA,090408.000,3018.4749,N,12004.7051,E,1,9,0.83,58.4,M,7.0,M,,*55
$GPGLL,3018.4749,N,12004.7051,E,090408.000,A,A*5C
$GPGSA,A,3,11,05,12,194,09,06,13,20,25,,,,1.20,0.83,0.87*37
$GPRMC,090408.000,A,3018.4749,N,12004.7051,E,4.84,244.13,270326,,,A*61
$GPGGA,090409.000,3018.4751,N,12004.7051,E,1,9,0.83,59.2,M,7.0,M,,*5A
$GPGLL,3018.4751,N,12004.7051,E,090409.000,A,A*54
$GPGSA,A,3,11,05,12,194,09,06,13,20,25,,,,1.20,0.83,0.87*37
$GPRMC,090409.000,A,3018.4751,N,12004.7051,E,4.49,245.82,270326,,,A*61
$GPGGA,090410.000,3018.4752,N,12004.7053,E,1,9,0.83,60.0,M,7.0,M,,*5B
$GPGLL,3018.4752,N,12004.7053,E,090410.000,A,A*5D
$GPGSA,A,3,11,05,12,194,09,06,13,20,25,,,,1.20,0.83,0.87*37
$GPRMC,090410.000,A,3018.4752,N,12004.7053,E,3.62,238.32,270326,,,A*67
$GPGGA,090411.000,3018.4758,N,12004.7062,E,1,9,0.83,61.1,M,7.0,M,,*52
$GPGLL,3018.4758,N,12004.7062,E,090411.000,A,A*54
$GPGSA,A,3,11,05,12,194,09,06,13,20,25,,,,1.20,0.83,0.87*37
$GPRMC,090411.000,A,3018.4758,N,12004.7062,E,3.37,229.81,270326,,,A*66
$GPGGA,090412.000,3018.4756,N,12004.7063,E,1,9,0.83,62.0,M,7.0,M,,*5C
$GPGLL,3018.4756,N,12004.7063,E,090412.000,A,A*58
$GPGSA,A,3,11,05,12,194,09,06,13,20,25,,,,1.20,0.83,0.87*37
$GPRMC,090412.000,A,3018.4756,N,12004.7063,E,3.31,230.57,270326,,,A*6F
$GPGGA,090413.000,3018.4754,N,12004.7064,E,1,9,0.83,63.0,M,7.0,M,,*59
$GPGLL,3018.4754,N,12004.7064,E,090413.000,A,A*5C
$GPGSA,A,3,11,05,12,194,09,06,13,20,25,,,,1.20,0.83,0.87*37
$GPRMC,090413.000,A,3018.4754,N,12004.7064,E,3.32,224.04,270326,,,A*6B
$GPGGA,090414.000,3018.4753,N,12004.7068,E,1,9,0.83,63.9,M,7.0,M,,*5C
$GPGLL,3018.4753,N,12004.7068,E,090414.000,A,A*50
$GPGSA,A,3,11,05,12,194,09,06,13,20,25,,,,1.20,0.83,0.87*37
$GPRMC,090414.000,A,3018.4753,N,12004.7068,E,2.47,224.04,270326,,,A*64
$GPGGA,090415.000,3018.4753,N,12004.7073,E,1,10,0.82,64.6,M,7.0,M,,*66
$GPGLL,3018.4753,N,12004.7073,E,090415.000,A,A*5B
$GPGSA,A,3,21,11,05,12,194,09,06,13,20,25,,,1.16,0.82,0.82*35
$GPRMC,090415.000,A,3018.4753,N,12004.7073,E,2.85,224.04,270326,,,A*61
$GPGGA,090416.000,3018.4756,N,12004.7070,E,1,10,0.82,65.0,M,7.0,M,,*64
$GPGLL,3018.4756,N,12004.7070,E,090416.000,A,A*5E
$GPGSA,A,3,21,11,05,12,194,09,06,13,20,25,,,1.16,0.82,0.82*35
$GPRMC,090416.000,A,3018.4756,N,12004.7070,E,3.35,236.06,270326,,,A*6F
$GPGGA,090417.000,3018.4755,N,12004.7071,E,1,10,0.82,65.8,M,7.0,M,,*6F
$GPGLL,3018.4755,N,12004.7071,E,090417.000,A,A*5D
$GPGSA,A,3,21,11,05,12,194,09,06,13,20,25,,,1.16,0.82,0.82*35
$GPRMC,090417.000,A,3018.4755,N,12004.7071,E,3.34,236.17,270326,,,A*6D
$GPGGA,090418.000,3018.4757,N,12004.7079,E,1,10,0.82,65.2,M,7.0,M,,*60
$GPGLL,3018.4757,N,12004.7079,E,090418.000,A,A*58
$GPGSA,A,3,21,11,05,12,194,09,06,13,20,25,,,1.16,0.82,0.82*35
$GPRMC,090418.000,A,3018.4757,N,12004.7079,E,3.36,240.88,270326,,,A*6D
$GPGGA,090419.000,3018.4758,N,12004.7085,E,1,10,0.82,65.5,M,7.0,M,,*6A
$GPGLL,3018.4758,N,12004.7085,E,090419.000,A,A*55
$GPGSA,A,3,21,11,05,12,194,09,06,13,20,25,,,1.16,0.82,0.82*35
$GPRMC,090419.000,A,3018.4758,N,12004.7085,E,2.63,240.88,270326,,,A*61
$GPGGA,090420.000,3018.4764,N,12004.7074,E,1,10,0.82,65.4,M,7.0,M,,*60
$GPGLL,3018.4764,N,12004.7074,E,090420.000,A,A*5E
$GPGSA,A,3,21,11,05,12,194,09,06,13,20,25,,,1.16,0.82,0.82*35
$GPRMC,090420.000,A,3018.4764,N,12004.7074,E,3.86,242.28,270326,,,A*68
$GPGGA,090421.000,3018.4763,N,12004.7074,E,1,10,0.82,65.8,M,7.0,M,,*6A
$GPGLL,3018.4763,N,12004.7074,E,090421.000,A,A*58
$GPGSA,A,3,21,11,05,12,194,09,06,13,20,25,,,1.16,0.82,0.82*35
$GPRMC,090421.000,A,3018.4763,N,12004.7074,E,4.81,244.82,270326,,,A*68
$GPGGA,090422.000,3018.4763,N,12004.7073,E,1,10,0.82,66.1,M,7.0,M,,*64
$GPGLL,3018.4763,N,12004.7073,E,090422.000,A,A*5C
$GPGSA,A,3,21,11,05,12,194,09,06,13,20,25,,,1.16,0.82,0.82*35
$GPRMC,090422.000,A,3018.4763,N,12004.7073,E,5.07,244.30,270326,,,A*6A
$GPGGA,090423.000,3018.4762,N,12004.7071,E,1,10,0.82,66.4,M,7.0,M,,*63
$GPGLL,3018.4762,N,12004.7071,E,090423.000,A,A*5E
$GPGSA,A,3,21,11,05,12,194,09,06,13,20,25,,,1.16,0.82,0.82*35
$GPRMC,090423.000,A,3018.4762,N,12004.7071,E,5.92,244.30,270326,,,A*64
$GPGGA,090424.000,3018.4758,N,12004.7067,E,1,10,0.82,66.7,M,7.0,M,,*69
$GPGLL,3018.4758,N,12004.7067,E,090424.000,A,A*57
$GPGSA,A,3,21,11,05,12,194,09,06,13,20,25,,,1.16,0.82,0.82*35
$GPRMC,090424.000,A,3018.4758,N,12004.7067,E,6.25,237.50,270326,,,A*60
$GPGGA,090425.000,3018.4753,N,12004.7062,E,1,10,0.82,67.1,M,7.0,M,,*61
$GPGLL,3018.4753,N,12004.7062,E,090425.000,A,A*58
$GPGSA,A,3,21,11,05,12,194,09,06,13,20,25,,,1.16,0.82,0.82*35
$GPRMC,090425.000,A,3018.4753,N,12004.7062,E,6.42,231.99,270326,,,A*6D
$GPGGA,090426.000,3018.4745,N,12004.7054,E,1,10,0.85,67.5,M,7.0,M,,*63
$GPGLL,3018.4745,N,12004.7054,E,090426.000,A,A*59
$GPGSA,A,3,21,11,05,12,194,09,06,13,20,25,,,1.67,0.85,1.44*3F
$GPRMC,090426.000,A,3018.4745,N,12004.7054,E,7.07,229.54,270326,,,A*64
$GPGGA,090427.000,3018.4737,N,12004.7046,E,1,10,0.85,68.1,M,7.0,M,,*6F
$GPGLL,3018.4737,N,12004.7046,E,090427.000,A,A*5E
$GPGSA,A,3,21,11,05,12,194,09,06,13,20,25,,,1.67,0.85,1.44*3F
$GPRMC,090427.000,A,3018.4737,N,12004.7046,E,7.15,229.48,270326,,,A*6D
$GPGGA,090428.000,3018.4732,N,12004.7036,E,1,10,0.82,68.6,M,7.0,M,,*62
$GPGLL,3018.4732,N,12004.7036,E,090428.000,A,A*53
$GPGSA,A,3,21,11,05,12,194,09,06,13,20,25,,,1.16,0.82,0.82*35
$GPRMC,090428.000,A,3018.4732,N,12004.7036,E,7.81,239.54,270326,,,A*61
$GPGGA,090429.000,3018.4731,N,12004.7033,E,1,10,0.85,69.2,M,7.0,M,,*67
$GPGLL,3018.4731,N,12004.7033,E,090429.000,A,A*54
$GPGSA,A,3,21,11,05,12,194,09,06,13,20,25,,,1.67,0.85,1.44*3F
$GPRMC,090429.000,A,3018.4731,N,12004.7033,E,7.80,238.17,270326,,,A*61
$GPGGA,090430.000,3018.4724,N,12004.7025,E,1,10,0.85,69.8,M,7.0,M,,*66
$GPGLL,3018.4724,N,12004.7025,E,090430.000,A,A*5F
$GPGSA,A,3,21,11,05,12,194,09,06,13,20,25,,,1.67,0.85,1.44*3F
$GPRMC,090430.000,A,3018.4724,N,12004.7025,E,8.60,232.35,270326,,,A*61
$GPGGA,090431.000,3018.4717,N,12004.7016,E,1,10,0.82,70.4,M,7.0,M,,*64
$GPGLL,3018.4717,N,12004.7016,E,090431.000,A,A*5E
$GPGSA,A,3,21,11,05,12,194,09,06,13,20,25,,,1.16,0.82,0.82*35
$GPRMC,090431.000,A,3018.4717,N,12004.7016,E,8.65,231.48,270326,,,A*6C
$GPGGA,090432.000,3018.4709,N,12004.7011,E,1,10,0.82,71.1,M,7.0,M,,*6B
$GPGLL,3018.4709,N,12004.7011,E,090432.000,A,A*55
$GPGSA,A,3,21,11,05,12,194,09,06,13,20,25,,,1.16,0.82,0.82*35
$GPRMC,090432.000,A,3018.4709,N,12004.7011,E,8.86,228.34,270326,,,A*69
$GPGGA,090433.000,3018.4703,N,12004.7015,E,1,9,0.89,71.1,M,7.0,M,,*57
$GPGLL,3018.4703,N,12004.7015,E,090433.000,A,A*5A
$GPGSA,A,3,21,11,05,12,09,06,13,20,25,,,,1.21,0.89,0.83*07
$GPRMC,090433.000,A,3018.4703,N,12004.7015,E,8.83,227.63,270326,,,A*6E
$GPGGA,090434.000,3018.4699,N,12004.7014,E,1,9,0.93,71.9,M,7.0,M,,*50
$GPGLL,3018.4699,N,12004.7014,E,090434.000,A,A*5E
$GPGSA,A,3,21,11,05,12,09,06,13,20,25,,,,1.75,0.93,1.48*0B
$GPRMC,090434.000,A,3018.4699,N,12004.7014,E,8.51,230.64,270326,,,A*64
$GPGGA,090435.000,3018.4691,N,12004.7005,E,1,9,0.93,72.5,M,7.0,M,,*56
$GPGLL,3018.4691,N,12004.7005,E,090435.000,A,A*57
$GPGSA,A,3,21,11,05,12,09,06,13,20,25,,,,1.74,0.93,1.48*0A
$GPRMC,090435.000,A,3018.4691,N,12004.7005,E,9.09,225.19,270326,,,A*6F
$GPGGA,090436.000,3018.4690,N,12004.7009,E,1,9,0.93,73.3,M,7.0,M,,*5F
$GPGLL,3018.4690,N,12004.7009,E,090436.000,A,A*59
$GPGSA,A,3,21,11,05,12,09,06,13,20,25,,,,1.75,0.93,1.48*0B
$GPRMC,090436.000,A,3018.4690,N,12004.7009,E,9.08,230.77,270326,,,A*6C
$GPGGA,090437.000,3018.4689,N,12004.7003,E,1,8,1.13,74.4,M,7.0,M,,*54
$GPGLL,3018.4689,N,12004.7003,E,090437.000,A,A*5A
$GPGSA,A,3,21,11,05,12,06,13,20,25,,,,,2.06,1.13,1.72*05
$GPRMC,090437.000,A,3018.4689,N,12004.7003,E,8.80,231.85,270326,,,A*62
$GPGGA,090438.000,3018.4684,N,12004.6989,E,1,8,1.02,75.2,M,7.0,M,,*5B
$GPGLL,3018.4684,N,12004.6989,E,090438.000,A,A*52
$GPGSA,A,3,21,11,05,12,06,13,20,25,,,,,1.33,1.02,0.86*0A
$GPRMC,090438.000,A,3018.4684,N,12004.6989,E,9.14,231.14,270326,,,A*6E
$GPGGA,090439.000,3018.4680,N,12004.6978,E,1,8,1.13,76.1,M,7.0,M,,*50
$GPGLL,3018.4680,N,12004.6978,E,090439.000,A,A*59
$GPGSA,A,3,21,11,05,12,06,13,20,25,,,,,2.06,1.13,1.72*05
$GPRMC,090439.000,A,3018.4680,N,12004.6978,E,8.68,228.78,270326,,,A*6D
$GPGGA,090440.000,3018.4675,N,12004.6972,E,1,8,1.02,76.9,M,7.0,M,,*56
$GPGLL,3018.4675,N,12004.6972,E,090440.000,A,A*57
$GPGSA,A,3,21,11,05,12,06,13,20,25,,,,,1.34,1.02,0.86*0D
$GPRMC,090440.000,A,3018.4675,N,12004.6972,E,8.61,224.31,270326,,,A*6B
$GPGGA,090441.000,3018.4670,N,12004.6981,E,1,8,1.13,77.6,M,7.0,M,,*50
$GPGLL,3018.4670,N,12004.6981,E,090441.000,A,A*5F
$GPGSA,A,3,21,11,05,12,06,13,20,25,,,,,2.06,1.13,1.72*05
$GPRMC,090441.000,A,3018.4670,N,12004.6981,E,8.26,221.54,270326,,,A*66
$GPGGA,090442.000,3018.4663,N,12004.6977,E,1,8,1.02,78.8,M,7.0,M,,*59
$GPGLL,3018.4663,N,12004.6977,E,090442.000,A,A*57
$GPGSA,A,3,21,11,05,12,06,13,20,25,,,,,1.33,1.02,0.86*0A
$GPRMC,090442.000,A,3018.4663,N,12004.6977,E,8.20,223.87,270326,,,A*64
$GPGGA,090443.000,3018.4657,N,12004.6974,E,1,8,1.13,80.0,M,7.0,M,,*53
$GPGLL,3018.4657,N,12004.6974,E,090443.000,A,A*52
$GPGSA,A,3,21,11,05,12,06,13,20,25,,,,,2.06,1.13,1.72*05
$GPRMC,090443.000,A,3018.4657,N,12004.6974,E,8.48,222.19,270326,,,A*69
$GPGGA,090444.000,3018.4652,N,12004.6974,E,1,9,1.05,80.9,M,7.0,M,,*5E
$GPGLL,3018.4652,N,12004.6974,E,090444.000,A,A*50
$GPGSA,A,3,21,11,05,12,06,13,20,25,17,,,,1.96,1.05,1.65*08
$GPRMC,090444.000,A,3018.4652,N,12004.6974,E,8.14,222.95,270326,,,A*66
$GPGGA,090445.000,3018.4650,N,12004.6975,E,1,9,0.93,81.7,M,7.0,M,,*5D
$GPGLL,3018.4650,N,12004.6975,E,090445.000,A,A*52
$GPGSA,A,3,21,11,05,12,06,13,20,25,17,,,,1.26,0.93,0.86*01
$GPRMC,090445.000,A,3018.4650,N,12004.6975,E,8.18,224.59,270326,,,A*6E
$GPGGA,090446.000,3018.4653,N,12004.6985,E,1,10,1.00,82.7,M,7.0,M,,*62
$GPGLL,3018.4653,N,12004.6985,E,090446.000,A,A*5D
$GPGSA,A,3,21,11,05,12,19,06,13,20,25,17,,,1.87,1.00,1.58*0B
$GPRMC,090446.000,A,3018.4653,N,12004.6985,E,7.81,224.13,270326,,,A*60
$GPGGA,090447.000,3018.4656,N,12004.7004,E,1,10,1.00,83.7,M,7.0,M,,*66
$GPGLL,3018.4656,N,12004.7004,E,090447.000,A,A*58
$GPGSA,A,3,21,11,05,12,19,06,13,20,25,17,,,1.88,1.00,1.58*04
$GPRMC,090447.000,A,3018.4656,N,12004.7004,E,7.62,226.47,270326,,,A*6B
$GPGGA,090448.000,3018.4655,N,12004.7006,E,1,10,0.90,81.5,M,7.0,M,,*60
$GPGLL,3018.4655,N,12004.7006,E,090448.000,A,A*56
$GPGSA,A,3,21,11,05,12,19,06,13,20,25,17,,,1.23,0.90,0.85*0C
$GPRMC,090448.000,A,3018.4655,N,12004.7006,E,7.81,222.28,270326,,,A*65
$GPGGA,090449.000,3018.4653,N,12004.7005,E,1,9,1.05,82.0,M,7.0,M,,*57
$GPGLL,3018.4653,N,12004.7005,E,090449.000,A,A*52
$GPGSA,A,3,21,11,05,12,06,13,20,25,17,,,,1.96,1.05,1.65*08
$GPRMC,090449.000,A,3018.4653,N,12004.7005,E,8.20,230.71,270326,,,A*6A
$GPGGA,090450.000,3018.4652,N,12004.7007,E,1,10,0.90,82.4,M,7.0,M,,*6D
$GPGLL,3018.4652,N,12004.7007,E,090450.000,A,A*59
$GPGSA,A,3,21,11,05,12,194,06,13,20,25,17,,,1.23,0.90,0.84*39
$GPRMC,090450.000,A,3018.4652,N,12004.7007,E,7.79,228.04,270326,,,A*69
$GPGGA,090451.000,3018.4656,N,12004.7015,E,1,10,0.99,83.0,M,7.0,M,,*67
$GPGLL,3018.4656,N,12004.7015,E,090451.000,A,A*5F
$GPGSA,A,3,21,11,05,12,194,06,13,20,25,17,,,1.86,0.99,1.58*3F
$GPRMC,090451.000,A,3018.4656,N,12004.7015,E,7.51,228.80,270326,,,A*69
$GPGGA,090452.000,3018.4655,N,12004.7014,E,1,10,0.90,83.5,M,7.0,M,,*6A
$GPGLL,3018.4655,N,12004.7014,E,090452.000,A,A*5E
$GPGSA,A,3,21,11,05,12,194,06,13,20,25,17,,,1.23,0.90,0.84*39
$GPRMC,090452.000,A,3018.4655,N,12004.7014,E,7.35,228.00,270326,,,A*62
$GPGGA,090453.000,3018.4656,N,12004.7015,E,1,10,0.90,83.9,M,7.0,M,,*65
$GPGLL,3018.4656,N,12004.7015,E,090453.000,A,A*5D
$GPGSA,A,3,21,11,05,12,194,06,13,20,25,17,,,1.23,0.90,0.84*39
$GPRMC,090453.000,A,3018.4656,N,12004.7015,E,7.33,230.27,270326,,,A*6B
$GPGGA,090454.000,3018.4658,N,12004.7009,E,1,11,0.88,82.6,M,7.0,M,,*67
$GPGLL,3018.4658,N,12004.7009,E,090454.000,A,A*59
$GPGSA,A,3,21,11,05,12,194,19,06,13,20,25,17,,1.21,0.88,0.84*3A
$GPRMC,090454.000,A,3018.4658,N,12004.7009,E,8.42,238.08,270326,,,A*63
$GPGGA,090455.000,3018.4663,N,12004.7012,E,1,10,0.99,82.8,M,7.0,M,,*6B
$GPGLL,3018.4663,N,12004.7012,E,090455.000,A,A*5A
$GPGSA,A,3,21,11,05,12,194,06,13,20,25,17,,,1.86,0.99,1.58*3F
$GPRMC,090455.000,A,3018.4663,N,12004.7012,E,7.79,235.31,270326,,,A*60
$GPGGA,090456.000,3018.4662,N,12004.7008,E,1,10,0.99,83.0,M,7.0,M,,*6B
$GPGLL,3018.4662,N,12004.7008,E,090456.000,A,A*53
$GPGSA,A,3,21,11,05,12,194,06,13,20,25,17,,,1.86,0.99,1.58*3F
$GPRMC,090456.000,A,3018.4662,N,12004.7008,E,8.16,235.54,270326,,,A*6C
$GPGGA,090457.000,3018.4658,N,12004.7009,E,1,10,0.90,83.9,M,7.0,M,,*62
$GPGLL,3018.4658,N,12004.7009,E,090457.000,A,A*5A
$GPGSA,A,3,21,11,05,12,194,06,13,20,25,17,,,1.23,0.90,0.84*39
$GPRMC,090457.000,A,3018.4658,N,12004.7009,E,7.82,231.91,270326,,,A*6A
$GPGGA,090458.000,3018.4655,N,12004.7010,E,1,10,0.99,84.5,M,7.0,M,,*6A
$GPGLL,3018.4655,N,12004.7010,E,090458.000,A,A*50
$GPGSA,A,3,21,11,05,12,194,06,13,20,25,17,,,1.86,0.99,1.58*3F
$GPRMC,090458.000,A,3018.4655,N,12004.7010,E,6.95,229.42,270326,,,A*60
$GPGGA,090459.000,3018.4652,N,12004.7011,E,1,10,0.90,85.1,M,7.0,M,,*61
$GPGLL,3018.4652,N,12004.7011,E,090459.000,A,A*57
$GPGSA,A,3,21,11,05,12,194,06,13,20,25,17,,,1.23,0.90,0.84*39
$GPRMC,090459.000,A,3018.4652,N,12004.7011,E,6.77,227.78,270326,,,A*6C
$GPGGA,090500.000,3018.4652,N,12004.7007,E,1,10,0.99,85.5,M,7.0,M,,*66
$GPGLL,3018.4652,N,12004.7007,E,090500.000,A,A*5D
$GPGSA,A,3,21,11,05,12,194,06,13,20,25,17,,,1.86,0.99,1.58*3F
$GPRMC,090500.000,A,3018.4652,N,12004.7007,E,7.09,228.39,270326,,,A*64
$GPGGA,090501.000,3018.4646,N,12004.7011,E,1,10,0.99,86.5,M,7.0,M,,*66
$GPGLL,3018.4646,N,12004.7011,E,090501.000,A,A*5E
$GPGSA,A,3,21,11,05,12,194,06,13,20,25,17,,,1.86,0.99,1.58*3F
$GPRMC,090501.000,A,3018.4646,N,12004.7011,E,6.68,224.95,270326,,,A*6B
$GPGGA,090502.000,3018.4642,N,12004.7019,E,1,10,0.90,87.4,M,7.0,M,,*60
$GPGLL,3018.4642,N,12004.7019,E,090502.000,A,A*51
$GPGSA,A,3,21,11,05,12,194,06,13,20,25,17,,,1.23,0.90,0.84*39
$GPRMC,090502.000,A,3018.4642,N,12004.7019,E,6.40,221.54,270326,,,A*66
$GPGGA,090503.000,3018.4642,N,12004.7019,E,1,10,0.99,87.6,M,7.0,M,,*6A
$GPGLL,3018.4642,N,12004.7019,E,090503.000,A,A*50
$GPGSA,A,3,21,11,05,12,194,06,13,20,25,17,,,1.86,0.99,1.58*3F
$GPRMC,090503.000,A,3018.4642,N,12004.7019,E,6.70,218.28,270326,,,A*65
$GPGGA,090504.000,3018.4641,N,12004.7008,E,1,10,0.90,88.0,M,7.0,M,,*6E
$GPGLL,3018.4641,N,12004.7008,E,090504.000,A,A*54
$GPGSA,A,3,21,11,05,12,194,06,13,20,25,17,,,1.23,0.90,0.84*39
$GPRMC,090504.000,A,3018.4641,N,12004.7008,E,6.76,231.33,270326,,,A*66
$GPGGA,090505.000,3018.4644,N,12004.6999,E,1,10,0.90,87.9,M,7.0,M,,*6C
$GPGLL,3018.4644,N,12004.6999,E,090505.000,A,A*50
$GPGSA,A,3,21,11,05,12,194,06,13,20,25,17,,,1.23,0.90,0.84*39
$GPRMC,090505.000,A,3018.4644,N,12004.6999,E,7.42,231.30,270326,,,A*67
$GPGGA,090506.000,3018.4642,N,12004.6998,E,1,10,0.90,88.4,M,7.0,M,,*6A
$GPGLL,3018.4642,N,12004.6998,E,090506.000,A,A*54
$GPGSA,A,3,21,11,05,12,194,06,13,20,25,17,,,1.23,0.90,0.84*39
$GPRMC,090506.000,A,3018.4642,N,12004.6998,E,7.19,231.11,270326,,,A*6E
$GPGGA,090507.000,3018.4646,N,12004.6992,E,1,10,0.90,88.3,M,7.0,M,,*62
$GPGLL,3018.4646,N,12004.6992,E,090507.000,A,A*5B
$GPGSA,A,3,21,11,05,12,194,06,13,20,25,17,,,1.23,0.90,0.84*39
$GPRMC,090507.000,A,3018.4646,N,12004.6992,E,6.85,233.94,270326,,,A*6A
$GPGGA,090508.000,3018.4649,N,12004.6976,E,1,10,0.99,88.4,M,7.0,M,,*66
$GPGLL,3018.4649,N,12004.6976,E,090508.000,A,A*51
$GPGSA,A,3,21,11,05,12,194,06,13,20,25,17,,,1.86,0.99,1.58*3F
$GPRMC,090508.000,A,3018.4649,N,12004.6976,E,7.28,245.54,270326,,,A*6B
$GPGGA,090509.000,3018.4652,N,12004.6965,E,1,10,0.90,88.5,M,7.0,M,,*67
$GPGLL,3018.4652,N,12004.6965,E,090509.000,A,A*58
$GPGSA,A,3,21,11,05,12,194,06,13,20,25,17,,,1.23,0.90,0.84*39
$GPRMC,090509.000,A,3018.4652,N,12004.6965,E,7.08,240.00,270326,,,A*64
$GPGGA,090510.000,3018.4654,N,12004.6956,E,1,10,0.90,88.7,M,7.0,M,,*6B
$GPGLL,3018.4654,N,12004.6956,E,090510.000,A,A*56
$GPGSA,A,3,21,11,05,12,194,06,13,20,25,17,,,1.23,0.90,0.84*39
$GPRMC,090510.000,A,3018.4654,N,12004.6956,E,7.70,241.61,270326,,,A*63
$GPGGA,090511.000,3018.4654,N,12004.6942,E,1,10,0.99,89.1,M,7.0,M,,*61
$GPGLL,3018.4654,N,12004.6942,E,090511.000,A,A*52
$GPGSA,A,3,21,11,05,12,194,06,13,20,25,17,,,1.86,0.99,1.58*3F
$GPRMC,090511.000,A,3018.4654,N,12004.6942,E,7.05,240.41,270326,,,A*66
$GPGGA,090512.000,3018.4655,N,12004.6934,E,1,10,0.99,89.4,M,7.0,M,,*67
$GPGLL,3018.4655,N,12004.6934,E,090512.000,A,A*51
$GPGSA,A,3,21,11,05,12,194,06,13,20,25,17,,,1.86,0.99,1.58*3F
$GPRMC,090512.000,A,3018.4655,N,12004.6934,E,7.21,237.50,270326,,,A*63
$GPGGA,090513.000,3018.4655,N,12004.6927,E,1,11,0.88,90.0,M,7.0,M,,*69
$GPGLL,3018.4655,N,12004.6927,E,090513.000,A,A*52
$GPGSA,A,3,21,11,05,12,194,06,13,20,25,17,19,,1.21,0.88,0.84*3A
$GPRMC,090513.000,A,3018.4655,N,12004.6927,E,7.72,240.73,270326,,,A*67
$GPGGA,090514.000,3018.4655,N,12004.6921,E,1,11,0.96,90.5,M,7.0,M,,*62
$GPGLL,3018.4655,N,12004.6921,E,090514.000,A,A*53
$GPGSA,A,3,21,11,05,12,194,06,13,20,25,17,19,,1.82,0.96,1.54*30
$GPRMC,090514.000,A,3018.4655,N,12004.6921,E,7.54,239.69,270326,,,A*67
$GPGGA,090515.000,3018.4656,N,12004.6920,E,1,11,0.96,91.0,M,7.0,M,,*65
$GPGLL,3018.4656,N,12004.6920,E,090515.000,A,A*50
$GPGSA,A,3,21,11,05,12,194,06,13,20,25,17,19,,1.82,0.96,1.54*30
$GPRMC,090515.000,A,3018.4656,N,12004.6920,E,7.11,241.26,270326,,,A*61
$GPGGA,090516.000,3018.4657,N,12004.6915,E,1,11,0.88,91.5,M,7.0,M,,*6B
$GPGLL,3018.4657,N,12004.6915,E,090516.000,A,A*54
$GPGSA,A,3,21,11,05,12,194,06,13,20,25,17,19,,1.21,0.88,0.84*3A
$GPRMC,090516.000,A,3018.4657,N,12004.6915,E,7.92,239.12,270326,,,A*66
$GPGGA,090517.000,3018.4657,N,12004.6908,E,1,11,0.96,92.0,M,7.0,M,,*6F
$GPGLL,3018.4657,N,12004.6908,E,090517.000,A,A*59
$GPGSA,A,3,21,11,05,12,194,06,13,20,25,17,19,,1.82,0.96,1.54*30
$GPRMC,090517.000,A,3018.4657,N,12004.6908,E,7.92,242.87,270326,,,A*6B
$GPGGA,090518.000,3018.4656,N,12004.6904,E,1,11,0.88,92.6,M,7.0,M,,*64
$GPGLL,3018.4656,N,12004.6904,E,090518.000,A,A*5B
$GPGSA,A,3,21,11,05,12,194,06,13,20,25,17,19,,1.21,0.88,0.84*3A
$GPRMC,090518.000,A,3018.4656,N,12004.6904,E,6.99,239.50,270326,,,A*65
$GPGGA,090519.000,3018.4655,N,12004.6901,E,1,11,0.88,93.1,M,7.0,M,,*65
$GPGLL,3018.4655,N,12004.6901,E,090519.000,A,A*5C
$GPGSA,A,3,21,11,05,12,194,06,13,20,25,17,19,,1.21,0.88,0.84*3A
$GPRMC,090519.000,A,3018.4655,N,12004.6901,E,7.01,235.84,270326,,,A*67
$GPGGA,090520.000,3018.4654,N,12004.6896,E,1,11,0.88,92.0,M,7.0,M,,*61
$GPGLL,3018.4654,N,12004.6896,E,090520.000,A,A*58
$GPGSA,A,3,21,11,05,12,194,06,13,20,25,17,19,,1.21,0.88,0.84*3A
$GPRMC,090520.000,A,3018.4654,N,12004.6896,E,7.50,235.14,270326,,,A*6E
$GPGGA,090521.000,3018.4652,N,12004.6892,E,1,11,0.88,92.1,M,7.0,M,,*63
$GPGLL,3018.4652,N,12004.6892,E,090521.000,A,A*5B
$GPGSA,A,3,21,11,05,12,194,06,13,20,25,17,19,,1.21,0.88,0.84*3A
$GPRMC,090521.000,A,3018.4652,N,12004.6892,E,7.13,234.48,270326,,,A*62
$GPGGA,090522.000,3018.4652,N,12004.6892,E,1,11,0.88,92.5,M,7.0,M,,*64
$GPGLL,3018.4652,N,12004.6892,E,090522.000,A,A*58
$GPGSA,A,3,21,11,05,12,194,06,13,20,25,17,19,,1.21,0.88,0.84*3A
$GPRMC,090522.000,A,3018.4652,N,12004.6892,E,6.51,232.88,270326,,,A*6C
$GPGGA,090523.000,3018.4654,N,12004.6902,E,1,10,1.03,92.8,M,7.0,M,,*65
$GPGLL,3018.4654,N,12004.6902,E,090523.000,A,A*57
$GPGSA,A,3,21,11,12,194,06,13,20,25,17,19,,,1.92,1.03,1.62*3C
$GPRMC,090523.000,A,3018.4654,N,12004.6902,E,5.58,224.50,270326,,,A*6B
$GPGGA,090524.000,3018.4653,N,12004.6899,E,1,10,1.03,93.2,M,7.0,M,,*6D
$GPGLL,3018.4653,N,12004.6899,E,090524.000,A,A*54
$GPGSA,A,3,21,11,12,194,06,13,20,25,17,19,,,1.92,1.03,1.62*3C
$GPRMC,090524.000,A,3018.4653,N,12004.6899,E,5.58,230.44,270326,,,A*68
$GPGGA,090525.000,3018.4652,N,12004.6896,E,1,9,0.94,93.6,M,7.0,M,,*51
$GPGLL,3018.4652,N,12004.6896,E,090525.000,A,A*5B
$GPGSA,A,3,21,11,12,194,06,13,20,25,17,,,,1.27,0.94,0.86*3E
$GPRMC,090525.000,A,3018.4652,N,12004.6896,E,5.54,229.45,270326,,,A*62
$GPGGA,090526.000,3018.4650,N,12004.6892,E,1,9,1.05,93.9,M,7.0,M,,*52
$GPGLL,3018.4650,N,12004.6892,E,090526.000,A,A*5E
$GPGSA,A,3,21,11,12,194,06,13,20,25,17,,,,1.97,1.05,1.67*32
$GPRMC,090526.000,A,3018.4650,N,12004.6892,E,5.33,230.23,270326,,,A*6E
$GPGGA,090527.000,3018.4652,N,12004.6893,E,1,9,1.05,93.9,M,7.0,M,,*50
$GPGLL,3018.4652,N,12004.6893,E,090527.000,A,A*5C
$GPGSA,A,3,21,11,12,194,06,13,20,25,17,,,,1.97,1.05,1.67*32
$GPRMC,090527.000,A,3018.4652,N,12004.6893,E,6.03,236.03,270326,,,A*68
$GPGGA,090528.000,3018.4656,N,12004.6903,E,1,10,0.99,94.3,M,7.0,M,,*62
$GPGLL,3018.4656,N,12004.6903,E,090528.000,A,A*5F
$GPGSA,A,3,21,11,05,12,194,06,13,20,25,17,,,1.87,0.99,1.58*3E
$GPRMC,090528.000,A,3018.4656,N,12004.6903,E,4.72,227.42,270326,,,A*6A
$GPGGA,090529.000,3018.4660,N,12004.6912,E,1,10,0.99,94.7,M,7.0,M,,*62
$GPGLL,3018.4660,N,12004.6912,E,090529.000,A,A*5B
$GPGSA,A,3,21,11,05,12,194,06,13,20,25,17,,,1.87,0.99,1.58*3E
$GPRMC,090529.000,A,3018.4660,N,12004.6912,E,4.70,230.18,270326,,,A*65
$GPGGA,090530.000,3018.4660,N,12004.6911,E,1,10,0.90,95.2,M,7.0,M,,*64
$GPGLL,3018.4660,N,12004.6911,E,090530.000,A,A*50
$GPGSA,A,3,21,11,05,12,194,06,13,20,25,17,,,1.23,0.90,0.85*38
$GPRMC,090530.000,A,3018.4660,N,12004.6911,E,5.00,229.24,270326,,,A*6F
$GPGGA,090531.000,3018.4659,N,12004.6910,E,1,10,0.90,95.6,M,7.0,M,,*6A
$GPGLL,3018.4659,N,12004.6910,E,090531.000,A,A*5A
$GPGSA,A,3,21,11,05,12,194,06,13,20,25,17,,,1.23,0.90,0.85*38
$GPRMC,090531.000,A,3018.4659,N,12004.6910,E,5.16,231.28,270326,,,A*67
$GPGGA,090532.000,3018.4661,N,12004.6909,E,1,10,0.99,96.0,M,7.0,M,,*66
$GPGLL,3018.4661,N,12004.6909,E,090532.000,A,A*5A
$GPGSA,A,3,21,11,05,12,194,06,13,20,25,17,,,1.86,0.99,1.58*3F
$GPRMC,090532.000,A,3018.4661,N,12004.6909,E,6.08,242.67,270326,,,A*64
$GPGGA,090533.000,3018.4663,N,12004.6910,E,1,10,0.99,96.6,M,7.0,M,,*6B
$GPGLL,3018.4663,N,12004.6910,E,090533.000,A,A*51
$GPGSA,A,3,21,11,05,12,194,06,13,20,25,17,,,1.86,0.99,1.58*3F
$GPRMC,090533.000,A,3018.4663,N,12004.6910,E,5.84,240.29,270326,,,A*60
$GPGGA,090534.000,3018.4664,N,12004.6914,E,1,10,0.90,97.2,M,7.0,M,,*63
$GPGLL,3018.4664,N,12004.6914,E,090534.000,A,A*55
$GPGSA,A,3,21,11,05,12,194,06,13,20,25,17,,,1.23,0.90,0.85*38
$GPRMC,090534.000,A,3018.4664,N,12004.6914,E,4.88,232.84,270326,,,A*6B
$GPGGA,090535.000,3018.4665,N,12004.6919,E,1,10,0.99,97.8,M,7.0,M,,*6D
$GPGLL,3018.4665,N,12004.6919,E,090535.000,A,A*58
$GPGSA,A,3,21,11,05,12,194,06,13,20,25,17,,,1.87,0.99,1.58*3E
$GPRMC,090535.000,A,3018.4665,N,12004.6919,E,4.72,231.23,270326,,,A*6D
$GPGGA,090536.000,3018.4666,N,12004.6928,E,1,10,0.99,98.4,M,7.0,M,,*6C
$GPGLL,3018.4666,N,12004.6928,E,090536.000,A,A*5A
$GPGSA,A,3,21,11,05,12,194,06,13,20,25,17,,,1.86,0.99,1.58*3F
$GPRMC,090536.000,A,3018.4666,N,12004.6928,E,4.40,226.93,270326,,,A*63
$GPGGA,090537.000,3018.4666,N,12004.6936,E,1,10,0.90,98.9,M,7.0,M,,*66
$GPGLL,3018.4666,N,12004.6936,E,090537.000,A,A*54
$GPGSA,A,3,21,11,05,12,194,06,13,20,25,17,,,1.23,0.90,0.85*38
$GPRMC,090537.000,A,3018.4666,N,12004.6936,E,3.88,221.46,270326,,,A*61
$GPGGA,090538.000,3018.4673,N,12004.6943,E,1,10,0.90,96.0,M,7.0,M,,*68
$GPGLL,3018.4673,N,12004.6943,E,090538.000,A,A*5D
$GPGSA,A,3,21,11,05,12,194,06,13,20,25,17,,,1.23,0.90,0.85*38
$GPRMC,090538.000,A,3018.4673,N,12004.6943,E,4.07,219.50,270326,,,A*64
$GPGGA,090539.000,3018.4678,N,12004.6948,E,1,10,0.99,94.8,M,7.0,M,,*6A
$GPGLL,3018.4678,N,12004.6948,E,090539.000,A,A*5C
$GPGSA,A,3,21,11,05,12,194,06,13,20,25,17,,,1.87,0.99,1.58*3E
$GPRMC,090539.000,A,3018.4678,N,12004.6948,E,4.44,234.77,270326,,,A*68
$GPGGA,090540.000,3018.4684,N,12004.6958,E,1,10,0.99,93.5,M,7.0,M,,*6C
$GPGLL,3018.4684,N,12004.6958,E,090540.000,A,A*50
$GPGSA,A,3,21,11,05,12,194,06,13,20,25,17,,,1.87,0.99,1.58*3E
$GPRMC,090540.000,A,3018.4684,N,12004.6958,E,3.72,228.65,270326,,,A*68
$GPGGA,090541.000,3018.4687,N,12004.6963,E,1,9,0.90,93.4,M,7.0,M,,*56
$GPGLL,3018.4687,N,12004.6963,E,090541.000,A,A*5A
$GPGSA,A,3,11,05,12,194,06,13,20,25,17,,,,1.27,0.90,0.89*33
$GPRMC,090541.000,A,3018.4687,N,12004.6963,E,4.06,230.95,270326,,,A*60
$GPGGA,090542.000,3018.4691,N,12004.6967,E,1,10,1.00,93.6,M,7.0,M,,*64
$GPGLL,3018.4691,N,12004.6967,E,090542.000,A,A*5A
$GPGSA,A,3,11,05,12,194,06,13,20,25,19,17,,,2.11,1.00,1.86*3B
$GPRMC,090542.000,A,3018.4691,N,12004.6967,E,4.00,229.87,270326,,,A*6D
$GPGGA,090543.000,3018.4693,N,12004.6960,E,1,10,0.88,93.9,M,7.0,M,,*6E
$GPGLL,3018.4693,N,12004.6960,E,090543.000,A,A*5E
$GPGSA,A,3,11,05,12,194,06,13,20,25,19,17,,,1.25,0.88,0.88*31
$GPRMC,090543.000,A,3018.4693,N,12004.6960,E,4.41,236.80,270326,,,A*65
$GPGGA,090544.000,3018.4693,N,12004.6964,E,1,11,0.88,94.1,M,7.0,M,,*63
$GPGLL,3018.4693,N,12004.6964,E,090544.000,A,A*5D
$GPGSA,A,3,21,11,05,12,194,06,13,20,25,19,17,,1.21,0.88,0.84*3A
$GPRMC,090544.000,A,3018.4693,N,12004.6964,E,3.79,223.01,270326,,,A*67
$GPGGA,090545.000,3018.4696,N,12004.6971,E,1,11,0.88,94.4,M,7.0,M,,*66
$GPGLL,3018.4696,N,12004.6971,E,090545.000,A,A*5D
$GPGSA,A,3,21,11,05,12,194,06,13,20,25,19,17,,1.21,0.88,0.84*3A
$GPRMC,090545.000,A,3018.4696,N,12004.6971,E,3.74,236.57,270326,,,A*6D
$GPGGA,090546.000,3018.4699,N,12004.6973,E,1,11,0.88,92.8,M,7.0,M,,*62
$GPGLL,3018.4699,N,12004.6973,E,090546.000,A,A*53
$GPGSA,A,3,21,11,05,12,194,06,13,20,25,19,17,,1.21,0.88,0.84*3A
$GPRMC,090546.000,A,3018.4699,N,12004.6973,E,3.80,237.01,270326,,,A*6A
$GPGGA,090547.000,3018.4701,N,12004.6975,E,1,11,0.88,92.6,M,7.0,M,,*6B
$GPGLL,3018.4701,N,12004.6975,E,090547.000,A,A*54
$GPGSA,A,3,21,11,05,12,194,06,13,20,25,19,17,,1.21,0.88,0.84*3A
$GPRMC,090547.000,A,3018.4701,N,12004.6975,E,3.84,237.09,270326,,,A*61
$GPGGA,090548.000,3018.4701,N,12004.6976,E,1,11,0.88,92.6,M,7.0,M,,*67
$GPGLL,3018.4701,N,12004.6976,E,090548.000,A,A*58
$GPGSA,A,3,21,11,05,12,194,06,13,20,25,19,17,,1.21,0.88,0.84*3A
$GPRMC,090548.000,A,3018.4701,N,12004.6976,E,3.81,237.89,270326,,,A*60
$GPGGA,090549.000,3018.4702,N,12004.6976,E,1,11,0.88,92.7,M,7.0,M,,*64
$GPGLL,3018.4702,N,12004.6976,E,090549.000,A,A*5A
$GPGSA,A,3,21,11,05,12,194,06,13,20,25,19,17,,1.21,0.88,0.84*3A
$GPRMC,090549.000,A,3018.4702,N,12004.6976,E,3.60,244.40,270326,,,A*6C
$GPGGA,090550.000,3018.4703,N,12004.6978,E,1,11,0.88,92.7,M,7.0,M,,*63
$GPGLL,3018.4703,N,12004.6978,E,090550.000,A,A*5D
$GPGSA,A,3,21,11,05,12,194,06,13,20,25,19,17,,1.21,0.88,0.84*3A
$GPRMC,090550.000,A,3018.4703,N,12004.6978,E,4.01,233.68,270326,,,A*61
$GPGGA,090551.000,3018.4707,N,12004.6974,E,1,11,0.88,92.1,M,7.0,M,,*6C
$GPGLL,3018.4707,N,12004.6974,E,090551.000,A,A*54
$GPGSA,A,3,21,11,05,12,194,06,13,20,25,19,17,,1.21,0.88,0.84*3A
$GPRMC,090551.000,A,3018.4707,N,12004.6974,E,3.98,240.39,270326,,,A*6F
$GPGGA,090552.000,3018.4709,N,12004.6979,E,1,11,0.88,91.7,M,7.0,M,,*69
$GPGLL,3018.4709,N,12004.6979,E,090552.000,A,A*54
$GPGSA,A,3,21,11,05,12,194,06,13,20,25,19,17,,1.21,0.88,0.84*3A
$GPRMC,090552.000,A,3018.4709,N,12004.6979,E,3.62,235.32,270326,,,A*63
$GPGGA,090553.000,3018.4714,N,12004.6984,E,1,11,0.88,91.0,M,7.0,M,,*61
$GPGLL,3018.4714,N,12004.6984,E,090553.000,A,A*5B
$GPGSA,A,3,21,11,05,12,194,06,13,20,25,19,17,,1.21,0.88,0.84*3A
$GPRMC,090553.000,A,3018.4714,N,12004.6984,E,2.83,235.32,270326,,,A*62
$GPGGA,090554.000,3018.4716,N,12004.6992,E,1,10,0.90,90.8,M,7.0,M,,*62
$GPGLL,3018.4716,N,12004.6992,E,090554.000,A,A*59
$GPGSA,A,3,21,11,05,12,194,06,13,20,25,17,,,1.23,0.90,0.85*38
$GPRMC,090554.000,A,3018.4716,N,12004.6992,E,3.54,240.56,270326,,,A*6B
$GPGGA,090555.000,3018.4717,N,12004.6995,E,1,10,1.16,90.7,M,7.0,M,,*65
$GPGLL,3018.4717,N,12004.6995,E,090555.000,A,A*5E
$GPGSA,A,3,21,11,05,12,194,06,13,20,25,17,,,1.44,1.16,0.85*36
$GPRMC,090555.000,A,3018.4717,N,12004.6995,E,3.38,234.85,270326,,,A*6B
$GPGGA,090556.000,3018.4723,N,12004.6996,E,1,9,1.16,89.6,M,7.0,M,,*53
$GPGLL,3018.4723,N,12004.6996,E,090556.000,A,A*59
$GPGSA,A,3,21,11,05,12,194,13,20,25,17,,,,1.43,1.16,0.85*37
$GPRMC,090556.000,A,3018.4723,N,12004.6996,E,3.32,237.56,270326,,,A*6B
$GPGGA,090557.000,3018.4725,N,12004.7003,E,1,9,1.16,89.3,M,7.0,M,,*55
$GPGLL,3018.4725,N,12004.7003,E,090557.000,A,A*5A
$GPGSA,A,3,21,11,05,12,194,13,20,25,17,,,,1.43,1.16,0.85*37
$GPRMC,090557.000,A,3018.4725,N,12004.7003,E,3.74,240.97,270326,,,A*67
$GPGGA,090558.000,3018.4733,N,12004.6996,E,1,9,1.16,87.5,M,7.0,M,,*51
$GPGLL,3018.4733,N,12004.6996,E,090558.000,A,A*56
$GPGSA,A,3,21,11,05,12,194,13,20,25,17,,,,1.44,1.16,0.85*30
$GPRMC,090558.000,A,3018.4733,N,12004.6996,E,3.21,247.96,270326,,,A*6D
$GPGGA,090559.000,3018.4733,N,12004.6996,E,1,9,1.16,87.5,M,7.0,M,,*50
$GPGLL,3018.4733,N,12004.6996,E,090559.000,A,A*57
$GPGSA,A,3,21,11,05,12,194,13,20,25,17,,,,1.43,1.16,0.85*37
$GPRMC,090559.000,A,3018.4733,N,12004.6996,E,3.25,249.64,270326,,,A*6B
$GPGGA,090600.000,3018.4734,N,12004.6998,E,1,9,1.16,87.6,M,7.0,M,,*55
$GPGLL,3018.4734,N,12004.6998,E,090600.000,A,A*51
$GPGSA,A,3,21,11,05,12,194,13,20,25,17,,,,1.43,1.16,0.85*37
$GPRMC,090600.000,A,3018.4734,N,12004.6998,E,3.80,245.87,270326,,,A*63
$GPGGA,090601.000,3018.4733,N,12004.6998,E,1,9,1.16,87.6,M,7.0,M,,*53
$GPGLL,3018.4733,N,12004.6998,E,090601.000,A,A*57
$GPGSA,A,3,21,11,05,12,194,13,20,25,17,,,,1.43,1.16,0.85*37
$GPRMC,090601.000,A,3018.4733,N,12004.6998,E,4.15,241.16,270326,,,A*62
$GPGGA,090602.000,3018.4733,N,12004.7003,E,1,9,1.26,87.2,M,7.0,M,,*5D
$GPGLL,3018.4733,N,12004.7003,E,090602.000,A,A*5E
$GPGSA,A,3,21,11,05,12,194,13,20,25,17,,,,2.04,1.26,1.60*3E
$GPRMC,090602.000,A,3018.4733,N,12004.7003,E,4.09,242.73,270326,,,A*66
$GPGGA,090603.000,3018.4732,N,12004.7001,E,1,9,1.26,87.3,M,7.0,M,,*5E
$GPGLL,3018.4732,N,12004.7001,E,090603.000,A,A*5C
$GPGSA,A,3,21,11,05,12,194,13,20,25,17,,,,2.04,1.26,1.60*3E
$GPRMC,090603.000,A,3018.4732,N,12004.7001,E,4.12,254.79,270326,,,A*63
$GPGGA,090604.000,3018.4733,N,12004.7003,E,1,9,1.16,87.5,M,7.0,M,,*5F
$GPGLL,3018.4733,N,12004.7003,E,090604.000,A,A*58
$GPGSA,A,3,21,11,05,12,194,13,20,25,17,,,,1.44,1.16,0.85*30
$GPRMC,090604.000,A,3018.4733,N,12004.7003,E,3.61,240.36,270326,,,A*6A
$GPGGA,090605.000,3018.4742,N,12004.7040,E,1,9,1.16,84.6,M,7.0,M,,*5F
$GPGLL,3018.4742,N,12004.7040,E,090605.000,A,A*58
$GPGSA,A,3,21,11,05,12,194,13,20,25,17,,,,1.43,1.16,0.85*37
$GPRMC,090605.000,A,3018.4742,N,12004.7040,E,2.81,240.36,270326,,,A*65
$GPGGA,090606.000,3018.4745,N,12004.7055,E,1,9,1.16,84.0,M,7.0,M,,*59
$GPGLL,3018.4745,N,12004.7055,E,090606.000,A,A*58
$GPGSA,A,3,21,11,05,12,194,13,20,25,17,,,,1.43,1.16,0.85*37
$GPRMC,090606.000,A,3018.4745,N,12004.7055,E,2.75,240.36,270326,,,A*6E
$GPGGA,090607.000,3018.4748,N,12004.7070,E,1,9,1.16,82.6,M,7.0,M,,*52
$GPGLL,3018.4748,N,12004.7070,E,090607.000,A,A*53
$GPGSA,A,3,21,11,05,12,194,13,20,25,17,,,,1.43,1.16,0.85*37
$GPRMC,090607.000,A,3018.4748,N,12004.7070,E,2.16,240.36,270326,,,A*60
$GPGGA,090608.000,3018.4752,N,12004.7076,E,1,9,1.16,82.3,M,7.0,M,,*55
$GPGLL,3018.4752,N,12004.7076,E,090608.000,A,A*51
$GPGSA,A,3,21,11,05,12,194,13,20,25,17,,,,1.43,1.16,0.85*37
$GPRMC,090608.000,A,3018.4752,N,12004.7076,E,2.96,232.23,270326,,,A*6B
$GPGGA,090609.000,3018.4750,N,12004.7075,E,1,9,1.16,82.2,M,7.0,M,,*54
$GPGLL,3018.4750,N,12004.7075,E,090609.000,A,A*51
$GPGSA,A,3,21,11,05,12,194,13,20,25,17,,,,1.43,1.16,0.85*37
$GPRMC,090609.000,A,3018.4750,N,12004.7075,E,3.17,240.82,270326,,,A*6D
$GPGGA,090610.000,3018.4762,N,12004.7093,E,1,9,1.16,82.6,M,7.0,M,,*51
$GPGLL,3018.4762,N,12004.7093,E,090610.000,A,A*50
$GPGSA,A,3,21,11,05,12,194,13,20,25,17,,,,1.43,1.16,0.85*37
$GPRMC,090610.000,A,3018.4762,N,12004.7093,E,2.61,240.82,270326,,,A*6C
$GPGGA,090611.000,3018.4759,N,12004.7092,E,1,9,1.16,83.2,M,7.0,M,,*5C
$GPGLL,3018.4759,N,12004.7092,E,090611.000,A,A*58
$GPGSA,A,3,21,11,05,12,194,13,20,25,17,,,,1.43,1.16,0.85*37
$GPRMC,090611.000,A,3018.4759,N,12004.7092,E,2.55,240.82,270326,,,A*63
$GPGGA,090612.000,3018.4756,N,12004.7091,E,1,9,1.16,83.4,M,7.0,M,,*55
$GPGLL,3018.4756,N,12004.7091,E,090612.000,A,A*57
$GPGSA,A,3,21,11,05,12,194,13,20,25,17,,,,1.43,1.16,0.85*37
$GPRMC,090612.000,A,3018.4756,N,12004.7091,E,2.35,240.82,270326,,,A*6A
$GPGGA,090613.000,3018.4753,N,12004.7087,E,1,9,1.16,83.9,M,7.0,M,,*5B
$GPGLL,3018.4753,N,12004.7087,E,090613.000,A,A*54
$GPGSA,A,3,21,11,05,12,194,13,20,25,17,,,,1.43,1.16,0.85*37
$GPRMC,090613.000,A,3018.4753,N,12004.7087,E,2.05,240.82,270326,,,A*6A
$GPGGA,090614.000,3018.4751,N,12004.7085,E,1,9,1.16,84.4,M,7.0,M,,*56
$GPGLL,3018.4751,N,12004.7085,E,090614.000,A,A*53
$GPGSA,A,3,21,11,05,12,194,13,20,25,17,,,,1.43,1.16,0.85*37
$GPRMC,090614.000,A,3018.4751,N,12004.7085,E,2.34,240.82,270326,,,A*6F
$GPGGA,090615.000,3018.4751,N,12004.7084,E,1,9,1.16,84.8,M,7.0,M,,*5A
$GPGLL,3018.4751,N,12004.7084,E,090615.000,A,A*53
$GPGSA,A,3,21,11,05,12,194,13,20,25,17,,,,1.43,1.16,0.85*37
$GPRMC,090615.000,A,3018.4751,N,12004.7084,E,2.31,240.82,270326,,,A*6A
$GPGGA,090616.000,3018.4750,N,12004.7083,E,1,9,1.16,85.4,M,7.0,M,,*52
$GPGLL,3018.4750,N,12004.7083,E,090616.000,A,A*56
$GPGSA,A,3,21,11,05,12,194,13,20,25,17,,,,1.43,1.16,0.85*37
$GPRMC,090616.000,A,3018.4750,N,12004.7083,E,2.33,240.82,270326,,,A*6D
$GPGGA,090617.000,3018.4747,N,12004.7082,E,1,9,1.16,85.9,M,7.0,M,,*59
$GPGLL,3018.4747,N,12004.7082,E,090617.000,A,A*50
$GPGSA,A,3,21,11,05,12,194,13,20,25,17,,,,1.43,1.16,0.85*37
$GPRMC,090617.000,A,3018.4747,N,12004.7082,E,2.36,240.82,270326,,,A*6E
$GPGGA,090618.000,3018.4746,N,12004.7082,E,1,9,1.16,86.3,M,7.0,M,,*5E
$GPGLL,3018.4746,N,12004.7082,E,090618.000,A,A*5E
$GPGSA,A,3,21,11,05,12,194,13,20,25,17,,,,1.43,1.16,0.85*37
$GPRMC,090618.000,A,3018.4746,N,12004.7082,E,1.99,240.82,270326,,,A*66
$GPGGA,090619.000,3018.4746,N,12004.7083,E,1,9,1.16,86.5,M,7.0,M,,*58
$GPGLL,3018.4746,N,12004.7083,E,090619.000,A,A*5E
$GPGSA,A,3,21,11,05,12,194,13,20,25,17,,,,1.43,1.16,0.85*37
$GPRMC,090619.000,A,3018.4746,N,12004.7083,E,1.93,240.82,270326,,,A*6C
$GPGGA,090620.000,3018.4745,N,12004.7078,E,1,9,1.16,87.3,M,7.0,M,,*52
$GPGLL,3018.4745,N,12004.7078,E,090620.000,A,A*53
$GPGSA,A,3,21,11,05,12,194,13,20,25,17,,,,1.43,1.16,0.85*37
$GPRMC,090620.000,A,3018.4745,N,12004.7078,E,2.33,240.82,270326,,,A*68
$GPGGA,090621.000,3018.4741,N,12004.7079,E,1,9,1.16,88.2,M,7.0,M,,*58
$GPGLL,3018.4741,N,12004.7079,E,090621.000,A,A*57
$GPGSA,A,3,21,11,05,12,194,13,20,25,17,,,,1.43,1.16,0.85*37
$GPRMC,090621.000,A,3018.4741,N,12004.7079,E,2.13,240.82,270326,,,A*6E
$GPGGA,090622.000,3018.4737,N,12004.7081,E,1,9,1.16,89.1,M,7.0,M,,*5F
$GPGLL,3018.4737,N,12004.7081,E,090622.000,A,A*52
$GPGSA,A,3,21,11,05,12,194,13,20,25,17,,,,1.43,1.16,0.85*37
$GPRMC,090622.000,A,3018.4737,N,12004.7081,E,2.20,240.82,270326,,,A*6B
$GPGGA,090623.000,3018.4733,N,12004.7076,E,1,10,1.11,90.0,M,7.0,M,,*64
$GPGLL,3018.4733,N,12004.7076,E,090623.000,A,A*5F
$GPGSA,A,3,21,11,05,12,194,13,20,25,19,17,,,1.39,1.11,0.85*35
$GPRMC,090623.000,A,3018.4733,N,12004.7076,E,2.53,240.82,270326,,,A*62
$GPGGA,090624.000,3018.4731,N,12004.7076,E,1,9,1.20,90.6,M,7.0,M,,*5D
$GPGLL,3018.4731,N,12004.7076,E,090624.000,A,A*5A
$GPGSA,A,3,21,11,05,12,194,13,20,25,19,,,,1.49,1.20,0.88*3B
$GPRMC,090624.000,A,3018.4731,N,12004.7076,E,2.55,240.82,270326,,,A*61
$GPGGA,090625.000,3018.4728,N,12004.7075,E,1,9,1.20,91.3,M,7.0,M,,*53
$GPGLL,3018.4728,N,12004.7075,E,090625.000,A,A*50
$GPGSA,A,3,21,11,05,12,194,13,20,25,19,,,,1.49,1.20,0.88*3B
$GPRMC,090625.000,A,3018.4728,N,12004.7075,E,2.82,240.82,270326,,,A*61
$GPGGA,090626.000,3018.4726,N,12004.7075,E,1,9,1.20,91.9,M,7.0,M,,*54
$GPGLL,3018.4726,N,12004.7075,E,090626.000,A,A*5D
$GPGSA,A,3,21,11,05,12,194,13,20,25,19,,,,1.49,1.20,0.88*3B
$GPRMC,090626.000,A,3018.4726,N,12004.7075,E,2.33,240.82,270326,,,A*66
$GPGGA,090627.000,3018.4730,N,12004.7066,E,1,9,1.20,91.5,M,7.0,M,,*5C
$GPGLL,3018.4730,N,12004.7066,E,090627.000,A,A*59
$GPGSA,A,3,21,11,05,12,194,13,20,25,19,,,,1.49,1.20,0.88*3B
$GPRMC,090627.000,A,3018.4730,N,12004.7066,E,2.85,240.82,270326,,,A*6F
$GPGGA,090628.000,3018.4727,N,12004.7069,E,1,9,1.20,91.7,M,7.0,M,,*58
$GPGLL,3018.4727,N,12004.7069,E,090628.000,A,A*5F
$GPGSA,A,3,21,11,05,12,194,13,20,25,19,,,,1.49,1.20,0.88*3B
$GPRMC,090628.000,A,3018.4727,N,12004.7069,E,2.78,240.82,270326,,,A*6B
$GPGGA,090629.000,3018.4724,N,12004.7068,E,1,9,1.20,92.3,M,7.0,M,,*5C
$GPGLL,3018.4724,N,12004.7068,E,090629.000,A,A*5C
$GPGSA,A,3,21,11,05,12,194,13,20,25,19,,,,1.49,1.20,0.88*3B
$GPRMC,090629.000,A,3018.4724,N,12004.7068,E,2.77,240.82,270326,,,A*67
$GPGGA,090630.000,3018.4727,N,12004.7058,E,1,9,1.20,92.0,M,7.0,M,,*57
$GPGLL,3018.4727,N,12004.7058,E,090630.000,A,A*54
$GPGSA,A,3,21,11,05,12,194,13,20,25,19,,,,1.49,1.20,0.88*3B
$GPRMC,090630.000,A,3018.4727,N,12004.7058,E,2.81,240.82,270326,,,A*66
$GPGGA,090631.000,3018.4726,N,12004.7056,E,1,9,1.20,92.5,M,7.0,M,,*5C
$GPGLL,3018.4726,N,12004.7056,E,090631.000,A,A*5A
$GPGSA,A,3,21,11,05,12,194,13,20,25,19,,,,1.49,1.20,0.88*3B
$GPRMC,090631.000,A,3018.4726,N,12004.7056,E,2.73,240.82,270326,,,A*65
$GPGGA,090632.000,3018.4727,N,12004.7075,E,1,8,1.23,91.6,M,7.0,M,,*5D
$GPGLL,3018.4727,N,12004.7075,E,090632.000,A,A*59
$GPGSA,A,3,21,11,05,12,13,20,25,19,,,,,1.51,1.23,0.88*0D
$GPRMC,090632.000,A,3018.4727,N,12004.7075,E,2.58,240.82,270326,,,A*6F
$GPGGA,090633.000,3018.4726,N,12004.7074,E,1,8,1.23,92.2,M,7.0,M,,*5B
$GPGLL,3018.4726,N,12004.7074,E,090633.000,A,A*58
$GPGSA,A,3,21,11,05,12,13,20,25,19,,,,,1.51,1.23,0.88*0D
$GPRMC,090633.000,A,3018.4726,N,12004.7074,E,2.65,240.82,270326,,,A*60
$GPGGA,090634.000,3018.4727,N,12004.7070,E,1,8,1.23,92.3,M,7.0,M,,*58
$GPGLL,3018.4727,N,12004.7070,E,090634.000,A,A*5A
$GPGSA,A,3,21,11,05,12,13,20,25,19,,,,,1.51,1.23,0.88*0D
$GPRMC,090634.000,A,3018.4727,N,12004.7070,E,2.83,240.82,270326,,,A*6A
$GPGGA,090635.000,3018.4727,N,12004.7066,E,1,8,1.23,92.4,M,7.0,M,,*59
$GPGLL,3018.4727,N,12004.7066,E,090635.000,A,A*5C
$GPGSA,A,3,21,11,05,12,13,20,25,19,,,,,1.51,1.23,0.88*0D
$GPRMC,090635.000,A,3018.4727,N,12004.7066,E,2.89,231.49,270326,,,A*67
$GPGGA,090636.000,3018.4728,N,12004.7067,E,1,8,1.23,92.7,M,7.0,M,,*57
$GPGLL,3018.4728,N,12004.7067,E,090636.000,A,A*51
$GPGSA,A,3,21,11,05,12,13,20,25,19,,,,,1.51,1.23,0.88*0D
$GPRMC,090636.000,A,3018.4728,N,12004.7067,E,2.05,231.49,270326,,,A*6E
$GPGGA,090637.000,3018.4728,N,12004.7070,E,1,7,1.44,93.0,M,7.0,M,,*58
$GPGLL,3018.4728,N,12004.7070,E,090637.000,A,A*56
$GPGSA,A,3,21,11,05,12,13,20,25,,,,,,1.69,1.44,0.88*0F
$GPRMC,090637.000,A,3018.4728,N,12004.7070,E,2.03,231.49,270326,,,A*6F
$GPGGA,090638.000,3018.4727,N,12004.7074,E,1,7,1.44,93.4,M,7.0,M,,*58
$GPGLL,3018.4727,N,12004.7074,E,090638.000,A,A*52
$GPGSA,A,3,21,11,05,12,13,20,25,,,,,,1.69,1.44,0.88*0F
$GPRMC,090638.000,A,3018.4727,N,12004.7074,E,2.24,231.49,270326,,,A*6E
$GPGGA,090639.000,3018.4726,N,12004.7076,E,1,7,1.44,93.9,M,7.0,M,,*57
$GPGLL,3018.4726,N,12004.7076,E,090639.000,A,A*50
$GPGSA,A,3,21,11,05,12,13,20,25,,,,,,1.69,1.44,0.88*0F
$GPRMC,090639.000,A,3018.4726,N,12004.7076,E,2.50,231.49,270326,,,A*6F
$GPGGA,090640.000,3018.4725,N,12004.7078,E,1,7,1.44,93.5,M,7.0,M,,*58
$GPGLL,3018.4725,N,12004.7078,E,090640.000,A,A*53
$GPGSA,A,3,21,11,05,12,13,20,25,,,,,,1.69,1.44,0.88*0F
$GPRMC,090640.000,A,3018.4725,N,12004.7078,E,2.77,231.49,270326,,,A*69
$GPGGA,090641.000,3018.4724,N,12004.7078,E,1,7,1.44,93.8,M,7.0,M,,*55
$GPGLL,3018.4724,N,12004.7078,E,090641.000,A,A*53
$GPGSA,A,3,21,11,05,12,13,20,25,,,,,,1.69,1.44,0.88*0F
$GPRMC,090641.000,A,3018.4724,N,12004.7078,E,3.01,230.41,270326,,,A*60
$GPGGA,090642.000,3018.4723,N,12004.7076,E,1,8,1.35,93.6,M,7.0,M,,*58
$GPGLL,3018.4723,N,12004.7076,E,090642.000,A,A*59
$GPGSA,A,3,21,11,05,12,194,13,20,25,,,,,1.61,1.35,0.88*3D
$GPRMC,090642.000,A,3018.4723,N,12004.7076,E,3.02,234.03,270326,,,A*6B
$GPGGA,090643.000,3018.4723,N,12004.7071,E,1,8,1.35,93.5,M,7.0,M,,*5D
$GPGLL,3018.4723,N,12004.7071,E,090643.000,A,A*5F
$GPGSA,A,3,21,11,05,12,194,13,20,25,,,,,1.61,1.35,0.88*3D
$GPRMC,090643.000,A,3018.4723,N,12004.7071,E,3.47,244.94,270326,,,A*65
$GPGGA,090644.000,3018.4722,N,12004.7069,E,1,8,1.35,93.7,M,7.0,M,,*50
$GPGLL,3018.4722,N,12004.7069,E,090644.000,A,A*50
$GPGSA,A,3,21,11,05,12,194,13,20,25,,,,,1.61,1.35,0.88*3D
$GPRMC,090644.000,A,3018.4722,N,12004.7069,E,3.02,234.73,270326,,,A*65
$GPGGA,090645.000,3018.4721,N,12004.7067,E,1,8,1.35,93.8,M,7.0,M,,*53
$GPGLL,3018.4721,N,12004.7067,E,090645.000,A,A*5C
$GPGSA,A,3,21,11,05,12,194,13,20,25,,,,,1.61,1.35,0.88*3D
$GPRMC,090645.000,A,3018.4721,N,12004.7067,E,2.72,234.73,270326,,,A*6F
$GPGGA,090646.000,3018.4720,N,12004.7066,E,1,8,1.35,93.8,M,7.0,M,,*50
$GPGLL,3018.4720,N,12004.7066,E,090646.000,A,A*5F
$GPGSA,A,3,21,11,05,12,194,13,20,25,,,,,1.61,1.35,0.88*3D
$GPRMC,090646.000,A,3018.4720,N,12004.7066,E,2.68,234.73,270326,,,A*67
$GPGGA,090647.000,3018.4718,N,12004.7067,E,1,8,1.35,94.0,M,7.0,M,,*54
$GPGLL,3018.4718,N,12004.7067,E,090647.000,A,A*54
$GPGSA,A,3,21,11,05,12,194,13,20,25,,,,,1.61,1.35,0.88*3D
$GPRMC,090647.000,A,3018.4718,N,12004.7067,E,2.62,234.73,270326,,,A*66
$GPGGA,090648.000,3018.4718,N,12004.7068,E,1,8,1.35,94.2,M,7.0,M,,*56
$GPGLL,3018.4718,N,12004.7068,E,090648.000,A,A*54
$GPGSA,A,3,21,11,05,12,194,13,20,25,,,,,1.61,1.35,0.88*3D
$GPRMC,090648.000,A,3018.4718,N,12004.7068,E,1.83,234.73,270326,,,A*6A
$GPGGA,090649.000,3018.4716,N,12004.7068,E,1,8,1.35,94.7,M,7.0,M,,*5C
$GPGLL,3018.4716,N,12004.7068,E,090649.000,A,A*5B
$GPGSA,A,3,21,11,05,12,194,13,20,25,,,,,1.61,1.35,0.88*3D
$GPRMC,090649.000,A,3018.4716,N,12004.7068,E,2.29,234.73,270326,,,A*66
$GPGGA,090650.000,3018.4713,N,12004.7068,E,1,8,1.35,94.7,M,7.0,M,,*51
$GPGLL,3018.4713,N,12004.7068,E,090650.000,A,A*56
$GPGSA,A,3,21,11,05,12,194,13,20,25,,,,,1.61,1.35,0.88*3D
$GPRMC,090650.000,A,3018.4713,N,12004.7068,E,2.28,234.73,270326,,,A*6A
$GPGGA,090651.000,3018.4711,N,12004.7069,E,1,8,1.34,94.7,M,7.0,M,,*52
$GPGLL,3018.4711,N,12004.7069,E,090651.000,A,A*54
$GPGSA,A,3,21,11,05,12,194,13,20,25,,,,,1.61,1.34,0.88*3C
$GPRMC,090651.000,A,3018.4711,N,12004.7069,E,2.33,234.73,270326,,,A*62
$GPGGA,090652.000,3018.4710,N,12004.7072,E,1,8,1.35,94.8,M,7.0,M,,*54
$GPGLL,3018.4710,N,12004.7072,E,090652.000,A,A*5C
$GPGSA,A,3,21,11,05,12,194,13,20,25,,,,,1.61,1.35,0.88*3D
$GPRMC,090652.000,A,3018.4710,N,12004.7072,E,2.32,234.73,270326,,,A*6B
$GPGGA,090653.000,3018.4708,N,12004.7075,E,1,8,1.34,94.8,M,7.0,M,,*5A
$GPGLL,3018.4708,N,12004.7075,E,090653.000,A,A*53
$GPGSA,A,3,21,11,05,12,194,13,20,25,,,,,1.61,1.34,0.88*3C
$GPRMC,090653.000,A,3018.4708,N,12004.7075,E,2.10,234.73,270326,,,A*64
$GPGGA,090654.000,3018.4708,N,12004.7078,E,1,8,1.35,94.8,M,7.0,M,,*51
$GPGLL,3018.4708,N,12004.7078,E,090654.000,A,A*59
$GPGSA,A,3,21,11,05,12,194,13,20,25,,,,,1.61,1.35,0.88*3D
$GPRMC,090654.000,A,3018.4708,N,12004.7078,E,2.10,234.73,270326,,,A*6E
$GPGGA,090655.000,3018.4708,N,12004.7083,E,1,8,1.34,95.2,M,7.0,M,,*5E
$GPGLL,3018.4708,N,12004.7083,E,090655.000,A,A*5C
$GPGSA,A,3,21,11,05,12,194,13,20,25,,,,,1.61,1.34,0.88*3C
$GPRMC,090655.000,A,3018.4708,N,12004.7083,E,2.08,234.73,270326,,,A*62
$GPGGA,090656.000,3018.4709,N,12004.7087,E,1,8,1.35,95.6,M,7.0,M,,*5D
$GPGLL,3018.4709,N,12004.7087,E,090656.000,A,A*5A
$GPGSA,A,3,21,11,05,12,194,13,20,25,,,,,1.61,1.35,0.88*3D
$GPRMC,090656.000,A,3018.4709,N,12004.7087,E,2.10,234.73,270326,,,A*6D
$GPGGA,090657.000,3018.4710,N,12004.7092,E,1,8,1.34,96.0,M,7.0,M,,*54
$GPGLL,3018.4710,N,12004.7092,E,090657.000,A,A*57
$GPGSA,A,3,21,11,05,12,194,13,20,25,,,,,1.61,1.34,0.88*3C
$GPRMC,090657.000,A,3018.4710,N,12004.7092,E,1.86,234.73,270326,,,A*6C
$GPGGA,090658.000,3018.4708,N,12004.7093,E,1,8,1.34,96.6,M,7.0,M,,*55
$GPGLL,3018.4708,N,12004.7093,E,090658.000,A,A*50
$GPGSA,A,3,21,11,05,12,194,13,20,25,,,,,1.61,1.34,0.88*3C
$GPRMC,090658.000,A,3018.4708,N,12004.7093,E,1.90,234.73,270326,,,A*6C
$GPGGA,090659.000,3018.4708,N,12004.7096,E,1,8,1.35,97.0,M,7.0,M,,*57
$GPGLL,3018.4708,N,12004.7096,E,090659.000,A,A*54
$GPGSA,A,3,21,11,05,12,194,13,20,25,,,,,1.61,1.35,0.88*3D
$GPRMC,090659.000,A,3018.4708,N,12004.7096,E,1.89,234.73,270326,,,A*60
$GPGGA,090700.000,3018.4707,N,12004.7096,E,1,8,1.34,97.6,M,7.0,M,,*52
$GPGLL,3018.4707,N,12004.7096,E,090700.000,A,A*56
$GPGSA,A,3,21,11,05,12,194,13,20,25,,,,,1.61,1.34,0.88*3C
$GPRMC,090700.000,A,3018.4707,N,12004.7096,E,1.90,234.73,270326,,,A*6A
$GPGGA,090701.000,3018.4705,N,12004.7097,E,1,8,1.35,98.2,M,7.0,M,,*5A
$GPGLL,3018.4705,N,12004.7097,E,090701.000,A,A*54
$GPGSA,A,3,21,11,05,12,194,13,20,25,,,,,1.61,1.35,0.88*3D
$GPRMC,090701.000,A,3018.4705,N,12004.7097,E,1.84,234.73,270326,,,A*6D
$GPGGA,090702.000,3018.4704,N,12004.7099,E,1,9,0.96,98.8,M,7.0,M,,*55
$GPGLL,3018.4704,N,12004.7099,E,090702.000,A,A*58
$GPGSA,A,3,21,11,05,12,194,06,13,20,25,,,,1.29,0.96,0.86*31
$GPRMC,090702.000,A,3018.4704,N,12004.7099,E,1.63,234.73,270326,,,A*68
$GPGGA,090703.000,3018.4703,N,12004.7099,E,1,10,0.91,99.4,M,7.0,M,,*61
$GPGLL,3018.4703,N,12004.7099,E,090703.000,A,A*5E
$GPGSA,A,3,21,11,05,12,194,06,13,20,25,19,,,1.26,0.91,0.86*31
$GPRMC,090703.000,A,3018.4703,N,12004.7099,E,1.60,234.73,270326,,,A*6D
$GPGGA,090704.000,3018.4702,N,12004.7100,E,1,10,0.91,99.9,M,7.0,M,,*6B
$GPGLL,3018.4702,N,12004.7100,E,090704.000,A,A*59
$GPGSA,A,3,21,11,05,12,194,06,13,20,25,19,,,1.26,0.91,0.86*31
$GPRMC,090704.000,A,3018.4702,N,12004.7100,E,1.77,223.78,270326,,,A*61
$GPGGA,090705.000,3018.4702,N,12004.7100,E,1,10,0.91,100.2,M,7.0,M,,*50
$GPGLL,3018.4702,N,12004.7100,E,090705.000,A,A*58
$GPGSA,A,3,21,11,05,12,194,06,13,20,25,19,,,1.26,0.91,0.86*31
$GPRMC,090705.000,A,3018.4702,N,12004.7100,E,1.99,228.55,270326,,,A*64
$GPGGA,090706.000,3018.4702,N,12004.7098,E,1,10,0.91,100.3,M,7.0,M,,*52
$GPGLL,3018.4702,N,12004.7098,E,090706.000,A,A*5B
$GPGSA,A,3,21,11,05,12,194,06,13,20,25,19,,,1.26,0.91,0.86*31
$GPRMC,090706.000,A,3018.4702,N,12004.7098,E,2.27,226.58,270326,,,A*62
$GPGGA,090707.000,3018.4703,N,12004.7095,E,1,10,0.92,100.5,M,7.0,M,,*5A
$GPGLL,3018.4703,N,12004.7095,E,090707.000,A,A*56
$GPGSA,A,3,21,11,05,12,195,06,13,20,25,19,,,1.25,0.92,0.86*30
$GPRMC,090707.000,A,3018.4703,N,12004.7095,E,2.32,238.58,270326,,,A*64
$GPGGA,090708.000,3018.4704,N,12004.7098,E,1,10,0.92,100.7,M,7.0,M,,*5D
$GPGLL,3018.4704,N,12004.7098,E,090708.000,A,A*53
$GPGSA,A,3,21,11,05,12,195,06,13,20,25,19,,,1.25,0.92,0.86*30
$GPRMC,090708.000,A,3018.4704,N,12004.7098,E,2.10,227.29,270326,,,A*69
$GPGGA,090709.000,3018.4704,N,12004.7101,E,1,9,0.98,101.0,M,7.0,M,,*69
$GPGLL,3018.4704,N,12004.7101,E,090709.000,A,A*53
$GPGSA,A,3,21,11,05,12,195,06,13,20,25,,,,1.30,0.98,0.86*36
$GPRMC,090709.000,A,3018.4704,N,12004.7101,E,2.06,219.70,270326,,,A*6F
$GPGGA,090710.000,3018.4708,N,12004.7110,E,1,9,0.98,101.1,M,7.0,M,,*6C
$GPGLL,3018.4708,N,12004.7110,E,090710.000,A,A*57
$GPGSA,A,3,21,11,05,12,195,06,13,20,25,,,,1.30,0.98,0.86*36
$GPRMC,090710.000,A,3018.4708,N,12004.7110,E,1.73,216.02,270326,,,A*60
$GPGGA,090711.000,3018.4707,N,12004.7113,E,1,9,0.98,101.5,M,7.0,M,,*65
$GPGLL,3018.4707,N,12004.7113,E,090711.000,A,A*5A
$GPGSA,A,3,21,11,05,12,195,06,13,20,25,,,,1.30,0.98,0.86*36
$GPRMC,090711.000,A,3018.4707,N,12004.7113,E,1.74,224.36,270326,,,A*6C
$GPGGA,090712.000,3018.4707,N,12004.7115,E,1,9,0.98,101.8,M,7.0,M,,*6D
$GPGLL,3018.4707,N,12004.7115,E,090712.000,A,A*5F
$GPGSA,A,3,21,11,05,12,195,06,13,20,25,,,,1.30,0.98,0.86*36
$GPRMC,090712.000,A,3018.4707,N,12004.7115,E,1.73,227.23,270326,,,A*69
$GPGGA,090713.000,3018.4708,N,12004.7116,E,1,9,0.98,102.3,M,7.0,M,,*68
$GPGLL,3018.4708,N,12004.7116,E,090713.000,A,A*52
$GPGSA,A,3,21,11,05,12,195,06,13,20,25,,,,1.30,0.98,0.86*36
$GPRMC,090713.000,A,3018.4708,N,12004.7116,E,1.76,231.11,270326,,,A*67
$GPGGA,090714.000,3018.4708,N,12004.7116,E,1,9,0.98,102.7,M,7.0,M,,*6B
$GPGLL,3018.4708,N,12004.7116,E,090714.000,A,A*55
$GPGSA,A,3,21,11,05,12,195,06,13,20,25,,,,1.30,0.98,0.86*36
$GPRMC,090714.000,A,3018.4708,N,12004.7116,E,1.78,227.04,270326,,,A*6D
$GPGGA,090715.000,3018.4707,N,12004.7116,E,1,9,0.98,103.1,M,7.0,M,,*62
$GPGLL,3018.4707,N,12004.7116,E,090715.000,A,A*5B
$GPGSA,A,3,21,11,05,12,195,06,13,20,25,,,,1.30,0.98,0.86*36
$GPRMC,090715.000,A,3018.4707,N,12004.7116,E,2.13,230.75,270326,,,A*6D
$GPGGA,090716.000,3018.4708,N,12004.7115,E,1,9,0.98,103.1,M,7.0,M,,*6D
$GPGLL,3018.4708,N,12004.7115,E,090716.000,A,A*54
$GPGSA,A,3,21,11,05,12,195,06,13,20,25,,,,1.30,0.98,0.86*36
$GPRMC,090716.000,A,3018.4708,N,12004.7115,E,2.34,230.03,270326,,,A*66
$GPGGA,090717.000,3018.4709,N,12004.7116,E,1,9,0.98,103.1,M,7.0,M,,*6E
$GPGLL,3018.4709,N,12004.7116,E,090717.000,A,A*57
$GPGSA,A,3,21,11,05,12,195,06,13,20,25,,,,1.30,0.98,0.86*36
$GPRMC,090717.000,A,3018.4709,N,12004.7116,E,2.33,218.77,270326,,,A*6B
$GPGGA,090718.000,3018.4709,N,12004.7115,E,1,9,0.98,103.0,M,7.0,M,,*63
$GPGLL,3018.4709,N,12004.7115,E,090718.000,A,A*5B
$GPGSA,A,3,21,11,05,12,195,06,13,20,25,,,,1.30,0.98,0.86*36
$GPRMC,090718.000,A,3018.4709,N,12004.7115,E,2.32,230.38,270326,,,A*67
$GPGGA,090719.000,3018.4710,N,12004.7114,E,1,9,0.98,103.0,M,7.0,M,,*6B
$GPGLL,3018.4710,N,12004.7114,E,090719.000,A,A*53
$GPGSA,A,3,21,11,05,12,195,06,13,20,25,,,,1.30,0.98,0.86*36
$GPRMC,090719.000,A,3018.4710,N,12004.7114,E,2.34,238.16,270326,,,A*6D
$GPGGA,090720.000,3018.4712,N,12004.7117,E,1,9,0.98,102.6,M,7.0,M,,*67
$GPGLL,3018.4712,N,12004.7117,E,090720.000,A,A*58
$GPGSA,A,3,21,11,05,12,195,06,13,20,25,,,,1.30,0.98,0.86*36
$GPRMC,090720.000,A,3018.4712,N,12004.7117,E,1.94,240.26,270326,,,A*63
$GPGGA,090721.000,3018.4711,N,12004.7118,E,1,9,0.98,102.6,M,7.0,M,,*6A
$GPGLL,3018.4711,N,12004.7118,E,090721.000,A,A*55
$GPGSA,A,3,21,11,05,12,195,06,13,20,25,,,,1.30,0.98,0.86*36
$GPRMC,090721.000,A,3018.4711,N,12004.7118,E,1.88,226.89,270326,,,A*66
$GPGGA,090722.000,3018.4710,N,12004.7126,E,1,9,0.98,102.4,M,7.0,M,,*67
$GPGLL,3018.4710,N,12004.7126,E,090722.000,A,A*5A
$GPGSA,A,3,21,11,05,12,195,06,13,20,25,,,,1.30,0.98,0.86*36
$GPRMC,090722.000,A,3018.4710,N,12004.7126,E,1.50,202.73,270326,,,A*6F
$GPGGA,090723.000,3018.4708,N,12004.7128,E,1,8,0.98,102.6,M,7.0,M,,*62
$GPGLL,3018.4708,N,12004.7128,E,090723.000,A,A*5C
$GPGSA,A,3,11,05,12,195,06,13,20,25,,,,,1.33,0.98,0.90*31
$GPRMC,090723.000,A,3018.4708,N,12004.7128,E,1.71,200.38,270326,,,A*67
$GPGGA,090724.000,3018.4706,N,12004.7125,E,1,9,0.93,102.9,M,7.0,M,,*63
$GPGLL,3018.4706,N,12004.7125,E,090724.000,A,A*58
$GPGSA,A,3,11,05,12,195,194,06,13,20,25,,,,1.29,0.93,0.89*05
$GPRMC,090724.000,A,3018.4706,N,12004.7125,E,2.22,222.93,270326,,,A*67
$GPGGA,090725.000,3018.4707,N,12004.7129,E,1,10,0.87,102.4,M,7.0,M,,*5F
$GPGLL,3018.4707,N,12004.7129,E,090725.000,A,A*54
$GPGSA,A,3,11,05,12,195,194,06,13,20,25,17,,,1.23,0.87,0.87*02
$GPRMC,090725.000,A,3018.4707,N,12004.7129,E,1.84,210.26,270326,,,A*6B
$GPGGA,090726.000,3018.4705,N,12004.7132,E,1,10,0.87,102.7,M,7.0,M,,*57
$GPGLL,3018.4705,N,12004.7132,E,090726.000,A,A*5F
$GPGSA,A,3,11,05,12,195,194,06,13,20,25,17,,,1.23,0.87,0.87*02
$GPRMC,090726.000,A,3018.4705,N,12004.7132,E,1.48,230.97,270326,,,A*68
$GPGGA,090727.000,3018.4704,N,12004.7131,E,1,10,0.87,102.8,M,7.0,M,,*5B
$GPGLL,3018.4704,N,12004.7131,E,090727.000,A,A*5C
$GPGSA,A,3,11,05,12,195,194,06,13,20,25,17,,,1.23,0.87,0.87*02
$GPRMC,090727.000,A,3018.4704,N,12004.7131,E,2.01,232.70,270326,,,A*6E
$GPGGA,090728.000,3018.4705,N,12004.7125,E,1,10,0.87,102.7,M,7.0,M,,*5F
$GPGLL,3018.4705,N,12004.7125,E,090728.000,A,A*57
$GPGSA,A,3,11,05,12,195,194,06,13,20,25,17,,,1.23,0.87,0.87*02
$GPRMC,090728.000,A,3018.4705,N,12004.7125,E,1.74,220.36,270326,,,A*65
$GPGGA,090729.000,3018.4704,N,12004.7124,E,1,10,0.87,103.0,M,7.0,M,,*58
$GPGLL,3018.4704,N,12004.7124,E,090729.000,A,A*56
$GPGSA,A,3,11,05,12,195,194,06,13,20,25,17,,,1.23,0.87,0.87*02
$GPRMC,090729.000,A,3018.4704,N,12004.7124,E,1.56,220.31,270326,,,A*63
$GPGGA,090730.000,3018.4702,N,12004.7125,E,1,10,0.87,103.1,M,7.0,M,,*56
$GPGLL,3018.4702,N,12004.7125,E,090730.000,A,A*59
$GPGSA,A,3,11,05,12,195,194,06,13,20,25,17,,,1.23,0.87,0.87*02
$GPRMC,090730.000,A,3018.4702,N,12004.7125,E,1.82,210.45,270326,,,A*65
$GPGGA,090731.000,3018.4702,N,12004.7123,E,1,11,0.85,103.3,M,7.0,M,,*50
$GPGLL,3018.4702,N,12004.7123,E,090731.000,A,A*5E
$GPGSA,A,3,11,05,12,195,194,06,13,20,25,19,17,,1.22,0.85,0.86*08
$GPRMC,090731.000,A,3018.4702,N,12004.7123,E,2.15,232.71,270326,,,A*68
$GPGGA,090732.000,3018.4716,N,12004.7132,E,1,10,0.99,102.8,M,7.0,M,,*50
$GPGLL,3018.4716,N,12004.7132,E,090732.000,A,A*58
$GPGSA,A,3,11,05,12,195,194,13,20,25,19,17,,,1.32,0.99,0.87*03
$GPRMC,090732.000,A,3018.4716,N,12004.7132,E,1.79,237.97,270326,,,A*6A
$GPGGA,090733.000,3018.4716,N,12004.7127,E,1,10,0.99,103.0,M,7.0,M,,*5C
$GPGLL,3018.4716,N,12004.7127,E,090733.000,A,A*5D
$GPGSA,A,3,11,05,12,195,194,13,20,25,19,17,,,1.32,0.99,0.87*03
$GPRMC,090733.000,A,3018.4716,N,12004.7127,E,2.08,244.49,270326,,,A*6D
$GPGGA,090734.000,3018.4712,N,12004.7128,E,1,10,0.99,102.2,M,7.0,M,,*53
$GPGLL,3018.4712,N,12004.7128,E,090734.000,A,A*51
$GPGSA,A,3,11,05,12,195,194,13,20,25,19,17,,,1.32,0.99,0.87*03
$GPRMC,090734.000,A,3018.4712,N,12004.7128,E,2.01,229.63,270326,,,A*6B
$GPGGA,090735.000,3018.4707,N,12004.7132,E,1,10,0.99,101.8,M,7.0,M,,*54
$GPGLL,3018.4707,N,12004.7132,E,090735.000,A,A*5F
$GPGSA,A,3,11,05,12,195,194,13,20,25,19,17,,,1.32,0.99,0.87*03
$GPRMC,090735.000,A,3018.4707,N,12004.7132,E,1.40,210.96,270326,,,A*63
$GPGGA,090736.000,3018.4705,N,12004.7132,E,1,10,0.99,102.2,M,7.0,M,,*5C
$GPGLL,3018.4705,N,12004.7132,E,090736.000,A,A*5E
$GPGSA,A,3,11,05,12,195,194,13,20,25,19,17,,,1.32,0.99,0.87*03
$GPRMC,090736.000,A,3018.4705,N,12004.7132,E,1.65,220.13,270326,,,A*6B
$GPGGA,090737.000,3018.4704,N,12004.7134,E,1,10,0.99,102.7,M,7.0,M,,*5F
$GPGLL,3018.4704,N,12004.7134,E,090737.000,A,A*58
$GPGSA,A,3,11,05,12,195,194,13,20,25,19,17,,,1.32,0.99,0.87*03
$GPRMC,090737.000,A,3018.4704,N,12004.7134,E,1.25,224.17,270326,,,A*69
$GPGGA,090738.000,3018.4703,N,12004.7132,E,1,10,0.99,103.0,M,7.0,M,,*57
$GPGLL,3018.4703,N,12004.7132,E,090738.000,A,A*56
$GPGSA,A,3,11,05,12,195,194,13,20,25,19,17,,,1.32,0.99,0.87*03
$GPRMC,090738.000,A,3018.4703,N,12004.7132,E,1.69,235.52,270326,,,A*6E
$GPGGA,090739.000,3018.4701,N,12004.7132,E,1,10,0.99,103.3,M,7.0,M,,*57
$GPGLL,3018.4701,N,12004.7132,E,090739.000,A,A*55
$GPGSA,A,3,11,05,12,195,194,13,20,25,19,17,,,1.32,0.99,0.87*03
$GPRMC,090739.000,A,3018.4701,N,12004.7132,E,1.73,235.52,270326,,,A*66
$GPGGA,090740.000,3018.4698,N,12004.7130,E,1,10,0.99,103.5,M,7.0,M,,*5C
$GPGLL,3018.4698,N,12004.7130,E,090740.000,A,A*58
$GPGSA,A,3,11,05,12,195,194,13,20,25,19,17,,,1.32,0.99,0.87*03
$GPRMC,090740.000,A,3018.4698,N,12004.7130,E,2.10,235.52,270326,,,A*6D
$GPGGA,090741.000,3018.4693,N,12004.7134,E,1,10,0.99,103.1,M,7.0,M,,*56
$GPGLL,3018.4693,N,12004.7134,E,090741.000,A,A*56
$GPGSA,A,3,11,05,12,195,194,13,20,25,19,17,,,1.32,0.99,0.87*03
$GPRMC,090741.000,A,3018.4693,N,12004.7134,E,2.13,235.52,270326,,,A*60
$GPGGA,090742.000,3018.4692,N,12004.7135,E,1,10,0.99,102.8,M,7.0,M,,*5D
$GPGLL,3018.4692,N,12004.7135,E,090742.000,A,A*55
$GPGSA,A,3,11,05,12,195,194,13,20,25,19,17,,,1.32,0.99,0.87*03
$GPRMC,090742.000,A,3018.4692,N,12004.7135,E,2.18,235.52,270326,,,A*68
$GPGGA,090743.000,3018.4693,N,12004.7130,E,1,10,0.99,102.7,M,7.0,M,,*57
$GPGLL,3018.4693,N,12004.7130,E,090743.000,A,A*50
$GPGSA,A,3,11,05,12,195,194,13,20,25,19,17,,,1.32,0.99,0.87*03
$GPRMC,090743.000,A,3018.4693,N,12004.7130,E,1.75,235.52,270326,,,A*65
$GPGGA,090744.000,3018.4693,N,12004.7126,E,1,10,0.99,103.0,M,7.0,M,,*51
$GPGLL,3018.4693,N,12004.7126,E,090744.000,A,A*50
$GPGSA,A,3,11,05,12,195,194,13,20,25,19,17,,,1.32,0.99,0.87*03
$GPRMC,090744.000,A,3018.4693,N,12004.7126,E,2.20,235.52,270326,,,A*66
$GPGGA,090745.000,3018.4694,N,12004.7123,E,1,10,0.99,102.5,M,7.0,M,,*56
$GPGLL,3018.4694,N,12004.7123,E,090745.000,A,A*53
$GPGSA,A,3,11,05,12,195,194,13,20,25,19,17,,,1.32,0.99,0.87*03
$GPRMC,090745.000,A,3018.4694,N,12004.7123,E,1.94,235.52,270326,,,A*69
$GPGGA,090746.000,3018.4693,N,12004.7118,E,1,9,1.06,102.8,M,7.0,M,,*68
$GPGLL,3018.4693,N,12004.7118,E,090746.000,A,A*5F
$GPGSA,A,3,11,05,12,195,194,13,20,25,19,,,,1.40,1.06,0.92*03
$GPRMC,090746.000,A,3018.4693,N,12004.7118,E,1.92,235.52,270326,,,A*63
$GPGGA,090747.000,3018.4692,N,12004.7115,E,1,9,1.06,103.2,M,7.0,M,,*6E
$GPGLL,3018.4692,N,12004.7115,E,090747.000,A,A*52
$GPGSA,A,3,11,05,12,195,194,13,20,25,19,,,,1.40,1.06,0.92*03
$GPRMC,090747.000,A,3018.4692,N,12004.7115,E,1.63,235.52,270326,,,A*60
$GPGGA,090748.000,3018.4691,N,12004.7113,E,1,8,1.21,103.6,M,7.0,M,,*64
$GPGLL,3018.4691,N,12004.7113,E,090748.000,A,A*58
$GPGSA,A,3,11,05,12,194,13,20,25,19,,,,,1.52,1.21,0.92*38
$GPRMC,090748.000,A,3018.4691,N,12004.7113,E,1.56,235.52,270326,,,A*6C
$GPGGA,090749.000,3018.4690,N,12004.7111,E,1,8,1.21,104.0,M,7.0,M,,*67
$GPGLL,3018.4690,N,12004.7111,E,090749.000,A,A*5A
$GPGSA,A,3,11,05,12,194,13,20,25,19,,,,,1.52,1.21,0.92*38
$GPRMC,090749.000,A,3018.4690,N,12004.7111,E,1.63,235.52,270326,,,A*68
$GPGGA,090750.000,3018.4689,N,12004.7107,E,1,8,1.21,104.4,M,7.0,M,,*64
$GPGLL,3018.4689,N,12004.7107,E,090750.000,A,A*5D
$GPGSA,A,3,11,05,12,194,13,20,25,19,,,,,1.52,1.21,0.92*38
