$BDGGA,122212.000,3018.4348,N,12004.6807,E,1,10,1.11,26.7,M,7.0,M,,*76
$BDGLL,3018.4348,N,12004.6807,E,122212.000,A,A*47
$BDGSA,A,3,04,29,02,13,01,27,20,08,03,30,,,1.44,1.11,0.92*19
$BDGSV,5,1,19,30,59,219,43,03,54,199,39,08,50,336,33,20,48,285,41*60
$BDGSV,5,2,19,01,47,137,36,13,46,319,37,02,39,237,27,29,39,302,37*65
$BDGSV,5,3,19,04,37,118,34,10,34,220,,07,31,207,,16,19,173,*65
$BDGSV,5,4,19,27,18,163,24,23,16,091,,05,16,254,,06,14,180,22*6A
$BDGSV,5,5,19,19,08,256,,09,05,187,,25,02,047,*55
$BDRMC,122212.000,A,3018.4348,N,12004.6807,E,0.23,159.03,270326,,,A*7D
$BDVTG,159.03,T,,M,0.23,N,0.42,K,A*25
$BDGGA,122213.000,3018.4348,N,12004.6807,E,1,11,0.90,26.7,M,7.0,M,,*7E
$BDGLL,3018.4348,N,12004.6807,E,122213.000,A,A*46
$BDGSA,A,3,04,29,02,13,01,20,08,03,30,23,07,,1.28,0.90,0.92*18
$BDGSV,5,1,19,30,59,219,42,03,54,199,38,08,50,336,32,20,48,285,41*61
$BDGSV,5,2,19,01,47,137,35,13,46,319,36,02,39,237,28,29,39,302,38*67
$BDGSV,5,3,19,04,37,118,33,10,34,220,,07,31,207,37,16,19,173,*66
$BDGSV,5,4,19,27,18,163,,23,16,091,37,05,16,254,,06,14,180,23*69
$BDGSV,5,5,19,19,08,256,,09,05,187,,25,02,047,*55
$BDRMC,122213.000,A,3018.4348,N,12004.6807,E,0.20,159.03,270326,,,A*7F
$BDVTG,159.03,T,,M,0.20,N,0.37,K,A*24
$BDGGA,122214.000,3018.4348,N,12004.6808,E,1,11,0.90,26.7,M,7.0,M,,*76
$BDGLL,3018.4348,N,12004.6808,E,122214.000,A,A*4E
$BDGSA,A,3,04,29,02,13,01,20,08,03,30,23,07,,1.28,0.90,0.92*18
$BDGSV,5,1,19,30,59,219,43,03,54,199,38,08,50,336,33,20,48,285,41*61
$BDGSV,5,2,19,01,47,137,35,13,46,319,36,02,39,237,28,29,39,302,38*67
$BDGSV,5,3,19,04,37,118,34,10,34,220,,07,31,207,38,16,19,173,*6E
$BDGSV,5,4,19,27,18,163,,23,16,091,31,05,16,254,,06,14,180,22*6E
$BDGSV,5,5,19,19,08,256,,09,05,187,,25,02,047,*55
$BDRMC,122214.000,A,3018.4348,N,12004.6808,E,0.17,159.03,270326,,,A*73
$BDVTG,159.03,T,,M,0.17,N,0.32,K,A*25
$BDGGA,122215.000,3018.4347,N,12004.6811,E,1,12,0.85,26.7,M,7.0,M,,*77
$BDGLL,3018.4347,N,12004.6811,E,122215.000,A,A*48
$BDGSA,A,3,04,29,02,13,01,20,08,03,30,27,23,07,1.23,0.85,0.89*18
$BDGSV,5,1,19,30,59,219,43,03,54,199,38,08,50,336,34,20,48,285,40*67
$BDGSV,5,2,19,01,47,137,35,13,46,319,37,02,39,237,27,29,39,302,38*69
$BDGSV,5,3,19,04,37,118,34,10,34,220,,07,31,207,37,16,19,173,*61
$BDGSV,5,4,19,27,18,163,28,23,16,091,30,05,16,254,,06,14,180,23*64
$BDGSV,5,5,19,19,08,256,,09,05,187,,25,02,047,*55
$BDRMC,122215.000,A,3018.4347,N,12004.6811,E,0.57,159.03,270326,,,A*71
$BDVTG,159.03,T,,M,0.57,N,1.05,K,A*24
$BDGGA,122216.000,3018.4346,N,12004.6814,E,1,12,0.85,26.7,M,7.0,M,,*70
$BDGLL,3018.4346,N,12004.6814,E,122216.000,A,A*4F
$BDGSA,A,3,04,29,02,13,01,20,08,03,30,27,23,07,1.23,0.85,0.89*18
$BDGSV,5,1,19,30,59,219,43,03,54,199,38,08,50,336,33,20,48,285,40*60
$BDGSV,5,2,19,01,47,137,35,13,46,319,37,02,39,237,27,29,39,302,38*69
$BDGSV,5,3,19,04,37,118,34,10,34,220,,07,31,207,37,16,19,173,*61
$BDGSV,5,4,19,27,18,163,29,23,16,091,29,05,16,254,,06,14,180,22*6C
$BDGSV,5,5,19,19,08,256,,09,05,187,,25,02,047,*55
$BDRMC,122216.000,A,3018.4346,N,12004.6814,E,0.47,159.03,270326,,,A*77
$BDVTG,159.03,T,,M,0.47,N,0.87,K,A*2E
$BDGGA,122217.000,3018.4347,N,12004.6814,E,1,12,0.85,26.7,M,7.0,M,,*70
$BDGLL,3018.4347,N,12004.6814,E,122217.000,A,A*4F
$BDGSA,A,3,04,29,02,13,01,20,08,03,30,27,23,07,1.23,0.85,0.89*18
$BDGSV,5,1,19,30,59,219,43,03,54,199,38,08,50,336,33,20,48,285,40*60
$BDGSV,5,2,19,01,47,137,35,13,46,319,37,02,39,237,27,29,39,302,38*69
$BDGSV,5,3,19,04,37,118,34,10,34,220,,07,31,207,37,16,19,173,*61
$BDGSV,5,4,19,27,18,163,28,23,16,091,36,05,16,254,,06,14,180,21*60
$BDGSV,5,5,19,19,08,256,,09,05,187,,25,02,047,*55
$BDRMC,122217.000,A,3018.4347,N,12004.6814,E,0.51,159.03,270326,,,A*70
$BDVTG,159.03,T,,M,0.51,N,0.95,K,A*2A
$BDGGA,122218.000,3018.4347,N,12004.6815,E,1,12,0.85,26.7,M,7.0,M,,*7E
$BDGLL,3018.4347,N,12004.6815,E,122218.000,A,A*41
$BDGSA,A,3,04,29,02,13,01,20,08,03,30,27,23,07,1.23,0.85,0.89*18
$BDGSV,5,1,19,30,59,219,43,03,54,199,38,08,50,336,33,20,48,285,40*60
$BDGSV,5,2,19,01,47,137,35,13,46,319,37,02,39,237,27,29,39,302,38*69
$BDGSV,5,3,19,04,37,118,34,10,34,220,,07,31,207,37,16,19,173,*61
$BDGSV,5,4,19,27,18,163,29,23,16,091,36,05,16,254,,06,14,180,21*61
$BDGSV,5,5,19,19,08,256,,09,05,187,,25,02,047,*55
$BDRMC,122218.000,A,3018.4347,N,12004.6815,E,0.24,159.03,270326,,,A*7C
$BDVTG,159.03,T,,M,0.24,N,0.45,K,A*25
$BDGGA,122219.000,3018.4347,N,12004.6816,E,1,12,0.85,26.6,M,7.0,M,,*7D
$BDGLL,3018.4347,N,12004.6816,E,122219.000,A,A*43
$BDGSA,A,3,04,29,02,13,01,20,08,03,30,27,23,07,1.23,0.85,0.89*18
$BDGSV,5,1,19,30,59,219,43,03,54,199,38,08,50,336,33,20,48,285,40*60
$BDGSV,5,2,19,01,47,137,35,13,46,319,37,02,39,237,27,29,39,302,38*69
$BDGSV,5,3,19,04,37,118,34,10,34,220,,07,31,207,37,16,19,173,*61
$BDGSV,5,4,19,27,18,163,28,23,16,091,36,05,16,254,,06,14,180,21*60
$BDGSV,5,5,19,19,08,256,,09,05,187,,25,02,047,*55
$BDRMC,122219.000,A,3018.4347,N,12004.6816,E,0.11,159.03,270326,,,A*78
$BDVTG,159.03,T,,M,0.11,N,0.20,K,A*20
$BDGGA,122220.000,3018.4347,N,12004.6816,E,1,11,0.90,26.5,M,7.0,M,,*73
$BDGLL,3018.4347,N,12004.6816,E,122220.000,A,A*49
$BDGSA,A,3,04,29,02,13,01,20,08,03,30,23,07,,1.28,0.90,0.92*18
$BDGSV,5,1,19,30,59,219,43,03,54,199,38,08,50,336,33,20,48,285,40*60
$BDGSV,5,2,19,01,47,137,35,13,46,319,37,02,39,237,27,29,39,302,38*69
$BDGSV,5,3,19,04,37,118,34,10,34,220,,07,31,207,37,16,19,173,*61
$BDGSV,5,4,19,27,18,163,25,23,16,091,36,05,16,254,,06,14,180,21*6D
$BDGSV,5,5,19,19,08,256,,09,05,187,,25,02,047,*55
$BDRMC,122220.000,A,3018.4347,N,12004.6816,E,0.27,159.03,270326,,,A*77
$BDVTG,159.03,T,,M,0.27,N,0.50,K,A*22
$BDGGA,122221.000,3018.4348,N,12004.6815,E,1,12,0.85,26.5,M,7.0,M,,*79
$BDGLL,3018.4348,N,12004.6815,E,122221.000,A,A*44
$BDGSA,A,3,27,04,29,02,13,01,20,08,03,30,23,07,1.23,0.85,0.89*18
$BDGSV,5,1,19,30,59,219,43,03,54,199,38,08,50,336,33,20,48,285,40*60
$BDGSV,5,2,19,01,47,137,35,13,46,319,37,02,39,237,27,29,39,302,38*69
$BDGSV,5,3,19,04,37,118,34,10,34,220,,07,31,207,37,16,19,173,*61
$BDGSV,5,4,19,27,18,163,29,23,16,091,35,05,16,254,,06,14,180,21*62
$BDGSV,5,5,19,19,08,256,,09,05,187,,25,02,047,*55
$BDRMC,122221.000,A,3018.4348,N,12004.6815,E,0.17,159.03,270326,,,A*79
$BDVTG,159.03,T,,M,0.17,N,0.32,K,A*25
$BDGGA,122222.000,3018.4348,N,12004.6815,E,1,12,0.85,26.5,M,7.0,M,,*7A
$BDGLL,3018.4348,N,12004.6815,E,122222.000,A,A*47
$BDGSA,A,3,27,04,29,02,13,01,20,08,03,30,23,07,1.23,0.85,0.89*18
$BDGSV,5,1,19,30,59,219,43,03,54,199,38,08,50,336,33,20,48,285,40*60
$BDGSV,5,2,19,01,47,137,35,13,46,319,37,02,39,237,27,29,39,302,38*69
$BDGSV,5,3,19,04,37,118,34,10,34,220,,07,31,207,37,16,19,173,*61
$BDGSV,5,4,19,27,18,163,28,23,16,091,35,05,16,254,,06,14,180,21*63
$BDGSV,5,5,19,19,08,256,,09,05,187,,25,02,047,*55
$BDRMC,122222.000,A,3018.4348,N,12004.6815,E,0.06,159.03,270326,,,A*7A
$BDVTG,159.03,T,,M,0.06,N,0.12,K,A*27
$BDGGA,122223.000,3018.4348,N,12004.6815,E,1,12,0.85,26.5,M,7.0,M,,*7B
$BDGLL,3018.4348,N,12004.6815,E,122223.000,A,A*46
$BDGSA,A,3,27,04,29,02,13,01,20,08,03,30,23,07,1.23,0.85,0.89*18
$BDGSV,5,1,19,30,59,219,43,03,54,199,38,08,50,336,33,20,48,285,40*60
$BDGSV,5,2,19,01,47,137,35,13,46,319,37,02,39,237,27,29,39,302,38*69
$BDGSV,5,3,19,04,37,118,34,10,34,220,,07,31,207,37,16,19,173,*61
$BDGSV,5,4,19,27,18,163,28,23,16,091,35,05,16,254,,06,14,180,21*63
$BDGSV,5,5,19,19,08,256,,09,05,187,,25,02,047,*55
$BDRMC,122223.000,A,3018.4348,N,12004.6815,E,0.05,159.03,270326,,,A*78
$BDVTG,159.03,T,,M,0.05,N,0.09,K,A*2E
$BDGGA,122224.000,3018.4348,N,12004.6815,E,1,12,0.85,26.5,M,7.0,M,,*7C
$BDGLL,3018.4348,N,12004.6815,E,122224.000,A,A*41
$BDGSA,A,3,27,04,29,02,13,01,20,08,03,30,23,07,1.23,0.85,0.89*18
$BDGSV,5,1,19,30,59,219,43,03,54,199,38,08,50,336,33,20,48,285,40*60
$BDGSV,5,2,19,01,47,137,35,13,46,319,37,02,39,237,27,29,39,302,38*69
$BDGSV,5,3,19,04,37,118,34,10,34,220,,07,31,207,37,16,19,173,*61
$BDGSV,5,4,19,27,18,163,29,23,16,091,35,05,16,254,,06,14,180,21*62
$BDGSV,5,5,19,19,08,256,,09,05,187,,25,02,047,*55
$BDRMC,122224.000,A,3018.4348,N,12004.6815,E,0.05,159.03,270326,,,A*7F
$BDVTG,159.03,T,,M,0.05,N,0.10,K,A*26
$BDGGA,122225.000,3018.4348,N,12004.6815,E,1,12,0.85,26.5,M,7.0,M,,*7D
$BDGLL,3018.4348,N,12004.6815,E,122225.000,A,A*40
$BDGSA,A,3,27,04,29,02,13,01,20,08,03,30,23,07,1.23,0.85,0.89*18
$BDGSV,5,1,19,30,59,219,43,03,54,199,38,08,50,336,34,20,48,285,38*68
$BDGSV,5,2,19,01,47,137,34,13,46,319,37,02,39,237,27,29,39,302,38*68
$BDGSV,5,3,19,04,37,118,34,10,34,220,,07,31,207,37,16,19,173,*61
$BDGSV,5,4,19,27,18,163,32,23,16,091,34,05,16,254,,06,14,180,23*6B
$BDGSV,5,5,19,19,08,256,,09,05,187,,25,02,047,*55
$BDRMC,122225.000,A,3018.4348,N,12004.6815,E,0.07,159.03,270326,,,A*7C
$BDVTG,159.03,T,,M,0.07,N,0.14,K,A*20
$BDGGA,122226.000,3018.4348,N,12004.6815,E,1,12,0.85,26.5,M,7.0,M,,*7E
$BDGLL,3018.4348,N,12004.6815,E,122226.000,A,A*43
$BDGSA,A,3,27,04,29,02,13,01,20,08,03,30,23,07,1.23,0.85,0.89*18
$BDGSV,5,1,19,30,59,219,43,03,54,199,38,08,50,336,34,20,48,285,37*67
$BDGSV,5,2,19,01,47,137,34,13,46,319,38,02,39,237,27,29,39,302,38*67
$BDGSV,5,3,19,04,37,118,33,10,34,220,,07,31,207,37,16,19,173,*66
$BDGSV,5,4,19,27,18,163,31,23,16,091,34,05,16,254,,06,14,180,23*68
$BDGSV,5,5,19,19,08,256,,09,05,187,,25,02,047,*55
$BDRMC,122226.000,A,3018.4348,N,12004.6815,E,0.08,159.03,270326,,,A*70
$BDVTG,159.03,T,,M,0.08,N,0.15,K,A*2E
$BDGGA,122227.000,3018.4348,N,12004.6816,E,1,12,0.85,26.5,M,7.0,M,,*7C
$BDGLL,3018.4348,N,12004.6816,E,122227.000,A,A*41
$BDGSA,A,3,27,04,29,02,13,01,20,08,03,30,23,07,1.23,0.85,0.89*18
$BDGSV,5,1,19,30,59,219,43,03,54,199,38,08,50,336,34,20,48,285,35*65
$BDGSV,5,2,19,01,47,137,34,13,46,319,38,02,39,237,27,29,39,302,38*67
$BDGSV,5,3,19,04,37,118,33,10,34,220,,07,31,207,37,16,19,173,*66
$BDGSV,5,4,19,27,18,163,30,23,16,091,33,05,16,254,,06,14,180,23*6E
$BDGSV,5,5,19,19,08,256,,09,05,187,,25,02,047,*55
$BDRMC,122227.000,A,3018.4348,N,12004.6816,E,0.11,159.03,270326,,,A*7A
$BDVTG,159.03,T,,M,0.11,N,0.20,K,A*20
$BDGGA,122228.000,3018.4348,N,12004.6816,E,1,12,0.85,26.5,M,7.0,M,,*73
$BDGLL,3018.4348,N,12004.6816,E,122228.000,A,A*4E
$BDGSA,A,3,27,04,29,02,13,01,20,08,03,30,23,07,1.23,0.85,0.89*18
$BDGSV,5,1,19,30,59,219,43,03,54,199,38,08,50,336,34,20,48,285,34*64
$BDGSV,5,2,19,01,47,137,34,13,46,319,38,02,39,237,27,29,39,302,38*67
$BDGSV,5,3,19,04,37,118,32,10,34,220,,07,31,207,37,16,19,173,*67
$BDGSV,5,4,19,27,18,163,29,23,16,091,33,05,16,254,,06,14,180,23*66
$BDGSV,5,5,19,19,08,256,,09,05,187,,25,02,047,*55
$BDRMC,122228.000,A,3018.4348,N,12004.6816,E,0.09,159.03,270326,,,A*7C
$BDVTG,159.03,T,,M,0.09,N,0.17,K,A*2D
$BDGGA,122229.000,3018.4347,N,12004.6816,E,1,12,0.85,26.5,M,7.0,M,,*7D
$BDGLL,3018.4347,N,12004.6816,E,122229.000,A,A*40
$BDGSA,A,3,27,04,29,02,13,01,20,08,03,30,23,07,1.23,0.85,0.89*18
$BDGSV,5,1,19,30,59,219,43,03,54,199,38,08,50,336,34,20,48,285,33*63
$BDGSV,5,2,19,01,47,137,35,13,46,319,37,02,39,237,27,29,39,302,38*69
$BDGSV,5,3,19,04,37,118,31,10,34,220,,07,31,207,37,16,19,173,*64
$BDGSV,5,4,19,27,18,163,29,23,16,091,33,05,16,254,,06,14,180,23*66
$BDGSV,5,5,19,19,08,256,,09,05,187,,25,02,047,*55
$BDRMC,122229.000,A,3018.4347,N,12004.6816,E,0.15,159.03,270326,,,A*7F
$BDVTG,159.03,T,,M,0.15,N,0.27,K,A*23
$BDGGA,122230.000,3018.4347,N,12004.6816,E,1,12,0.85,26.5,M,7.0,M,,*75
$BDGLL,3018.4347,N,12004.6816,E,122230.000,A,A*48
$BDGSA,A,3,27,04,29,02,13,01,20,08,03,30,23,07,1.23,0.85,0.89*18
$BDGSV,5,1,19,30,59,219,43,03,54,199,38,08,50,336,34,20,48,285,32*62
$BDGSV,5,2,19,01,47,137,35,13,46,319,37,02,39,237,27,29,39,302,37*66
$BDGSV,5,3,19,04,37,118,31,10,34,220,,07,31,207,37,16,19,173,*64
$BDGSV,5,4,19,27,18,163,29,23,16,091,33,05,16,254,,06,14,180,23*66
$BDGSV,5,5,19,19,08,256,,09,05,187,,25,02,047,*55
$BDRMC,122230.000,A,3018.4347,N,12004.6816,E,0.08,159.03,270326,,,A*7B
$BDVTG,159.03,T,,M,0.08,N,0.14,K,A*2F
$BDGGA,122231.000,3018.4347,N,12004.6816,E,1,12,0.85,26.5,M,7.0,M,,*74
$BDGLL,3018.4347,N,12004.6816,E,122231.000,A,A*49
$BDGSA,A,3,27,04,29,02,13,01,20,08,03,30,23,07,1.23,0.85,0.89*18
$BDGSV,5,1,19,30,59,219,43,03,55,199,38,08,50,336,34,20,48,285,32*63
$BDGSV,5,2,19,01,47,137,35,13,46,319,37,02,39,237,27,29,39,302,37*66
$BDGSV,5,3,19,04,37,118,31,10,34,220,,07,31,207,37,16,19,173,*64
$BDGSV,5,4,19,27,18,163,29,23,16,091,34,05,16,254,,06,14,180,23*61
$BDGSV,5,5,19,19,08,256,,09,05,187,,25,02,047,*55
$BDRMC,122231.000,A,3018.4347,N,12004.6816,E,0.01,159.03,270326,,,A*73
$BDVTG,159.03,T,,M,0.01,N,0.03,K,A*20
$BDGGA,122232.000,3018.4347,N,12004.6816,E,1,12,0.85,26.5,M,7.0,M,,*77
$BDGLL,3018.4347,N,12004.6816,E,122232.000,A,A*4A
$BDGSA,A,3,27,04,29,02,13,01,20,08,03,30,23,07,1.23,0.85,0.89*18
$BDGSV,5,1,19,30,59,219,43,03,55,199,38,08,50,336,34,20,48,285,31*60
$BDGSV,5,2,19,01,47,137,36,13,46,319,37,02,39,237,27,29,39,302,37*65
$BDGSV,5,3,19,04,37,118,31,10,34,220,,07,31,207,37,16,19,173,*64
$BDGSV,5,4,19,27,18,163,29,23,16,091,34,05,16,254,,06,14,180,23*61
$BDGSV,5,5,19,19,08,256,,09,05,187,,25,02,047,*55
$BDRMC,122232.000,A,3018.4347,N,12004.6816,E,0.04,159.03,270326,,,A*75
$BDVTG,159.03,T,,M,0.04,N,0.08,K,A*2E
$BDGGA,122233.000,3018.4347,N,12004.6816,E,1,12,0.85,26.5,M,7.0,M,,*76
$BDGLL,3018.4347,N,12004.6816,E,122233.000,A,A*4B
$BDGSA,A,3,27,04,29,02,13,01,20,08,03,30,23,07,1.23,0.85,0.89*18
$BDGSV,5,1,19,30,59,219,43,03,55,199,38,08,50,336,34,20,48,285,31*60
$BDGSV,5,2,19,01,47,137,36,13,46,319,37,02,39,237,27,29,39,302,37*65
$BDGSV,5,3,19,04,37,118,31,10,34,220,,07,31,207,37,16,19,173,*64
$BDGSV,5,4,19,27,18,163,29,23,16,091,34,05,16,254,,06,14,180,23*61
$BDGSV,5,5,19,19,08,256,,09,05,187,,25,02,047,*55
$BDRMC,122233.000,A,3018.4347,N,12004.6816,E,0.05,159.03,270326,,,A*75
$BDVTG,159.03,T,,M,0.05,N,0.10,K,A*26
$BDGGA,122234.000,3018.4347,N,12004.6816,E,1,12,0.85,26.5,M,7.0,M,,*71
$BDGLL,3018.4347,N,12004.6816,E,122234.000,A,A*4C
$BDGSA,A,3,27,04,29,02,13,01,20,08,03,30,23,07,1.23,0.85,0.89*18
$BDGSV,5,1,19,30,59,219,43,03,55,199,38,08,50,336,34,20,48,285,31*60
$BDGSV,5,2,19,01,47,137,36,13,46,319,37,02,39,237,27,29,39,302,37*65
$BDGSV,5,3,19,04,37,118,31,10,34,220,,07,31,207,37,16,19,173,*64
$BDGSV,5,4,19,27,18,163,29,23,16,091,34,05,16,254,,06,14,180,23*61
$BDGSV,5,5,19,19,08,256,,09,05,187,,25,02,047,*55
$BDRMC,122234.000,A,3018.4347,N,12004.6816,E,0.06,159.03,270326,,,A*71
$BDVTG,159.03,T,,M,0.06,N,0.11,K,A*24
$BDGGA,122235.000,3018.4347,N,12004.6816,E,1,12,0.85,26.5,M,7.0,M,,*70
$BDGLL,3018.4347,N,12004.6816,E,122235.000,A,A*4D
$BDGSA,A,3,27,04,29,02,13,01,20,08,03,30,23,07,1.23,0.85,0.89*18
$BDGSV,5,1,19,30,59,219,43,03,55,199,38,08,50,336,34,20,48,285,31*60
$BDGSV,5,2,19,01,47,137,36,13,46,319,37,02,39,237,27,29,39,302,37*65
$BDGSV,5,3,19,04,37,118,32,10,34,220,,07,31,207,37,16,19,173,*67
$BDGSV,5,4,19,27,18,163,29,23,16,091,35,05,16,254,,06,14,180,22*61
$BDGSV,5,5,19,19,08,256,,09,05,187,,25,02,047,*55
$BDRMC,122235.000,A,3018.4347,N,12004.6816,E,0.05,159.03,270326,,,A*73
$BDVTG,159.03,T,,M,0.05,N,0.10,K,A*26
$BDGGA,122236.000,3018.4347,N,12004.6816,E,1,12,0.85,26.4,M,7.0,M,,*72
$BDGLL,3018.4347,N,12004.6816,E,122236.000,A,A*4E
$BDGSA,A,3,27,04,29,02,13,01,20,08,03,30,23,07,1.23,0.85,0.89*18
$BDGSV,5,1,19,30,59,219,43,03,55,199,38,08,50,336,34,20,48,285,31*60
$BDGSV,5,2,19,01,47,137,36,13,46,319,37,02,39,237,27,29,39,302,37*65
$BDGSV,5,3,19,04,37,118,32,10,34,220,,07,31,207,37,16,19,173,*67
$BDGSV,5,4,19,27,18,163,29,23,16,091,35,05,16,254,,06,14,180,22*61
$BDGSV,5,5,19,19,08,256,,09,05,187,,25,02,047,*55
$BDRMC,122236.000,A,3018.4347,N,12004.6816,E,0.05,159.03,270326,,,A*70
$BDVTG,159.03,T,,M,0.05,N,0.09,K,A*2E
$BDGGA,122237.000,3018.4347,N,12004.6817,E,1,12,0.85,26.3,M,7.0,M,,*75
$BDGLL,3018.4347,N,12004.6817,E,122237.000,A,A*4E
$BDGSA,A,3,27,04,29,02,13,01,20,08,03,30,23,07,1.23,0.85,0.89*18
$BDGSV,5,1,19,30,59,219,43,03,55,199,38,08,50,336,34,20,48,285,30*61
$BDGSV,5,2,19,01,47,137,35,13,46,319,37,02,39,237,27,29,39,302,37*66
$BDGSV,5,3,19,04,37,118,32,10,34,220,,07,31,207,37,16,19,173,*67
$BDGSV,5,4,19,27,18,163,29,23,16,091,36,05,16,254,,06,14,180,22*62
$BDGSV,5,5,19,19,08,256,,09,05,187,,25,02,047,*55
$BDRMC,122237.000,A,3018.4347,N,12004.6817,E,0.14,159.03,270326,,,A*70
$BDVTG,159.03,T,,M,0.14,N,0.25,K,A*20
$BDGGA,122238.000,3018.4346,N,12004.6817,E,1,12,0.85,26.3,M,7.0,M,,*7B
$BDGLL,3018.4346,N,12004.6817,E,122238.000,A,A*40
$BDGSA,A,3,27,04,29,02,13,01,20,08,03,30,23,07,1.23,0.85,0.89*18
$BDGSV,5,1,19,30,59,219,43,03,55,199,38,08,50,336,35,20,48,285,37*67
$BDGSV,5,2,19,01,47,137,35,13,46,319,37,02,39,237,28,29,39,302,35*6B
$BDGSV,5,3,19,04,37,118,33,10,34,220,,07,31,207,37,16,19,173,*66
$BDGSV,5,4,19,27,18,163,30,23,16,091,36,05,16,254,,06,14,180,22*6A
$BDGSV,5,5,19,19,08,256,,09,05,187,,25,02,047,*55
$BDRMC,122238.000,A,3018.4346,N,12004.6817,E,0.06,159.03,270326,,,A*7D
$BDVTG,159.03,T,,M,0.06,N,0.11,K,A*24
$BDGGA,122239.000,3018.4346,N,12004.6817,E,1,12,0.85,26.3,M,7.0,M,,*7A
$BDGLL,3018.4346,N,12004.6817,E,122239.000,A,A*41
$BDGSA,A,3,27,04,29,02,13,01,20,08,03,30,23,07,1.23,0.85,0.89*18
$BDGSV,5,1,19,30,59,219,43,03,55,199,38,08,50,336,35,20,48,285,37*67
$BDGSV,5,2,19,01,47,137,35,13,46,319,37,02,39,237,28,29,39,302,35*6B
$BDGSV,5,3,19,04,37,118,33,10,34,220,,07,31,207,37,16,19,173,*66
$BDGSV,5,4,19,27,18,163,29,23,16,091,36,05,16,254,,06,14,180,22*62
$BDGSV,5,5,19,19,08,256,,09,05,187,,25,02,047,*55
$BDRMC,122239.000,A,3018.4346,N,12004.6817,E,0.11,159.03,270326,,,A*7A
$BDVTG,159.03,T,,M,0.11,N,0.20,K,A*20
$BDGGA,122240.000,3018.4347,N,12004.6817,E,1,12,0.85,26.3,M,7.0,M,,*75
$BDGLL,3018.4347,N,12004.6817,E,122240.000,A,A*4E
$BDGSA,A,3,27,04,29,02,13,01,20,08,03,30,23,07,1.23,0.85,0.89*18
$BDGSV,5,1,19,30,59,219,42,03,55,199,38,08,50,336,35,20,48,285,38*69
$BDGSV,5,2,19,01,47,137,35,13,46,319,37,02,39,237,28,29,39,302,35*6B
$BDGSV,5,3,19,04,37,118,33,10,34,220,,07,31,207,37,16,19,173,*66
$BDGSV,5,4,19,27,18,163,29,23,16,091,36,05,16,254,,06,14,180,22*62
$BDGSV,5,5,19,19,08,256,,09,05,187,,25,02,047,*55
$BDRMC,122240.000,A,3018.4347,N,12004.6817,E,0.19,159.03,270326,,,A*7D
$BDVTG,159.03,T,,M,0.19,N,0.36,K,A*2F
$BDGGA,122241.000,3018.4347,N,12004.6816,E,1,12,0.85,26.3,M,7.0,M,,*75
$BDGLL,3018.4347,N,12004.6816,E,122241.000,A,A*4E
$BDGSA,A,3,27,04,29,02,13,01,20,08,03,30,23,07,1.23,0.85,0.89*18
$BDGSV,5,1,19,30,59,219,42,03,55,199,38,08,50,336,35,20,48,285,38*69
$BDGSV,5,2,19,01,47,137,35,13,46,319,37,02,39,237,28,29,39,302,35*6B
$BDGSV,5,3,19,04,37,118,32,10,34,220,,07,31,207,37,16,19,173,*67
$BDGSV,5,4,19,27,18,163,28,23,16,091,36,05,16,254,,06,14,180,22*63
$BDGSV,5,5,19,19,08,256,,09,05,187,,25,02,047,*55
$BDRMC,122241.000,A,3018.4347,N,12004.6816,E,0.05,159.03,270326,,,A*70
$BDVTG,159.03,T,,M,0.05,N,0.09,K,A*2E
$BDGGA,122242.000,3018.4347,N,12004.6816,E,1,12,0.85,26.3,M,7.0,M,,*76
$BDGLL,3018.4347,N,12004.6816,E,122242.000,A,A*4D
$BDGSA,A,3,27,04,29,02,13,01,20,08,03,30,23,07,1.23,0.85,0.89*18
$BDGSV,5,1,19,30,59,219,42,03,55,199,38,08,50,336,35,20,48,285,38*69
$BDGSV,5,2,19,01,47,137,35,13,46,319,37,02,39,237,28,29,39,302,35*6B
$BDGSV,5,3,19,04,37,118,32,10,34,220,,07,31,207,37,16,19,173,*67
$BDGSV,5,4,19,27,18,163,27,23,16,091,36,05,16,254,,06,14,180,22*6C
$BDGSV,5,5,19,19,08,256,,09,05,187,,25,02,047,*55
$BDRMC,122242.000,A,3018.4347,N,12004.6816,E,0.05,159.03,270326,,,A*73
$BDVTG,159.03,T,,M,0.05,N,0.08,K,A*2F
$BDGGA,122243.000,3018.4346,N,12004.6816,E,1,12,0.85,26.3,M,7.0,M,,*76
$BDGLL,3018.4346,N,12004.6816,E,122243.000,A,A*4D
$BDGSA,A,3,27,04,29,02,13,01,20,08,03,30,23,07,1.23,0.85,0.89*18
$BDGSV,5,1,19,30,59,219,42,03,55,199,38,08,50,336,35,20,48,285,39*68
$BDGSV,5,2,19,01,47,137,35,13,46,319,37,02,39,237,28,29,39,302,35*6B
$BDGSV,5,3,19,04,37,118,32,10,34,220,,07,31,207,37,16,19,173,*67
$BDGSV,5,4,19,27,18,163,26,23,16,091,36,05,16,254,,06,14,180,23*6C
$BDGSV,5,5,19,19,08,256,,09,05,187,,25,02,047,*55
$BDRMC,122243.000,A,3018.4346,N,12004.6816,E,0.04,159.03,270326,,,A*72
$BDVTG,159.03,T,,M,0.04,N,0.07,K,A*21
$BDGGA,122244.000,3018.4346,N,12004.6816,E,1,12,0.85,26.3,M,7.0,M,,*71
$BDGLL,3018.4346,N,12004.6816,E,122244.000,A,A*4A
$BDGSA,A,3,27,04,29,02,13,01,20,08,03,30,23,07,1.23,0.85,0.89*18
$BDGSV,5,1,19,30,59,219,42,03,55,199,38,08,50,336,36,20,48,285,38*6A
$BDGSV,5,2,19,01,47,137,34,13,46,319,38,02,39,237,28,29,39,302,37*67
$BDGSV,5,3,19,04,37,118,32,10,34,220,,07,31,207,37,16,19,173,*67
$BDGSV,5,4,19,27,18,163,27,23,16,091,36,05,16,254,,06,14,180,23*6D
$BDGSV,5,5,19,19,08,256,,09,05,187,,25,02,047,*55
$BDRMC,122244.000,A,3018.4346,N,12004.6816,E,0.13,159.03,270326,,,A*73
$BDVTG,159.03,T,,M,0.13,N,0.24,K,A*26
$BDGGA,122245.000,3018.4346,N,12004.6816,E,1,12,0.85,26.3,M,7.0,M,,*70
$BDGLL,3018.4346,N,12004.6816,E,122245.000,A,A*4B
$BDGSA,A,3,27,04,29,02,13,01,20,08,03,30,23,07,1.23,0.85,0.89*18
$BDGSV,5,1,19,30,59,219,42,03,55,199,39,08,50,336,36,20,48,285,40*64
$BDGSV,5,2,19,01,47,137,34,13,46,319,39,02,39,237,28,29,39,302,46*60
$BDGSV,5,3,19,04,37,118,33,10,34,220,,07,31,207,37,16,19,173,*66
$BDGSV,5,4,19,27,18,163,28,23,16,091,37,05,16,254,,06,14,180,23*63
$BDGSV,5,5,19,19,08,256,,09,05,187,,25,02,047,*55
$BDRMC,122245.000,A,3018.4346,N,12004.6816,E,0.10,159.03,270326,,,A*71
$BDVTG,159.03,T,,M,0.10,N,0.19,K,A*2B
$BDGGA,122246.000,3018.4346,N,12004.6816,E,1,12,0.85,26.3,M,7.0,M,,*73
$BDGLL,3018.4346,N,12004.6816,E,122246.000,A,A*48
$BDGSA,A,3,27,04,29,02,13,01,20,08,03,30,23,07,1.23,0.85,0.89*18
$BDGSV,5,1,19,30,59,219,42,03,55,199,39,08,50,336,36,20,48,285,41*65
$BDGSV,5,2,19,01,47,137,34,13,46,319,39,02,39,237,28,29,39,302,46*60
$BDGSV,5,3,19,04,37,118,33,10,34,220,,07,31,207,37,16,19,173,*66
$BDGSV,5,4,19,27,18,163,29,23,16,091,38,05,16,254,,06,14,180,23*6D
$BDGSV,5,5,19,19,08,256,,09,05,187,,25,02,047,*55
$BDRMC,122246.000,A,3018.4346,N,12004.6816,E,0.07,159.03,270326,,,A*74
$BDVTG,159.03,T,,M,0.07,N,0.12,K,A*26
$BDGGA,122247.000,3018.4346,N,12004.6816,E,1,12,0.85,26.3,M,7.0,M,,*72
$BDGLL,3018.4346,N,12004.6816,E,122247.000,A,A*49
$BDGSA,A,3,27,04,29,02,13,01,20,08,03,30,23,07,1.23,0.85,0.89*18
$BDGSV,5,1,19,30,59,219,42,03,55,199,39,08,50,336,36,20,48,285,43*67
$BDGSV,5,2,19,01,47,137,34,13,46,319,39,02,39,237,27,29,39,302,45*6C
$BDGSV,5,3,19,04,37,118,33,10,34,220,,07,31,207,37,16,19,173,*66
$BDGSV,5,4,19,27,18,163,30,23,16,091,38,05,16,254,,06,14,180,23*65
$BDGSV,5,5,19,19,08,257,,09,05,187,,25,02,047,*54
$BDRMC,122247.000,A,3018.4346,N,12004.6816,E,0.03,159.03,270326,,,A*71
$BDVTG,159.03,T,,M,0.03,N,0.06,K,A*27
$BDGGA,122248.000,3018.4346,N,12004.6816,E,1,12,0.85,26.3,M,7.0,M,,*7D
$BDGLL,3018.4346,N,12004.6816,E,122248.000,A,A*46
$BDGSA,A,3,27,04,29,02,13,01,20,08,03,30,23,07,1.23,0.85,0.89*18
$BDGSV,5,1,19,30,59,219,42,03,55,199,39,08,50,336,37,20,48,286,44*62
$BDGSV,5,2,19,01,47,137,34,13,46,319,40,02,39,237,25,29,39,302,45*60
$BDGSV,5,3,19,04,37,118,33,10,34,220,,07,31,207,37,16,19,173,*66
$BDGSV,5,4,19,27,18,163,31,23,16,091,38,05,16,254,,06,14,180,23*64
$BDGSV,5,5,19,19,08,257,,09,05,187,,25,02,047,*54
$BDRMC,122248.000,A,3018.4346,N,12004.6816,E,0.10,159.03,270326,,,A*7C
$BDVTG,159.03,T,,M,0.10,N,0.19,K,A*2B
$BDGGA,122249.000,3018.4346,N,12004.6816,E,1,12,0.85,26.3,M,7.0,M,,*7C
$BDGLL,3018.4346,N,12004.6816,E,122249.000,A,A*47
$BDGSA,A,3,27,04,29,02,13,01,20,08,03,30,23,07,1.23,0.85,0.89*18
$BDGSV,5,1,19,30,59,219,42,03,55,199,39,08,50,336,37,20,48,286,44*62
$BDGSV,5,2,19,01,47,137,34,13,46,319,40,02,39,237,24,29,39,302,45*61
$BDGSV,5,3,19,04,37,118,33,10,34,220,,07,31,207,37,16,19,173,*66
$BDGSV,5,4,19,27,18,163,32,23,16,091,39,05,16,254,,06,14,180,23*66
$BDGSV,5,5,19,19,08,257,,09,05,187,,25,02,047,*54
$BDRMC,122249.000,A,3018.4346,N,12004.6816,E,0.05,159.03,270326,,,A*79
$BDVTG,159.03,T,,M,0.05,N,0.10,K,A*26
$BDGGA,122250.000,3018.4346,N,12004.6816,E,1,11,0.90,26.3,M,7.0,M,,*73
$BDGLL,3018.4346,N,12004.6816,E,122250.000,A,A*4F
$BDGSA,A,3,27,04,29,13,01,20,08,03,30,23,07,,1.27,0.90,0.89*1A
$BDGSV,5,1,19,30,59,219,42,03,55,199,39,08,50,336,37,20,48,286,44*62
$BDGSV,5,2,19,01,47,137,34,13,46,319,40,02,39,237,,29,39,302,45*67
$BDGSV,5,3,19,04,37,118,33,10,34,220,,07,31,207,37,16,19,173,*66
$BDGSV,5,4,19,27,18,163,32,23,16,091,39,05,16,254,,06,14,180,23*66
$BDGSV,5,5,19,19,08,257,,09,05,187,,25,02,047,*54
$BDRMC,122250.000,A,3018.4346,N,12004.6816,E,0.06,159.03,270326,,,A*72
$BDVTG,159.03,T,,M,0.06,N,0.12,K,A*27
$BDGGA,122251.000,3018.4346,N,12004.6816,E,1,11,0.90,26.3,M,7.0,M,,*72
$BDGLL,3018.4346,N,12004.6816,E,122251.000,A,A*4E
$BDGSA,A,3,27,04,29,13,01,20,08,03,30,23,07,,1.27,0.90,0.89*1A
$BDGSV,5,1,19,30,59,219,42,03,55,199,39,08,50,336,37,20,48,286,45*63
$BDGSV,5,2,19,01,47,137,34,13,46,319,40,02,39,237,,29,39,302,45*67
$BDGSV,5,3,19,04,37,118,33,10,34,220,,07,31,207,37,16,19,173,*66
$BDGSV,5,4,19,27,18,163,32,23,16,090,39,05,16,254,,06,14,180,24*60
$BDGSV,5,5,19,19,08,257,,09,05,187,,25,02,047,*54
$BDRMC,122251.000,A,3018.4346,N,12004.6816,E,0.03,159.03,270326,,,A*76
$BDVTG,159.03,T,,M,0.03,N,0.06,K,A*27
$BDGGA,122252.000,3018.4346,N,12004.6817,E,1,11,0.90,26.3,M,7.0,M,,*70
$BDGLL,3018.4346,N,12004.6817,E,122252.000,A,A*4C
$BDGSA,A,3,27,04,29,13,01,20,08,03,30,23,07,,1.27,0.90,0.89*1A
$BDGSV,5,1,19,30,59,219,42,03,55,199,39,08,50,336,37,20,48,286,45*63
$BDGSV,5,2,19,01,47,137,34,13,46,319,40,02,39,237,,29,39,302,45*67
$BDGSV,5,3,19,04,37,118,33,10,34,220,,07,31,207,37,16,19,173,*66
$BDGSV,5,4,19,27,18,163,32,23,16,090,39,05,16,254,,06,14,180,24*60
$BDGSV,5,5,19,19,08,257,,09,05,187,,25,02,047,*54
$BDRMC,122252.000,A,3018.4346,N,12004.6817,E,0.05,159.03,270326,,,A*72
$BDVTG,159.03,T,,M,0.05,N,0.10,K,A*26
$BDGGA,122253.000,3018.4345,N,12004.6817,E,1,11,0.90,26.3,M,7.0,M,,*72
$BDGLL,3018.4345,N,12004.6817,E,122253.000,A,A*4E
$BDGSA,A,3,27,04,29,13,01,20,08,03,30,23,07,,1.27,0.90,0.89*1A
$BDGSV,5,1,19,30,59,219,42,03,55,199,39,08,50,336,37,20,48,286,45*63
$BDGSV,5,2,19,01,47,137,34,13,46,319,40,02,39,237,,29,39,302,45*67
$BDGSV,5,3,19,04,37,118,33,10,34,220,,07,31,207,37,16,19,173,*66
$BDGSV,5,4,19,27,18,163,32,23,16,090,39,05,16,254,,06,14,180,24*60
$BDGSV,5,5,19,19,08,257,,09,05,187,,25,02,047,*54
$BDRMC,122253.000,A,3018.4345,N,12004.6817,E,0.05,159.03,270326,,,A*70
$BDVTG,159.03,T,,M,0.05,N,0.09,K,A*2E
$BDGGA,122254.000,3018.4345,N,12004.6817,E,1,12,0.85,26.3,M,7.0,M,,*72
$BDGLL,3018.4345,N,12004.6817,E,122254.000,A,A*49
$BDGSA,A,3,27,04,29,13,01,20,08,03,30,23,07,02,1.23,0.85,0.89*18
$BDGSV,5,1,19,30,59,219,42,03,55,199,39,08,50,336,37,20,48,286,45*63
$BDGSV,5,2,19,01,47,137,34,13,46,319,40,02,39,237,27,29,39,302,45*62
$BDGSV,5,3,19,04,37,118,33,10,34,220,,07,31,207,37,16,19,173,*66
$BDGSV,5,4,19,27,18,163,33,23,16,090,39,05,16,254,,06,14,180,24*61
$BDGSV,5,5,19,19,08,257,,09,05,187,,25,02,047,*54
$BDRMC,122254.000,A,3018.4345,N,12004.6817,E,0.07,159.03,270326,,,A*75
$BDVTG,159.03,T,,M,0.07,N,0.13,K,A*27
$BDGGA,122255.000,3018.4345,N,12004.6817,E,1,12,0.85,26.3,M,7.0,M,,*73
$BDGLL,3018.4345,N,12004.6817,E,122255.000,A,A*48
$BDGSA,A,3,27,04,29,13,01,20,08,03,30,23,07,02,1.23,0.85,0.89*18
$BDGSV,5,1,19,30,59,219,42,03,55,199,39,08,50,336,37,20,48,286,45*63
$BDGSV,5,2,19,01,47,137,34,13,46,319,40,02,39,237,28,29,39,302,45*6D
$BDGSV,5,3,19,04,37,118,33,10,34,220,,07,31,207,37,16,19,173,*66
$BDGSV,5,4,19,27,18,163,33,23,16,090,39,05,16,254,,06,14,180,23*66
$BDGSV,5,5,19,19,08,257,,09,05,187,,25,02,047,*54
$BDRMC,122255.000,A,3018.4345,N,12004.6817,E,0.09,159.03,270326,,,A*7A
$BDVTG,159.03,T,,M,0.09,N,0.17,K,A*2D
$BDGGA,122256.000,3018.4345,N,12004.6817,E,1,12,0.85,26.3,M,7.0,M,,*70
$BDGLL,3018.4345,N,12004.6817,E,122256.000,A,A*4B
$BDGSA,A,3,27,04,29,23,13,01,20,08,03,30,07,02,1.23,0.85,0.89*18
$BDGSV,5,1,19,30,59,219,42,03,55,199,39,08,50,336,37,20,48,286,45*63
$BDGSV,5,2,19,01,47,137,34,13,46,319,40,02,39,237,28,29,39,302,45*6D
$BDGSV,5,3,19,04,37,118,33,10,34,220,,07,31,207,37,16,19,173,*66
$BDGSV,5,4,19,27,18,163,34,23,16,090,39,05,16,254,,06,14,180,23*61
$BDGSV,5,5,19,19,08,257,,09,05,187,,25,02,047,*54
$BDRMC,122256.000,A,3018.4345,N,12004.6817,E,0.12,159.03,270326,,,A*73
$BDVTG,159.03,T,,M,0.12,N,0.23,K,A*20
$BDGGA,122257.000,3018.4345,N,12004.6817,E,1,12,0.85,26.3,M,7.0,M,,*71
$BDGLL,3018.4345,N,12004.6817,E,122257.000,A,A*4A
$BDGSA,A,3,27,04,29,23,13,01,20,08,03,30,07,02,1.23,0.85,0.89*18
$BDGSV,5,1,19,30,59,219,42,03,55,199,39,08,50,336,37,20,48,286,45*63
$BDGSV,5,2,19,01,47,137,34,13,46,319,40,02,39,237,27,29,39,301,45*61
$BDGSV,5,3,19,04,37,118,33,10,34,220,,07,31,207,37,16,19,173,*66
$BDGSV,5,4,19,27,18,163,34,23,16,090,38,05,16,254,,06,14,180,23*60
$BDGSV,5,5,19,19,08,257,,09,05,187,,25,02,047,*54
$BDRMC,122257.000,A,3018.4345,N,12004.6817,E,0.03,159.03,270326,,,A*72
$BDVTG,159.03,T,,M,0.03,N,0.05,K,A*24
$BDGGA,122258.000,3018.4345,N,12004.6817,E,1,12,0.85,26.2,M,7.0,M,,*7F
$BDGLL,3018.4345,N,12004.6817,E,122258.000,A,A*45
$BDGSA,A,3,27,04,29,23,13,01,20,08,03,30,07,02,1.23,0.85,0.89*18
$BDGSV,5,1,19,30,58,218,42,03,55,199,39,08,50,336,37,20,48,286,45*63
$BDGSV,5,2,19,01,47,137,34,13,46,319,40,02,39,237,28,29,39,301,45*6E
$BDGSV,5,3,19,04,37,118,33,10,34,220,,07,31,207,37,16,19,173,*66
$BDGSV,5,4,19,27,18,163,34,23,16,090,40,05,16,254,,06,14,180,23*6F
$BDGSV,5,5,19,19,08,257,,09,05,187,,25,02,047,*54
$BDRMC,122258.000,A,3018.4345,N,12004.6817,E,0.08,159.03,270326,,,A*76
$BDVTG,159.03,T,,M,0.08,N,0.14,K,A*2F
$BDGGA,122259.000,3018.4345,N,12004.6817,E,1,12,0.85,26.2,M,7.0,M,,*7E
$BDGLL,3018.4345,N,12004.6817,E,122259.000,A,A*44
$BDGSA,A,3,27,04,29,23,13,01,20,08,03,30,07,02,1.23,0.85,0.89*18
$BDGSV,5,1,19,30,58,218,42,03,55,199,39,08,50,336,37,20,48,286,45*63
$BDGSV,5,2,19,01,47,137,34,13,46,319,40,02,39,237,28,29,39,301,45*6E
$BDGSV,5,3,19,04,37,118,34,10,34,220,,07,31,207,37,16,19,173,*61
$BDGSV,5,4,19,27,18,163,34,23,16,090,38,05,16,254,,06,14,180,24*67
$BDGSV,5,5,19,19,08,257,,09,05,187,,25,02,047,*54
$BDRMC,122259.000,A,3018.4345,N,12004.6817,E,0.04,159.03,270326,,,A*7B
$BDVTG,159.03,T,,M,0.04,N,0.07,K,A*21
$BDGGA,122300.000,3018.4345,N,12004.6817,E,1,12,0.85,26.2,M,7.0,M,,*73
$BDGLL,3018.4345,N,12004.6817,E,122300.000,A,A*49
$BDGSA,A,3,27,04,29,23,13,01,20,08,03,30,07,02,1.23,0.85,0.89*18
$BDGSV,5,1,19,30,58,218,42,03,55,199,39,08,50,336,37,20,48,286,45*63
$BDGSV,5,2,19,01,47,137,34,13,46,319,40,02,39,237,28,29,39,301,45*6E
$BDGSV,5,3,19,04,37,118,34,10,34,220,,07,31,207,37,16,19,173,*61
$BDGSV,5,4,19,27,18,163,35,23,16,090,38,05,16,254,,06,14,180,24*66
$BDGSV,5,5,19,19,08,257,,09,05,187,,25,02,047,*54
$BDRMC,122300.000,A,3018.4345,N,12004.6817,E,0.06,159.03,270326,,,A*74
$BDVTG,159.03,T,,M,0.06,N,0.12,K,A*27
$BDGGA,122301.000,3018.4345,N,12004.6817,E,1,12,0.85,26.2,M,7.0,M,,*72
$BDGLL,3018.4345,N,12004.6817,E,122301.000,A,A*48
$BDGSA,A,3,27,04,29,23,13,01,20,08,03,30,07,02,1.23,0.85,0.89*18
$BDGSV,5,1,19,30,58,218,42,03,55,199,39,08,50,336,37,20,48,286,45*63
$BDGSV,5,2,19,01,47,137,34,13,46,319,40,02,39,237,28,29,39,301,45*6E
$BDGSV,5,3,19,04,37,118,34,10,34,220,,07,31,207,37,16,19,173,*61
$BDGSV,5,4,19,27,18,163,35,23,16,090,38,05,16,254,,06,14,180,23*61
$BDGSV,5,5,19,19,08,257,,09,05,187,,25,02,047,*54
$BDRMC,122301.000,A,3018.4345,N,12004.6817,E,0.07,159.03,270326,,,A*74
$BDVTG,159.03,T,,M,0.07,N,0.13,K,A*27
$BDGGA,122302.000,3018.4345,N,12004.6816,E,1,12,0.85,26.2,M,7.0,M,,*70
$BDGLL,3018.4345,N,12004.6816,E,122302.000,A,A*4A
$BDGSA,A,3,27,04,29,23,13,01,20,08,03,30,07,02,1.23,0.85,0.89*18
$BDGSV,5,1,19,30,58,218,42,03,55,199,39,08,50,336,37,20,48,286,45*63
$BDGSV,5,2,19,01,47,137,34,13,46,319,40,02,39,237,28,29,39,301,45*6E
$BDGSV,5,3,19,04,37,118,34,10,34,220,,07,31,207,37,16,19,173,*61
$BDGSV,5,4,19,27,18,163,35,23,16,090,37,05,16,254,,06,14,180,23*6E
$BDGSV,5,5,19,19,08,257,,09,05,187,,25,02,047,*54
$BDRMC,122302.000,A,3018.4345,N,12004.6816,E,0.04,159.03,270326,,,A*75
$BDVTG,159.03,T,,M,0.04,N,0.07,K,A*21
$BDGGA,122303.000,3018.4345,N,12004.6816,E,1,12,0.85,26.2,M,7.0,M,,*71
$BDGLL,3018.4345,N,12004.6816,E,122303.000,A,A*4B
$BDGSA,A,3,27,04,29,23,13,01,20,08,03,30,07,02,1.23,0.85,0.89*18
$BDGSV,5,1,19,30,58,218,42,03,55,199,39,08,50,336,37,20,48,286,44*62
$BDGSV,5,2,19,01,47,137,34,13,46,319,40,02,39,237,28,29,39,301,45*6E
$BDGSV,5,3,19,04,37,118,34,10,34,220,,07,31,207,37,16,19,173,*61
$BDGSV,5,4,19,27,18,163,35,23,16,090,38,05,16,254,,06,14,180,22*60
$BDGSV,5,5,19,19,08,257,,09,05,187,,25,02,047,*54
$BDRMC,122303.000,A,3018.4345,N,12004.6816,E,0.04,159.03,270326,,,A*74
$BDVTG,159.03,T,,M,0.04,N,0.07,K,A*21
$BDGGA,122304.000,3018.4345,N,12004.6817,E,1,12,0.85,26.2,M,7.0,M,,*77
$BDGLL,3018.4345,N,12004.6817,E,122304.000,A,A*4D
$BDGSA,A,3,27,04,29,23,13,01,20,08,03,30,07,02,1.23,0.85,0.89*18
$BDGSV,5,1,19,30,58,218,42,03,55,199,39,08,50,336,37,20,48,286,44*62
$BDGSV,5,2,19,01,47,137,34,13,46,319,40,02,39,237,28,29,39,301,45*6E
$BDGSV,5,3,19,04,37,118,34,10,34,220,,07,31,207,37,16,19,173,*61
$BDGSV,5,4,19,27,18,163,35,23,16,090,38,05,16,254,,06,14,180,22*60
$BDGSV,5,5,19,19,08,257,,09,05,187,,25,02,047,*54
$BDRMC,122304.000,A,3018.4345,N,12004.6817,E,0.06,159.03,270326,,,A*70
$BDVTG,159.03,T,,M,0.06,N,0.11,K,A*24
$BDGGA,122305.000,3018.4345,N,12004.6817,E,1,12,0.85,26.2,M,7.0,M,,*76
$BDGLL,3018.4345,N,12004.6817,E,122305.000,A,A*4C
$BDGSA,A,3,27,04,29,23,13,01,20,08,03,30,07,02,1.23,0.85,0.89*18
$BDGSV,5,1,19,30,58,218,42,03,55,199,39,08,50,336,37,20,48,286,43*65
$BDGSV,5,2,19,01,47,137,34,13,46,319,40,02,39,237,29,29,39,301,43*69
$BDGSV,5,3,19,04,37,118,35,10,34,220,,07,31,207,36,16,19,173,*61
$BDGSV,5,4,19,27,18,163,35,23,16,090,38,05,16,254,,06,14,180,23*61
$BDGSV,5,5,19,19,08,257,,09,05,187,,25,02,047,*54
$BDRMC,122305.000,A,3018.4345,N,12004.6817,E,0.07,159.03,270326,,,A*70
$BDVTG,159.03,T,,M,0.07,N,0.14,K,A*20
$BDGGA,122306.000,3018.4345,N,12004.6817,E,1,12,0.85,26.2,M,7.0,M,,*75
$BDGLL,3018.4345,N,12004.6817,E,122306.000,A,A*4F
$BDGSA,A,3,27,04,29,23,13,01,20,08,03,30,07,02,1.23,0.85,0.89*18
$BDGSV,5,1,19,30,58,218,42,03,55,199,39,08,50,336,37,20,48,286,42*64
$BDGSV,5,2,19,01,47,137,34,13,46,319,40,02,39,237,28,29,39,301,43*68
$BDGSV,5,3,19,04,37,118,34,10,34,220,,07,31,207,35,16,19,173,*63
$BDGSV,5,4,19,27,18,163,35,23,16,090,37,05,16,254,,06,14,180,23*6E
$BDGSV,5,5,19,19,08,257,,09,05,187,,25,02,047,*54
$BDRMC,122306.000,A,3018.4345,N,12004.6817,E,0.03,159.03,270326,,,A*77
$BDVTG,159.03,T,,M,0.03,N,0.06,K,A*27
$BDGGA,122307.000,3018.4345,N,12004.6817,E,1,12,0.85,26.2,M,7.0,M,,*74
$BDGLL,3018.4345,N,12004.6817,E,122307.000,A,A*4E
$BDGSA,A,3,27,04,29,23,13,01,20,08,03,30,07,02,1.23,0.85,0.89*18
$BDGSV,5,1,19,30,58,218,42,03,55,199,39,08,50,336,37,20,48,286,42*64
$BDGSV,5,2,19,01,47,137,34,13,46,319,40,02,39,237,27,29,39,301,44*60
$BDGSV,5,3,19,04,37,118,34,10,34,220,,07,31,207,35,16,19,173,*63
$BDGSV,5,4,19,27,18,163,35,23,16,090,37,05,16,254,,06,14,180,23*6E
$BDGSV,5,5,19,19,08,257,,09,05,187,,25,02,047,*54
$BDRMC,122307.000,A,3018.4345,N,12004.6817,E,0.08,159.03,270326,,,A*7D
$BDVTG,159.03,T,,M,0.08,N,0.15,K,A*2E
$BDGGA,122308.000,3018.4345,N,12004.6817,E,1,12,0.85,26.1,M,7.0,M,,*78
$BDGLL,3018.4345,N,12004.6817,E,122308.000,A,A*41
$BDGSA,A,3,27,04,29,23,13,01,20,08,03,30,07,02,1.23,0.85,0.89*18
$BDGSV,5,1,19,30,58,218,42,03,55,199,39,08,50,336,37,20,48,286,42*64
$BDGSV,5,2,19,01,47,137,34,13,46,319,40,02,39,237,27,29,39,301,44*60
$BDGSV,5,3,19,04,37,118,35,10,34,220,,07,31,207,35,16,19,173,*62
$BDGSV,5,4,19,27,18,163,35,23,16,090,36,05,16,254,,06,14,180,24*68
$BDGSV,5,5,19,19,08,257,,09,05,187,,25,02,047,*54
$BDRMC,122308.000,A,3018.4345,N,12004.6817,E,0.03,159.03,270326,,,A*79
$BDVTG,159.03,T,,M,0.03,N,0.06,K,A*27
$BDGGA,122309.000,3018.4345,N,12004.6817,E,1,12,0.85,26.1,M,7.0,M,,*79
$BDGLL,3018.4345,N,12004.6817,E,122309.000,A,A*40
$BDGSA,A,3,27,04,29,23,13,01,20,08,03,30,07,02,1.23,0.85,0.89*18
$BDGSV,5,1,19,30,58,218,42,03,55,199,39,08,50,336,37,20,48,286,42*64
$BDGSV,5,2,19,01,47,137,34,13,46,319,40,02,39,237,27,29,39,301,44*60
$BDGSV,5,3,19,04,37,118,35,10,34,220,,07,31,207,35,16,19,173,*62
$BDGSV,5,4,19,27,18,163,35,23,16,090,36,05,16,254,,06,14,180,24*68
$BDGSV,5,5,19,19,08,257,,09,05,187,,25,02,047,*54
$BDRMC,122309.000,A,3018.4345,N,12004.6817,E,0.04,159.03,270326,,,A*7F
$BDVTG,159.03,T,,M,0.04,N,0.07,K,A*21
$BDGGA,122310.000,3018.4345,N,12004.6817,E,1,12,0.85,26.1,M,7.0,M,,*71
$BDGLL,3018.4345,N,12004.6817,E,122310.000,A,A*48
$BDGSA,A,3,27,04,29,23,13,01,20,08,03,30,07,02,1.23,0.85,0.89*18
$BDGSV,5,1,19,30,58,218,42,03,55,199,39,08,50,336,37,20,48,286,42*64
$BDGSV,5,2,19,01,47,137,34,13,46,319,40,02,39,237,26,29,39,301,44*61
$BDGSV,5,3,19,04,37,118,35,10,34,220,,07,31,207,35,16,19,173,*62
$BDGSV,5,4,19,27,18,163,36,23,16,090,36,05,16,254,,06,14,180,23*6C
$BDGSV,5,5,19,19,08,257,,09,05,187,,25,02,047,*54
$BDRMC,122310.000,A,3018.4345,N,12004.6817,E,0.07,159.03,270326,,,A*74
$BDVTG,159.03,T,,M,0.07,N,0.14,K,A*20
$BDGGA,122311.000,3018.4345,N,12004.6817,E,1,12,0.85,26.1,M,7.0,M,,*70
$BDGLL,3018.4345,N,12004.6817,E,122311.000,A,A*49
$BDGSA,A,3,27,04,29,23,13,01,20,08,03,30,07,02,1.23,0.85,0.89*18
$BDGSV,5,1,19,30,58,218,42,03,55,199,39,08,50,336,37,20,48,286,43*65
$BDGSV,5,2,19,01,47,137,35,13,46,319,40,02,39,237,27,29,39,301,44*61
$BDGSV,5,3,19,04,37,118,35,10,34,220,,07,31,207,35,16,19,173,*62
$BDGSV,5,4,19,27,18,163,36,23,16,090,36,05,16,254,,06,14,180,23*6C
$BDGSV,5,5,19,19,08,257,,09,05,187,,25,02,047,*54
$BDRMC,122311.000,A,3018.4345,N,12004.6817,E,0.04,159.03,270326,,,A*76
$BDVTG,159.03,T,,M,0.04,N,0.07,K,A*21
$BDGGA,122312.000,3018.4345,N,12004.6817,E,1,12,0.85,26.1,M,7.0,M,,*73
$BDGLL,3018.4345,N,12004.6817,E,122312.000,A,A*4A
$BDGSA,A,3,27,04,29,23,13,01,20,08,03,30,07,02,1.23,0.85,0.89*18
$BDGSV,5,1,19,30,58,218,42,03,55,199,39,08,50,336,37,20,48,286,44*62
$BDGSV,5,2,19,01,47,137,35,13,46,319,40,02,39,237,28,29,39,301,44*6E
$BDGSV,5,3,19,04,37,118,35,10,34,220,,07,31,207,35,16,19,173,*62
$BDGSV,5,4,19,27,18,163,36,23,16,090,36,05,16,254,,06,14,180,24*6B
$BDGSV,5,5,19,19,08,257,,09,05,187,,25,02,047,*54
$BDRMC,122312.000,A,3018.4345,N,12004.6817,E,0.02,159.03,270326,,,A*73
$BDVTG,159.03,T,,M,0.02,N,0.03,K,A*23
$BDGGA,122313.000,3018.4345,N,12004.6817,E,1,12,0.85,26.1,M,7.0,M,,*72
$BDGLL,3018.4345,N,12004.6817,E,122313.000,A,A*4B
$BDGSA,A,3,27,04,29,23,13,01,20,08,03,30,07,02,1.23,0.85,0.89*18
$BDGSV,5,1,19,30,58,218,42,03,55,199,39,08,50,336,37,20,48,286,44*62
$BDGSV,5,2,19,01,47,137,35,13,46,319,40,02,39,237,27,29,39,301,44*61
$BDGSV,5,3,19,04,37,118,34,10,34,220,,07,31,207,35,16,19,173,*63
$BDGSV,5,4,19,27,18,163,36,23,16,090,36,05,16,254,,06,14,180,24*6B
$BDGSV,5,5,19,19,08,257,,09,05,187,,25,02,047,*54
$BDRMC,122313.000,A,3018.4345,N,12004.6817,E,0.06,159.03,270326,,,A*76
$BDVTG,159.03,T,,M,0.06,N,0.12,K,A*27
$BDGGA,122314.000,3018.4345,N,12004.6817,E,1,12,0.85,26.1,M,7.0,M,,*75
$BDGLL,3018.4345,N,12004.6817,E,122314.000,A,A*4C
$BDGSA,A,3,27,04,29,23,13,01,20,08,03,30,07,02,1.23,0.85,0.89*18
$BDGSV,5,1,19,30,58,218,43,03,55,199,39,08,50,336,37,20,48,286,44*63
$BDGSV,5,2,19,01,47,137,35,13,46,319,40,02,39,237,27,29,39,301,44*61
$BDGSV,5,3,19,04,37,118,35,10,34,220,,07,31,207,35,16,19,173,*62
$BDGSV,5,4,19,27,18,163,36,23,16,090,36,05,16,254,,06,14,180,24*6B
$BDGSV,5,5,19,19,08,257,,09,05,187,,25,02,047,*54
$BDRMC,122314.000,A,3018.4345,N,12004.6817,E,0.01,159.03,270326,,,A*76
$BDVTG,159.03,T,,M,0.01,N,0.01,K,A*22
$BDGGA,122315.000,3018.4345,N,12004.6817,E,1,13,0.85,26.1,M,7.0,M,,*75
$BDGLL,3018.4345,N,12004.6817,E,122315.000,A,A*4D
$BDGSA,A,3,27,04,29,23,13,01,20,08,03,30,10,07,1.23,0.85,0.89*1B
$BDGSV,5,1,19,30,58,218,43,03,55,199,39,08,50,336,37,20,48,286,44*63
$BDGSV,5,2,19,01,47,137,34,13,46,319,40,02,39,237,28,29,39,301,45*6E
$BDGSV,5,3,19,04,37,118,35,10,34,220,20,07,31,207,35,16,19,173,*60
$BDGSV,5,4,19,27,18,163,36,23,16,090,36,05,16,254,,06,14,180,24*6B
$BDGSV,5,5,19,19,08,257,,09,05,187,,25,02,047,*54
$BDRMC,122315.000,A,3018.4345,N,12004.6817,E,0.05,159.03,270326,,,A*73
$BDVTG,159.03,T,,M,0.05,N,0.09,K,A*2E
$BDGGA,122316.000,3018.4345,N,12004.6817,E,1,12,0.85,26.1,M,7.0,M,,*77
$BDGLL,3018.4345,N,12004.6817,E,122316.000,A,A*4E
$BDGSA,A,3,27,04,29,23,13,01,20,08,03,30,07,02,1.23,0.85,0.89*18
$BDGSV,5,1,19,30,58,218,43,03,55,199,39,08,50,336,37,20,48,286,44*63
$BDGSV,5,2,19,01,47,137,34,13,46,319,40,02,39,237,28,29,39,301,45*6E
$BDGSV,5,3,19,04,37,118,35,10,34,220,19,07,31,207,35,16,19,173,*6A
$BDGSV,5,4,19,27,18,163,36,23,16,090,36,05,16,254,,06,14,180,24*6B
$BDGSV,5,5,19,19,08,257,,09,05,187,,25,02,047,*54
$BDRMC,122316.000,A,3018.4345,N,12004.6817,E,0.09,159.03,270326,,,A*7C
$BDVTG,159.03,T,,M,0.09,N,0.18,K,A*22
$BDGGA,122317.000,3018.4345,N,12004.6817,E,1,12,0.85,26.1,M,7.0,M,,*76
$BDGLL,3018.4345,N,12004.6817,E,122317.000,A,A*4F
$BDGSA,A,3,27,04,29,23,13,01,20,08,03,30,07,02,1.23,0.85,0.89*18
$BDGSV,5,1,19,30,58,218,43,03,55,199,39,08,50,336,37,20,48,286,44*63
$BDGSV,5,2,19,01,47,137,34,13,46,319,40,02,39,237,28,29,39,301,45*6E
$BDGSV,5,3,19,04,37,118,35,10,34,220,16,07,31,207,35,16,19,173,*65
$BDGSV,5,4,19,27,18,163,36,23,16,090,36,05,16,254,,06,14,180,24*6B
$BDGSV,5,5,19,19,08,257,,09,05,187,,25,02,047,*54
$BDRMC,122317.000,A,3018.4345,N,12004.6817,E,0.05,159.03,270326,,,A*71
$BDVTG,159.03,T,,M,0.05,N,0.10,K,A*26
$BDGGA,122318.000,3018.4345,N,12004.6817,E,1,12,0.85,26.1,M,7.0,M,,*79
$BDGLL,3018.4345,N,12004.6817,E,122318.000,A,A*40
$BDGSA,A,3,27,04,29,23,13,01,20,08,03,30,07,02,1.23,0.85,0.89*18
$BDGSV,5,1,19,30,58,218,43,03,55,199,39,08,50,336,37,20,48,286,44*63
$BDGSV,5,2,19,01,47,137,34,13,46,319,40,02,39,237,28,29,39,301,45*6E
$BDGSV,5,3,19,04,37,118,35,10,34,220,15,07,31,207,35,16,19,173,*66
$BDGSV,5,4,19,27,18,163,36,23,16,090,36,05,16,254,,06,14,180,24*6B
$BDGSV,5,5,19,19,08,257,,09,05,187,,25,02,047,*54
$BDRMC,122318.000,A,3018.4345,N,12004.6817,E,0.01,159.03,270326,,,A*7A
$BDVTG,159.03,T,,M,0.01,N,0.02,K,A*21
$BDGGA,122319.000,3018.4345,N,12004.6817,E,1,12,0.85,26.1,M,7.0,M,,*78
$BDGLL,3018.4345,N,12004.6817,E,122319.000,A,A*41
$BDGSA,A,3,27,04,29,23,13,01,20,08,03,30,07,02,1.23,0.85,0.89*18
$BDGSV,5,1,19,30,58,218,43,03,55,199,39,08,50,336,37,20,48,286,44*63
$BDGSV,5,2,19,01,47,137,34,13,46,319,40,02,39,237,28,29,39,301,45*6E
$BDGSV,5,3,19,04,37,118,35,10,34,220,13,07,31,207,35,16,19,173,*60
$BDGSV,5,4,19,27,18,163,36,23,16,090,36,05,16,254,,06,14,180,24*6B
$BDGSV,5,5,19,19,08,257,,09,05,187,,25,02,047,*54
$BDRMC,122319.000,A,3018.4345,N,12004.6817,E,0.04,159.03,270326,,,A*7E
$BDVTG,159.03,T,,M,0.04,N,0.07,K,A*21
$BDGGA,122320.000,3018.4345,N,12004.6817,E,1,12,0.85,26.1,M,7.0,M,,*72
$BDGLL,3018.4345,N,12004.6817,E,122320.000,A,A*4B
$BDGSA,A,3,27,04,29,23,13,01,20,08,03,30,07,02,1.23,0.85,0.89*18
$BDGSV,5,1,19,30,58,218,43,03,55,199,39,08,50,336,37,20,48,286,44*63
$BDGSV,5,2,19,01,47,137,34,13,46,319,40,02,39,237,28,29,39,301,45*6E
$BDGSV,5,3,19,04,37,118,35,10,34,220,13,07,31,207,35,16,19,173,*60
$BDGSV,5,4,19,27,18,163,36,23,16,090,35,05,16,254,,06,14,180,24*68
$BDGSV,5,5,19,19,08,257,,09,05,187,,25,02,047,*54
$BDRMC,122320.000,A,3018.4345,N,12004.6817,E,0.06,159.03,270326,,,A*76
$BDVTG,159.03,T,,M,0.06,N,0.12,K,A*27
$BDGGA,122321.000,3018.4344,N,12004.6817,E,1,12,0.85,26.1,M,7.0,M,,*72
$BDGLL,3018.4344,N,12004.6817,E,122321.000,A,A*4B
$BDGSA,A,3,27,04,29,23,13,01,20,08,03,30,07,02,1.23,0.85,0.89*18
$BDGSV,5,1,19,30,58,218,43,03,55,199,39,08,50,336,36,20,48,286,44*62
$BDGSV,5,2,19,01,47,137,33,13,46,319,40,02,39,237,28,29,39,301,45*69
$BDGSV,5,3,19,04,37,118,35,10,34,220,13,07,31,207,35,16,19,173,*60
$BDGSV,5,4,19,27,18,163,36,23,16,090,34,05,16,254,,06,14,180,24*69
$BDGSV,5,5,19,19,08,257,,09,05,187,,25,02,047,*54
$BDRMC,122321.000,A,3018.4344,N,12004.6817,E,0.07,159.03,270326,,,A*77
$BDVTG,159.03,T,,M,0.07,N,0.13,K,A*27
$BDGGA,122322.000,3018.4344,N,12004.6817,E,1,12,0.85,26.1,M,7.0,M,,*71
$BDGLL,3018.4344,N,12004.6817,E,122322.000,A,A*48
$BDGSA,A,3,27,04,29,23,13,01,20,08,03,30,07,02,1.23,0.85,0.89*18
$BDGSV,5,1,19,30,58,218,43,03,55,199,39,08,50,336,36,20,48,286,44*62
$BDGSV,5,2,19,01,47,137,33,13,46,319,40,02,39,237,28,29,39,301,45*69
$BDGSV,5,3,19,04,37,118,34,10,34,220,11,07,31,207,35,16,19,173,*63
$BDGSV,5,4,19,27,18,163,36,23,16,090,33,05,16,254,,06,14,180,24*6E
$BDGSV,5,5,19,19,08,257,,09,05,187,,25,02,047,*54
$BDRMC,122322.000,A,3018.4344,N,12004.6817,E,0.08,159.03,270326,,,A*7B
$BDVTG,159.03,T,,M,0.08,N,0.15,K,A*2E
$BDGGA,122323.000,3018.4344,N,12004.6817,E,1,12,0.85,26.1,M,7.0,M,,*70
$BDGLL,3018.4344,N,12004.6817,E,122323.000,A,A*49
$BDGSA,A,3,27,04,29,23,13,01,20,08,03,30,07,02,1.23,0.85,0.89*18
$BDGSV,5,1,19,30,58,218,43,03,55,199,39,08,50,336,36,20,48,286,44*62
$BDGSV,5,2,19,01,47,137,33,13,46,319,40,02,39,237,28,29,39,301,45*69
$BDGSV,5,3,19,04,37,118,35,10,34,220,12,07,31,207,35,16,19,173,*61
$BDGSV,5,4,19,27,18,163,36,23,16,090,34,05,16,254,,06,14,180,24*69
$BDGSV,5,5,19,19,08,257,,09,05,187,,25,02,047,*54
$BDRMC,122323.000,A,3018.4344,N,12004.6817,E,0.16,159.03,270326,,,A*75
$BDVTG,159.03,T,,M,0.16,N,0.30,K,A*26
$BDGGA,122324.000,3018.4344,N,12004.6817,E,1,12,0.85,26.1,M,7.0,M,,*77
$BDGLL,3018.4344,N,12004.6817,E,122324.000,A,A*4E
$BDGSA,A,3,27,04,29,23,13,01,20,08,03,30,07,02,1.23,0.85,0.89*18
$BDGSV,5,1,19,30,58,218,43,03,55,199,39,08,50,336,36,20,48,286,44*62
$BDGSV,5,2,19,01,47,137,33,13,46,319,40,02,39,237,28,29,39,301,45*69
$BDGSV,5,3,19,04,37,118,35,10,34,220,12,07,31,207,35,16,19,173,*61
$BDGSV,5,4,19,27,18,163,36,23,16,090,34,05,16,254,,06,14,180,24*69
$BDGSV,5,5,19,19,08,257,,09,05,187,,25,02,047,*54
$BDRMC,122324.000,A,3018.4344,N,12004.6817,E,0.09,159.03,270326,,,A*7C
$BDVTG,159.03,T,,M,0.09,N,0.16,K,A*2C
$BDGGA,122325.000,3018.4344,N,12004.6817,E,1,12,0.85,26.1,M,7.0,M,,*76
$BDGLL,3018.4344,N,12004.6817,E,122325.000,A,A*4F
$BDGSA,A,3,27,04,29,23,13,01,20,08,03,30,07,02,1.23,0.85,0.89*18
$BDGSV,5,1,19,30,58,218,43,03,55,199,39,08,50,336,36,20,48,286,44*62
$BDGSV,5,2,19,01,47,137,33,13,46,319,40,02,39,237,28,29,39,301,45*69
$BDGSV,5,3,19,04,37,118,34,10,34,220,12,07,31,207,35,16,19,173,*60
$BDGSV,5,4,19,27,18,163,36,23,16,090,34,05,16,254,,06,14,180,24*69
$BDGSV,5,5,19,19,08,257,,09,05,187,,25,02,047,*54
$BDRMC,122325.000,A,3018.4344,N,12004.6817,E,0.06,159.03,270326,,,A*72
$BDVTG,159.03,T,,M,0.06,N,0.12,K,A*27
$BDGGA,122326.000,3018.4344,N,12004.6817,E,1,12,0.85,26.1,M,7.0,M,,*75
$BDGLL,3018.4344,N,12004.6817,E,122326.000,A,A*4C
$BDGSA,A,3,27,04,29,23,13,01,20,08,03,30,07,02,1.23,0.85,0.89*18
$BDGSV,5,1,19,30,58,218,43,03,55,199,39,08,50,336,36,20,48,286,43*65
$BDGSV,5,2,19,01,47,137,33,13,46,319,40,02,39,237,28,29,39,301,45*69
$BDGSV,5,3,19,04,37,118,35,10,34,220,12,07,31,207,35,16,19,173,*61
$BDGSV,5,4,19,27,18,163,36,23,16,090,34,05,16,254,,06,14,180,24*69
$BDGSV,5,5,19,19,08,257,,09,05,187,,25,02,047,*54
$BDRMC,122326.000,A,3018.4344,N,12004.6817,E,0.05,159.03,270326,,,A*72
$BDVTG,159.03,T,,M,0.05,N,0.10,K,A*26
$BDGGA,122327.000,3018.4344,N,12004.6817,E,1,12,0.85,26.1,M,7.0,M,,*74
$BDGLL,3018.4344,N,12004.6817,E,122327.000,A,A*4D
$BDGSA,A,3,27,04,29,23,13,01,20,08,03,30,07,02,1.23,0.85,0.89*18
$BDGSV,5,1,19,30,58,218,43,03,55,199,39,08,50,336,36,20,48,286,42*64
$BDGSV,5,2,19,01,47,137,33,13,46,319,40,02,39,237,28,29,39,301,44*68
$BDGSV,5,3,19,04,37,118,35,10,34,220,,07,31,207,35,16,19,173,*62
$BDGSV,5,4,19,27,18,163,36,23,16,090,35,05,16,254,,06,14,180,24*68
$BDGSV,5,5,19,19,08,257,,09,05,187,,25,02,047,*54
$BDRMC,122327.000,A,3018.4344,N,12004.6817,E,0.05,159.03,270326,,,A*73
$BDVTG,159.03,T,,M,0.05,N,0.10,K,A*26
$BDGGA,122328.000,3018.4344,N,12004.6817,E,1,12,0.85,26.0,M,7.0,M,,*7A
$BDGLL,3018.4344,N,12004.6817,E,122328.000,A,A*42
$BDGSA,A,3,27,04,29,23,13,01,20,08,03,30,07,02,1.23,0.85,0.89*18
$BDGSV,5,1,19,30,58,218,43,03,55,199,39,08,50,336,36,20,48,286,42*64
$BDGSV,5,2,19,01,47,137,33,13,46,319,40,02,39,237,28,29,39,301,44*68
$BDGSV,5,3,19,04,37,118,34,10,34,220,,07,31,207,35,16,19,173,*63
$BDGSV,5,4,19,27,18,163,37,23,16,090,35,05,16,254,,06,14,180,24*69
$BDGSV,5,5,19,19,08,257,,09,05,187,,25,02,047,*54
$BDRMC,122328.000,A,3018.4344,N,12004.6817,E,0.08,159.03,270326,,,A*71
$BDVTG,159.03,T,,M,0.08,N,0.15,K,A*2E
$BDGGA,122329.000,3018.4344,N,12004.6817,E,1,12,0.85,26.0,M,7.0,M,,*7B
$BDGLL,3018.4344,N,12004.6817,E,122329.000,A,A*43
$BDGSA,A,3,27,04,29,23,13,01,20,08,03,30,07,02,1.23,0.85,0.89*18
$BDGSV,5,1,19,30,58,218,43,03,55,199,39,08,50,336,36,20,48,286,41*67
$BDGSV,5,2,19,01,47,137,34,13,46,319,40,02,39,237,28,29,39,301,44*6F
$BDGSV,5,3,19,04,37,118,35,10,34,220,,07,31,207,34,16,19,173,*63
$BDGSV,5,4,19,27,18,163,37,23,16,090,35,05,16,254,,06,14,180,24*69
$BDGSV,5,5,19,19,08,257,,09,05,187,,25,02,047,*54
$BDRMC,122329.000,A,3018.4344,N,12004.6817,E,0.13,159.03,270326,,,A*7A
$BDVTG,159.03,T,,M,0.13,N,0.25,K,A*27
$BDGGA,122330.000,3018.4344,N,12004.6817,E,1,12,0.85,26.0,M,7.0,M,,*73
$BDGLL,3018.4344,N,12004.6817,E,122330.000,A,A*4B
$BDGSA,A,3,27,04,29,23,13,01,20,08,03,30,07,02,1.23,0.85,0.89*18
$BDGSV,5,1,19,30,58,218,43,03,55,199,39,08,50,336,36,20,48,286,41*67
$BDGSV,5,2,19,01,47,137,34,13,46,319,40,02,39,237,28,29,39,301,44*6F
$BDGSV,5,3,19,04,37,118,34,10,34,220,,07,31,207,34,16,19,173,*62
$BDGSV,5,4,19,27,18,163,37,23,16,090,35,05,16,254,,06,14,180,24*69
$BDGSV,5,5,19,19,08,257,,09,05,187,,25,02,047,*54
$BDRMC,122330.000,A,3018.4344,N,12004.6817,E,0.18,159.03,270326,,,A*79
$BDVTG,159.03,T,,M,0.18,N,0.34,K,A*2C
$BDGGA,122331.000,3018.4344,N,12004.6817,E,1,12,0.85,25.9,M,7.0,M,,*78
$BDGLL,3018.4344,N,12004.6817,E,122331.000,A,A*4A
$BDGSA,A,3,27,04,29,23,13,01,20,08,03,30,07,02,1.23,0.85,0.89*18
$BDGSV,5,1,19,30,58,218,43,03,55,199,39,08,50,336,36,20,48,286,41*67
$BDGSV,5,2,19,01,47,137,34,13,46,319,41,02,39,237,28,29,39,301,44*6E
$BDGSV,5,3,19,04,37,118,33,10,34,220,,07,31,207,34,16,19,173,*65
$BDGSV,5,4,19,27,18,163,37,23,16,090,35,05,16,254,,06,14,180,24*69
$BDGSV,5,5,19,19,08,257,,09,05,187,,25,02,047,*54
$BDRMC,122331.000,A,3018.4344,N,12004.6817,E,0.10,159.03,270326,,,A*70
$BDVTG,159.03,T,,M,0.10,N,0.18,K,A*2A
$BDGGA,122332.000,3018.4344,N,12004.6817,E,1,12,0.85,25.9,M,7.0,M,,*7B
$BDGLL,3018.4344,N,12004.6817,E,122332.000,A,A*49
$BDGSA,A,3,27,04,29,23,13,01,20,08,03,30,07,02,1.23,0.85,0.89*18
$BDGSV,5,1,19,30,58,218,43,03,55,199,39,08,50,336,36,20,48,286,41*67
$BDGSV,5,2,19,01,47,137,34,13,46,319,41,02,39,237,28,29,39,301,44*6E
$BDGSV,5,3,19,04,37,118,33,10,34,220,,07,31,207,34,16,19,173,*65
$BDGSV,5,4,19,27,18,163,37,23,16,090,34,05,16,254,,06,14,180,24*68
$BDGSV,5,5,19,19,08,257,,09,05,187,,25,02,047,*54
$BDRMC,122332.000,A,3018.4344,N,12004.6817,E,0.24,159.03,270326,,,A*74
$BDVTG,159.03,T,,M,0.24,N,0.45,K,A*25
$BDGGA,122333.000,3018.4345,N,12004.6818,E,1,12,0.85,25.9,M,7.0,M,,*74
$BDGLL,3018.4345,N,12004.6818,E,122333.000,A,A*46
$BDGSA,A,3,27,04,29,23,13,01,20,08,03,30,07,02,1.23,0.85,0.89*18
$BDGSV,5,1,19,30,58,218,43,03,55,199,39,08,50,336,36,20,48,286,41*67
$BDGSV,5,2,19,01,47,137,34,13,46,319,41,02,39,237,27,29,39,301,44*61
$BDGSV,5,3,19,04,37,118,33,10,34,220,,07,31,207,33,16,19,173,*62
$BDGSV,5,4,19,27,18,163,37,23,16,090,34,05,16,254,,06,14,180,24*68
$BDGSV,5,5,19,19,08,257,,09,05,187,,25,02,047,*54
$BDRMC,122333.000,A,3018.4345,N,12004.6818,E,0.17,159.03,270326,,,A*7B
$BDVTG,159.03,T,,M,0.17,N,0.31,K,A*26
$BDGGA,122334.000,3018.4345,N,12004.6818,E,1,12,0.85,25.8,M,7.0,M,,*72
$BDGLL,3018.4345,N,12004.6818,E,122334.000,A,A*41
$BDGSA,A,3,27,04,29,23,13,01,20,08,03,30,07,02,1.23,0.85,0.89*18
$BDGSV,5,1,19,30,58,218,43,03,55,199,39,08,50,336,36,20,48,286,41*67
$BDGSV,5,2,19,01,47,137,34,13,46,319,41,02,39,237,27,29,39,301,44*61
$BDGSV,5,3,19,04,37,118,33,10,34,220,,07,31,207,33,16,19,173,*62
$BDGSV,5,4,19,27,18,163,37,23,16,090,34,05,16,254,,06,14,180,24*68
$BDGSV,5,5,19,19,08,257,,09,05,187,,25,02,047,*54
$BDRMC,122334.000,A,3018.4345,N,12004.6818,E,0.15,159.03,270326,,,A*7E
$BDVTG,159.03,T,,M,0.15,N,0.27,K,A*23
$BDGGA,122335.000,3018.4345,N,12004.6818,E,1,12,0.85,25.8,M,7.0,M,,*73
$BDGLL,3018.4345,N,12004.6818,E,122335.000,A,A*40
$BDGSA,A,3,27,04,29,23,13,01,20,08,03,30,07,02,1.23,0.85,0.89*18
$BDGSV,5,1,19,30,58,218,43,03,55,199,40,08,50,336,36,20,48,286,41*69
$BDGSV,5,2,19,01,47,137,34,13,46,319,41,02,39,237,27,29,39,301,44*61
$BDGSV,5,3,19,04,37,118,34,10,34,220,,07,31,207,33,16,19,173,*65
$BDGSV,5,4,19,27,18,163,37,23,16,090,34,05,16,254,,06,14,180,25*69
$BDGSV,5,5,19,19,08,257,,09,05,187,,25,02,047,*54
$BDRMC,122335.000,A,3018.4345,N,12004.6818,E,0.06,159.03,270326,,,A*7D
$BDVTG,159.03,T,,M,0.06,N,0.11,K,A*24
$BDGGA,122336.000,3018.4345,N,12004.6818,E,1,12,0.85,25.8,M,7.0,M,,*70
$BDGLL,3018.4345,N,12004.6818,E,122336.000,A,A*43
$BDGSA,A,3,27,04,29,23,13,01,20,08,03,30,07,02,1.23,0.85,0.89*18
$BDGSV,5,1,19,30,58,218,43,03,55,199,40,08,50,336,36,20,48,286,41*69
$BDGSV,5,2,19,01,47,137,34,13,46,319,41,02,39,237,27,29,39,301,44*61
$BDGSV,5,3,19,04,37,118,34,10,34,220,,07,31,207,33,16,19,173,*65
$BDGSV,5,4,19,27,18,163,37,23,16,090,34,05,16,254,,06,14,180,25*69
$BDGSV,5,5,19,19,08,257,,09,05,187,,25,02,047,*54
$BDRMC,122336.000,A,3018.4345,N,12004.6818,E,0.05,159.03,270326,,,A*7D
$BDVTG,159.03,T,,M,0.05,N,0.10,K,A*26
$BDGGA,122337.000,3018.4345,N,12004.6818,E,1,12,0.85,25.8,M,7.0,M,,*71
$BDGLL,3018.4345,N,12004.6818,E,122337.000,A,A*42
$BDGSA,A,3,27,04,29,23,13,01,20,08,03,30,07,02,1.23,0.85,0.89*18
$BDGSV,5,1,19,30,58,218,43,03,55,199,40,08,50,336,36,20,48,286,41*69
$BDGSV,5,2,19,01,47,137,34,13,46,319,41,02,39,237,27,29,39,301,44*61
$BDGSV,5,3,19,04,37,118,33,10,34,220,,07,31,207,33,16,19,173,*62
$BDGSV,5,4,19,27,18,163,37,23,16,090,33,05,16,254,,06,14,180,25*6E
$BDGSV,5,5,19,19,08,257,,09,05,187,,25,02,047,*54
$BDRMC,122337.000,A,3018.4345,N,12004.6818,E,0.07,159.03,270326,,,A*7E
$BDVTG,159.03,T,,M,0.07,N,0.13,K,A*27
$BDGGA,122338.000,3018.4345,N,12004.6818,E,1,12,0.85,25.9,M,7.0,M,,*7F
$BDGLL,3018.4345,N,12004.6818,E,122338.000,A,A*4D
$BDGSA,A,3,27,04,29,23,13,01,20,08,03,30,07,02,1.23,0.85,0.89*18
$BDGSV,5,1,19,30,58,218,43,03,55,199,40,08,50,336,36,20,48,286,41*69
$BDGSV,5,2,19,01,47,137,35,13,46,319,41,02,39,237,27,29,39,301,44*60
$BDGSV,5,3,19,04,37,118,34,10,34,220,,07,31,207,33,16,19,173,*65
$BDGSV,5,4,19,27,18,163,37,23,16,090,33,05,16,254,,06,14,180,25*6E
$BDGSV,5,5,19,19,08,257,,09,05,187,,25,02,047,*54
$BDRMC,122338.000,A,3018.4345,N,12004.6818,E,0.07,159.03,270326,,,A*71
$BDVTG,159.03,T,,M,0.07,N,0.14,K,A*20
$BDGGA,122339.000,3018.4344,N,12004.6818,E,1,12,0.85,25.8,M,7.0,M,,*7E
$BDGLL,3018.4344,N,12004.6818,E,122339.000,A,A*4D
$BDGSA,A,3,27,04,29,23,13,01,20,08,03,30,07,02,1.23,0.85,0.89*18
$BDGSV,5,1,19,30,58,218,43,03,55,199,40,08,50,336,36,20,48,286,41*69
$BDGSV,5,2,19,01,47,137,35,13,46,319,41,02,39,237,27,29,39,301,44*60
$BDGSV,5,3,19,04,37,118,34,10,34,220,,07,31,207,33,16,19,173,*65
$BDGSV,5,4,19,27,18,163,37,23,16,090,33,05,16,254,,06,14,180,25*6E
$BDGSV,5,5,19,19,08,257,,09,05,187,,25,02,047,*54
$BDRMC,122339.000,A,3018.4344,N,12004.6818,E,0.17,159.03,270326,,,A*70
$BDVTG,159.03,T,,M,0.17,N,0.32,K,A*25
$BDGGA,122340.000,3018.4345,N,12004.6818,E,1,12,0.85,25.8,M,7.0,M,,*71
$BDGLL,3018.4345,N,12004.6818,E,122340.000,A,A*42
$BDGSA,A,3,27,04,29,23,13,01,20,08,03,30,07,02,1.23,0.85,0.89*18
$BDGSV,5,1,19,30,58,218,43,03,55,199,40,08,50,336,36,20,48,286,41*69
$BDGSV,5,2,19,01,47,137,34,13,46,319,41,02,39,237,27,29,39,301,44*61
$BDGSV,5,3,19,04,37,118,33,10,34,220,,07,31,207,33,16,19,173,*62
$BDGSV,5,4,19,27,18,163,37,23,16,090,33,05,16,254,,06,14,180,25*6E
$BDGSV,5,5,19,19,08,257,,09,05,187,,25,02,047,*54
$BDRMC,122340.000,A,3018.4345,N,12004.6818,E,0.23,159.03,270326,,,A*78
$BDVTG,159.03,T,,M,0.23,N,0.42,K,A*25
$BDGGA,122341.000,3018.4344,N,12004.6818,E,1,12,0.85,25.8,M,7.0,M,,*71
$BDGLL,3018.4344,N,12004.6818,E,122341.000,A,A*42
$BDGSA,A,3,27,04,29,23,13,01,20,08,03,30,07,02,1.23,0.85,0.89*18
$BDGSV,5,1,19,30,58,218,43,03,55,199,40,08,50,336,36,20,48,286,41*69
$BDGSV,5,2,19,01,47,137,35,13,46,319,41,02,39,237,27,29,39,301,44*60
$BDGSV,5,3,19,04,37,118,34,10,34,220,,07,31,207,33,16,19,173,*65
$BDGSV,5,4,19,27,18,163,37,23,16,090,33,05,16,254,,06,14,180,25*6E
$BDGSV,5,5,19,19,08,257,,09,05,187,,25,02,047,*54
$BDRMC,122341.000,A,3018.4344,N,12004.6818,E,0.12,159.03,270326,,,A*7A
$BDVTG,159.03,T,,M,0.12,N,0.23,K,A*20
$BDGGA,122342.000,3018.4344,N,12004.6818,E,1,12,0.85,25.8,M,7.0,M,,*72
$BDGLL,3018.4344,N,12004.6818,E,122342.000,A,A*41
$BDGSA,A,3,27,04,29,23,13,01,20,08,03,30,07,02,1.23,0.85,0.89*18
$BDGSV,5,1,19,30,58,218,43,03,55,199,40,08,50,336,36,20,48,286,41*69
$BDGSV,5,2,19,01,47,137,35,13,46,319,41,02,39,237,27,29,39,301,44*60
$BDGSV,5,3,19,04,37,118,33,10,34,220,,07,31,207,33,16,19,173,*62
$BDGSV,5,4,19,27,18,163,37,23,16,090,33,05,16,254,,06,14,180,25*6E
$BDGSV,5,5,19,19,08,257,,09,05,187,,25,02,047,*54
$BDRMC,122342.000,A,3018.4344,N,12004.6818,E,0.04,159.03,270326,,,A*7E
$BDVTG,159.03,T,,M,0.04,N,0.08,K,A*2E
$BDGGA,122343.000,3018.4344,N,12004.6818,E,1,12,0.85,25.8,M,7.0,M,,*73
$BDGLL,3018.4344,N,12004.6818,E,122343.000,A,A*40
$BDGSA,A,3,27,04,29,23,13,01,20,08,03,30,07,02,1.23,0.85,0.89*18
$BDGSV,5,1,19,30,58,218,43,03,55,199,40,08,50,336,35,20,48,286,41*6A
$BDGSV,5,2,19,01,47,137,35,13,46,319,41,02,39,237,27,29,39,301,44*60
$BDGSV,5,3,19,04,37,118,33,10,34,220,,07,31,207,33,16,19,173,*62
$BDGSV,5,4,19,27,18,163,37,23,16,090,33,05,16,254,,06,14,180,25*6E
$BDGSV,5,5,19,19,08,257,,09,05,187,,25,02,047,*54
$BDRMC,122343.000,A,3018.4344,N,12004.6818,E,0.04,159.03,270326,,,A*7F
$BDVTG,159.03,T,,M,0.04,N,0.08,K,A*2E
$BDGGA,122344.000,3018.4344,N,12004.6818,E,1,12,0.85,25.8,M,7.0,M,,*74
$BDGLL,3018.4344,N,12004.6818,E,122344.000,A,A*47
$BDGSA,A,3,27,04,29,23,13,01,20,08,03,30,07,02,1.23,0.85,0.89*18
$BDGSV,5,1,19,30,58,218,43,03,55,199,40,08,50,336,35,20,48,286,41*6A
$BDGSV,5,2,19,01,47,137,35,13,46,319,41,02,39,237,27,29,39,301,44*60
$BDGSV,5,3,19,04,37,118,34,10,34,220,,07,31,207,33,16,19,173,*65
$BDGSV,5,4,19,27,18,163,36,23,16,090,34,05,16,254,,06,14,180,25*68
$BDGSV,5,5,19,19,08,257,,09,05,187,,25,02,047,*54
$BDRMC,122344.000,A,3018.4344,N,12004.6818,E,0.05,159.03,270326,,,A*79
$BDVTG,159.03,T,,M,0.05,N,0.09,K,A*2E
$BDGGA,122345.000,3018.4344,N,12004.6818,E,1,12,0.85,25.8,M,7.0,M,,*75
$BDGLL,3018.4344,N,12004.6818,E,122345.000,A,A*46
$BDGSA,A,3,27,04,29,23,13,01,20,08,03,30,07,02,1.23,0.85,0.89*18
$BDGSV,5,1,19,30,58,218,42,03,55,199,40,08,50,336,35,20,48,286,41*6B
$BDGSV,5,2,19,01,47,137,35,13,46,319,41,02,39,237,27,29,39,301,44*60
$BDGSV,5,3,19,04,37,118,34,10,34,220,,07,31,207,33,16,19,173,*65
$BDGSV,5,4,19,27,18,163,36,23,16,090,35,05,16,254,,06,14,180,25*69
$BDGSV,5,5,19,19,08,257,,09,05,187,,25,02,047,*54
$BDRMC,122345.000,A,3018.4344,N,12004.6818,E,0.04,159.03,270326,,,A*79
$BDVTG,159.03,T,,M,0.04,N,0.07,K,A*21
$BDGGA,122346.000,3018.4344,N,12004.6818,E,1,12,0.85,25.8,M,7.0,M,,*76
$BDGLL,3018.4344,N,12004.6818,E,122346.000,A,A*45
$BDGSA,A,3,27,04,29,23,13,01,20,08,03,30,07,02,1.23,0.85,0.89*18
$BDGSV,5,1,19,30,58,218,41,03,55,199,40,08,50,336,35,20,48,286,41*68
$BDGSV,5,2,19,01,47,137,35,13,46,319,41,02,39,237,28,29,39,301,45*6E
$BDGSV,5,3,19,04,37,118,34,10,34,220,,07,31,207,33,16,19,173,*65
$BDGSV,5,4,19,27,18,163,35,23,16,090,35,05,16,254,,06,14,180,25*6A
$BDGSV,5,5,19,19,08,257,,09,05,187,,25,02,047,*54
$BDRMC,122346.000,A,3018.4344,N,12004.6818,E,0.08,159.03,270326,,,A*76
$BDVTG,159.03,T,,M,0.08,N,0.15,K,A*2E
$BDGGA,122347.000,3018.4344,N,12004.6818,E,1,12,0.85,25.8,M,7.0,M,,*77
$BDGLL,3018.4344,N,12004.6818,E,122347.000,A,A*44
$BDGSA,A,3,27,04,29,23,13,01,20,08,03,30,07,02,1.23,0.85,0.89*18
$BDGSV,5,1,19,30,58,218,40,03,55,199,40,08,50,336,35,20,48,286,41*69
$BDGSV,5,2,19,01,47,137,35,13,46,319,41,02,39,237,28,29,39,301,45*6E
$BDGSV,5,3,19,04,37,118,34,10,34,220,,07,31,207,34,16,19,173,*62
$BDGSV,5,4,19,27,18,163,35,23,16,090,35,05,16,254,,06,14,180,25*6A
$BDGSV,5,5,19,19,08,257,,09,05,187,,25,02,047,*54
$BDRMC,122347.000,A,3018.4344,N,12004.6818,E,0.03,159.03,270326,,,A*7C
$BDVTG,159.03,T,,M,0.03,N,0.05,K,A*24
$BDGGA,122348.000,3018.4344,N,12004.6818,E,1,12,0.85,25.8,M,7.0,M,,*78
$BDGLL,3018.4344,N,12004.6818,E,122348.000,A,A*4B
$BDGSA,A,3,27,04,29,23,13,01,20,08,03,30,07,02,1.23,0.85,0.89*18
$BDGSV,5,1,19,30,58,218,40,03,55,199,40,08,50,336,35,20,48,286,41*69
$BDGSV,5,2,19,01,47,137,35,13,46,319,41,02,39,237,28,29,39,301,45*6E
$BDGSV,5,3,19,04,37,118,34,10,34,220,,07,31,207,34,16,19,173,*62
$BDGSV,5,4,19,27,18,163,34,23,16,090,35,05,16,254,,06,14,180,26*68
$BDGSV,5,5,19,19,08,257,,09,05,187,,25,02,047,*54
$BDRMC,122348.000,A,3018.4344,N,12004.6818,E,0.02,159.03,270326,,,A*72
$BDVTG,159.03,T,,M,0.02,N,0.04,K,A*24
$BDGGA,122349.000,3018.4344,N,12004.6818,E,1,12,0.85,25.8,M,7.0,M,,*79
$BDGLL,3018.4344,N,12004.6818,E,122349.000,A,A*4A
$BDGSA,A,3,27,04,29,23,13,01,20,08,03,30,07,02,1.23,0.85,0.89*18
$BDGSV,5,1,19,30,58,218,40,03,55,199,39,08,50,336,35,20,48,286,41*67
$BDGSV,5,2,19,01,47,137,35,13,46,319,41,02,39,237,28,29,39,301,45*6E
