5,18,09,12,188,,27,02,162,*68
$GNRMC,130725.000,A,3018.4843,N,12004.7421,E,0.22,32.38,270326,,,D*49
$GNVTG,32.38,T,,M,0.22,N,0.41,K,D*19
$GNGGA,130726.000,3018.4843,N,12004.7421,E,2,17,0.78,-29.0,M,7.0,M,,*5E
$GNGLL,3018.4843,N,12004.7421,E,130726.000,A,D*45
$GPGSA,A,3,15,05,18,195,29,23,24,,,,,,1.16,0.78,0.87*3D
$BDGSA,A,3,03,30,01,02,13,20,08,29,07,06,,,1.16,0.78,0.87*14
$GPGSV,4,1,14,15,66,351,41,195,58,147,35,20,50,031,21,18,49,313,42*4E
$GPGSV,4,2,14,24,48,174,42,13,44,035,24,05,42,076,29,41,36,236,40*7C
$GPGSV,4,3,14,29,23,226,46,23,23,307,43,21,18,091,,11,06,146,*71
$GPGSV,4,4,14,30,02,036,,194,,,*74
$BDGSV,5,1,18,03,55,199,42,20,53,315,47,08,51,347,38,13,47,329,41*6A
$BDGSV,5,2,18,01,47,137,25,29,45,277,45,30,41,202,39,02,39,237,35*6B
$BDGSV,5,3,18,04,37,118,,16,28,175,,10,25,218,,06,22,182,37*65
$BDGSV,5,4,18,07,22,206,35,23,20,072,,19,18,273,,05,17,255,*65
$BDGSV,5,5,18,09,12,188,,27,02,162,*68
$GNRMC,130726.000,A,3018.4843,N,12004.7421,E,0.16,31.36,270326,,,D*40
$GNVTG,31.36,T,,M,0.16,N,0.30,K,D*15
$GNGGA,130727.000,3018.4843,N,12004.7422,E,2,17,0.78,-28.9,M,7.0,M,,*54
$GNGLL,3018.4843,N,12004.7422,E,130727.000,A,D*47
$GPGSA,A,3,15,05,18,195,29,23,24,,,,,,1.16,0.78,0.87*3D
$BDGSA,A,3,03,30,01,02,13,20,08,29,07,06,,,1.16,0.78,0.87*14
$GPGSV,4,1,14,15,66,351,41,195,58,147,35,20,50,031,21,18,49,313,42*4E
$GPGSV,4,2,14,24,48,174,42,13,44,035,24,05,42,076,30,41,36,236,40*74
$GPGSV,4,3,14,29,23,226,46,23,23,307,43,21,18,091,,11,06,146,*71
$GPGSV,4,4,14,30,02,036,,194,,,*74
$BDGSV,5,1,18,03,55,199,42,20,53,315,47,08,51,347,38,13,47,329,42*69
$BDGSV,5,2,18,01,47,137,26,29,45,277,45,30,41,202,39,02,39,237,36*6B
$BDGSV,5,3,18,04,37,118,,16,28,175,,10,25,218,,06,22,182,37*65
$BDGSV,5,4,18,07,22,206,35,23,20,072,,19,18,273,,05,17,255,*65
$BDGSV,5,5,18,09,12,188,,27,02,162,*68
$GNRMC,130727.000,A,3018.4843,N,12004.7422,E,0.18,36.63,270326,,,D*4B
$GNVTG,36.63,T,,M,0.18,N,0.33,K,D*1F
$GNGGA,130728.000,3018.4843,N,12004.7421,E,2,17,0.78,-28.9,M,7.0,M,,*58
$GNGLL,3018.4843,N,12004.7421,E,130728.000,A,D*4B
$GPGSA,A,3,15,05,18,195,29,23,24,,,,,,1.16,0.78,0.87*3D
$BDGSA,A,3,03,30,01,02,13,20,08,29,07,06,,,1.16,0.78,0.87*14
$GPGSV,4,1,14,15,66,351,41,195,58,147,35,20,50,031,20,18,49,313,42*4F
$GPGSV,4,2,14,24,48,174,42,13,44,035,24,05,42,076,30,41,36,236,40*74
$GPGSV,4,3,14,29,23,226,46,23,23,307,43,21,18,091,,11,06,146,*71
$GPGSV,4,4,14,30,02,036,,194,,,*74
$BDGSV,5,1,18,03,55,199,42,20,53,315,47,08,51,347,38,13,47,329,42*69
$BDGSV,5,2,18,01,47,137,26,29,45,277,45,30,41,202,39,02,39,237,36*6B
$BDGSV,5,3,18,04,37,118,,16,28,175,,10,25,218,,06,22,182,37*65
$BDGSV,5,4,18,07,22,206,35,23,20,072,,19,18,273,,05,17,255,*65
$BDGSV,5,5,18,09,12,188,,27,02,162,*68
$GNRMC,130728.000,A,3018.4843,N,12004.7421,E,0.43,46.78,270326,,,D*44
$GNVTG,46.78,T,,M,0.43,N,0.80,K,D*14
$GNGGA,130729.000,3018.4844,N,12004.7422,E,2,17,0.78,-29.0,M,7.0,M,,*55
$GNGLL,3018.4844,N,12004.7422,E,130729.000,A,D*4E
$GPGSA,A,3,15,05,18,195,29,23,24,,,,,,1.16,0.78,0.87*3D
$BDGSA,A,3,03,30,01,02,13,20,08,29,07,06,,,1.16,0.78,0.87*14
$GPGSV,4,1,14,15,66,351,41,195,58,147,35,20,50,031,20,18,49,313,42*4F
$GPGSV,4,2,14,24,48,174,42,13,44,035,24,05,42,076,30,41,36,236,40*74
$GPGSV,4,3,14,29,23,226,46,23,23,307,43,21,18,091,,11,06,146,*71
$GPGSV,4,4,14,30,02,036,,194,,,*74
$BDGSV,5,1,18,03,55,199,42,20,53,315,47,08,51,347,38,13,47,329,42*69
$BDGSV,5,2,18,01,47,137,26,29,45,277,45,30,41,202,39,02,39,237,36*6B
$BDGSV,5,3,18,04,37,118,,16,28,175,,10,25,218,,06,22,182,37*65
$BDGSV,5,4,18,07,22,206,35,23,20,072,,19,18,273,,05,17,255,*65
$BDGSV,5,5,18,09,12,188,,27,02,162,*68
$GNRMC,130729.000,A,3018.4844,N,12004.7422,E,0.26,51.80,270326,,,D*43
$GNVTG,51.80,T,,M,0.26,N,0.48,K,D*12
$GNGGA,130730.000,3018.4844,N,12004.7423,E,2,17,0.78,-29.0,M,7.0,M,,*5C
$GNGLL,3018.4844,N,12004.7423,E,130730.000,A,D*47
$GPGSA,A,3,15,05,18,195,29,23,24,,,,,,1.16,0.78,0.87*3D
$BDGSA,A,3,03,30,01,02,13,20,08,29,07,06,,,1.16,0.78,0.87*14
$GPGSV,4,1,14,15,66,351,41,195,58,147,35,20,50,031,20,18,49,313,42*4F
$GPGSV,4,2,14,24,48,174,42,13,44,035,24,05,42,076,30,41,36,236,40*74
$GPGSV,4,3,14,29,23,226,46,23,23,307,43,21,18,091,,11,06,146,*71
$GPGSV,4,4,14,30,02,036,,194,,,*74
$BDGSV,5,1,18,03,55,199,42,20,53,315,47,08,51,347,38,13,47,329,42*69
$BDGSV,5,2,18,01,47,137,26,29,45,277,45,30,41,202,39,02,39,237,36*6B
$BDGSV,5,3,18,04,37,118,,16,28,175,,10,25,218,,06,22,182,37*65
$BDGSV,5,4,18,07,22,206,35,23,20,072,,19,18,273,,05,17,255,*65
$BDGSV,5,5,18,09,12,188,,27,02,162,*68
$GNRMC,130730.000,A,3018.4844,N,12004.7423,E,0.25,51.80,270326,,,D*49
$GNVTG,51.80,T,,M,0.25,N,0.47,K,D*1E
$GNGGA,130731.000,3018.4844,N,12004.7423,E,2,17,0.78,-29.0,M,7.0,M,,*5D
$GNGLL,3018.4844,N,12004.7423,E,130731.000,A,D*46
$GPGSA,A,3,15,05,18,195,29,23,24,,,,,,1.16,0.78,0.87*3D
$BDGSA,A,3,03,30,01,02,13,20,08,29,07,06,,,1.16,0.78,0.87*14
$GPGSV,4,1,14,15,66,351,41,195,58,147,35,20,50,031,20,18,49,313,42*4F
$GPGSV,4,2,14,24,48,174,42,13,44,035,24,05,42,076,30,41,36,236,40*74
$GPGSV,4,3,14,29,23,226,46,23,23,307,43,21,18,091,,11,06,146,*71
$GPGSV,4,4,14,30,02,036,,194,,,*74
$BDGSV,5,1,18,03,55,199,42,20,53,315,47,08,51,347,38,13,47,329,42*69
$BDGSV,5,2,18,01,47,137,26,29,45,277,45,30,41,202,40,02,39,237,36*65
$BDGSV,5,3,18,04,37,118,,16,28,175,,10,25,218,,06,22,182,37*65
$BDGSV,5,4,18,07,22,206,34,23,20,072,,19,18,273,,05,17,255,*64
$BDGSV,5,5,18,09,12,188,,27,02,162,*68
$GNRMC,130731.000,A,3018.4844,N,12004.7423,E,0.26,51.80,270326,,,D*4B
$GNVTG,51.80,T,,M,0.26,N,0.49,K,D*13
$GNGGA,130732.000,3018.4844,N,12004.7424,E,2,19,0.69,-29.0,M,7.0,M,,*57
$GNGLL,3018.4844,N,12004.7424,E,130732.000,A,D*42
$GPGSA,A,3,15,20,13,05,18,195,29,23,24,,,,1.10,0.69,0.86*3A
$BDGSA,A,3,03,30,01,02,13,20,08,29,07,06,,,1.10,0.69,0.86*13
$GPGSV,4,1,14,15,66,351,41,195,58,147,35,20,50,031,20,18,49,313,42*4F
$GPGSV,4,2,14,24,48,174,42,13,44,035,24,05,42,076,30,41,36,236,40*74
$GPGSV,4,3,14,29,23,226,45,23,23,307,43,21,18,091,,11,06,146,*72
$GPGSV,4,4,14,30,02,036,,194,,,*74
$BDGSV,5,1,18,03,55,199,43,20,53,315,47,08,51,347,38,13,47,329,42*68
$BDGSV,5,2,18,01,47,137,26,29,45,277,45,30,41,202,41,02,39,237,36*64
$BDGSV,5,3,18,04,37,118,,16,28,175,,10,25,218,,06,22,182,37*65
$BDGSV,5,4,18,07,22,206,34,23,20,072,,19,18,273,,05,17,255,*64
$BDGSV,5,5,18,09,12,188,,27,02,162,*68
$GNRMC,130732.000,A,3018.4844,N,12004.7424,E,0.14,51.80,270326,,,D*4E
$GNVTG,51.80,T,,M,0.14,N,0.27,K,D*1A
$GNGGA,130733.000,3018.4845,N,12004.7424,E,2,18,0.72,-29.0,M,7.0,M,,*5C
$GNGLL,3018.4845,N,12004.7424,E,130733.000,A,D*42
$GPGSA,A,3,15,13,05,18,195,29,23,24,,,,,1.12,0.72,0.86*30
$BDGSA,A,3,03,30,01,02,13,20,08,29,07,06,,,1.12,0.72,0.86*1B
$GPGSV,4,1,14,15,66,351,41,195,58,147,35,20,50,031,20,18,49,313,42*4F
$GPGSV,4,2,14,24,48,174,42,13,44,035,25,05,42,076,30,41,36,236,41*74
$GPGSV,4,3,14,29,23,226,45,23,23,307,43,21,18,091,,11,06,146,*72
$GPGSV,4,4,14,30,02,036,,194,,,*74
$BDGSV,5,1,18,03,55,199,43,20,53,315,47,08,51,347,38,13,47,329,42*68
$BDGSV,5,2,18,01,47,137,26,29,45,277,44,30,41,202,41,02,39,237,36*65
$BDGSV,5,3,18,04,37,118,,16,28,175,,10,25,218,,06,22,182,37*65
$BDGSV,5,4,18,07,22,206,35,23,20,072,,19,18,273,,05,17,255,*65
$BDGSV,5,5,18,09,12,188,,27,02,162,*68
$GNRMC,130733.000,A,3018.4845,N,12004.7424,E,0.13,51.80,270326,,,D*49
$GNVTG,51.80,T,,M,0.13,N,0.24,K,D*1E
$GNGGA,130734.000,3018.4845,N,12004.7424,E,2,17,0.78,-29.0,M,7.0,M,,*5E
$GNGLL,3018.4845,N,12004.7424,E,130734.000,A,D*45
$GPGSA,A,3,15,05,18,195,29,23,24,,,,,,1.16,0.78,0.87*3D
$BDGSA,A,3,03,30,01,02,13,20,08,29,07,06,,,1.16,0.78,0.87*14
$GPGSV,4,1,14,15,66,351,41,195,58,147,35,20,50,031,20,18,49,313,42*4F
$GPGSV,4,2,14,24,48,174,42,13,44,035,25,05,42,076,30,41,36,236,40*75
$GPGSV,4,3,14,29,23,226,46,23,23,307,42,21,18,091,,11,06,146,*70
$GPGSV,4,4,14,30,02,036,,194,,,*74
$BDGSV,5,1,18,03,55,199,42,20,53,315,47,08,51,347,38,13,47,329,42*69
$BDGSV,5,2,18,01,47,137,26,29,45,277,45,30,41,202,41,02,39,237,35*67
$BDGSV,5,3,18,04,37,118,,16,28,175,,10,25,218,,06,22,182,37*65
$BDGSV,5,4,18,07,22,206,35,23,20,072,,19,18,273,,05,17,255,*65
$BDGSV,5,5,18,09,12,188,,27,02,162,*68
$GNRMC,130734.000,A,3018.4845,N,12004.7424,E,0.16,51.80,270326,,,D*4B
$GNVTG,51.80,T,,M,0.16,N,0.30,K,D*1E
$GNGGA,130735.000,3018.4845,N,12004.7424,E,2,17,0.78,-29.0,M,7.0,M,,*5F
$GNGLL,3018.4845,N,12004.7424,E,130735.000,A,D*44
$GPGSA,A,3,15,05,18,195,29,23,24,,,,,,1.16,0.78,0.87*3D
$BDGSA,A,3,03,30,01,02,13,20,08,29,07,06,,,1.16,0.78,0.87*14
$GPGSV,4,1,14,15,66,351,40,195,58,147,35,20,50,031,20,18,49,313,43*4F
$GPGSV,4,2,14,24,48,174,42,13,44,035,25,05,42,076,30,41,36,236,39*7B
$GPGSV,4,3,14,29,23,226,46,23,23,307,43,21,18,091,,11,06,146,*71
$GPGSV,4,4,14,30,02,036,,194,,,*74
$BDGSV,5,1,18,03,55,199,42,20,53,315,47,08,51,347,38,13,47,329,42*69
$BDGSV,5,2,18,01,47,137,26,29,45,277,46,30,41,202,41,02,39,237,36*67
$BDGSV,5,3,18,04,37,118,,16,28,175,,10,25,218,,06,22,182,37*65
$BDGSV,5,4,18,07,22,206,35,23,20,072,,19,18,273,,05,17,255,*65
$BDGSV,5,5,18,09,12,188,,27,02,162,*68
$GNRMC,130735.000,A,3018.4845,N,12004.7424,E,0.17,51.80,270326,,,D*4B
$GNVTG,51.80,T,,M,0.17,N,0.32,K,D*1D
$GNGGA,130736.000,3018.4846,N,12004.7424,E,2,18,0.73,-28.9,M,7.0,M,,*53
$GNGLL,3018.4846,N,12004.7424,E,130736.000,A,D*44
$GPGSA,A,3,15,20,05,18,195,29,23,24,,,,,1.13,0.73,0.87*31
$BDGSA,A,3,03,30,01,02,13,20,08,29,07,06,,,1.13,0.73,0.87*1A
$GPGSV,4,1,14,15,66,351,38,195,58,147,35,20,50,031,20,18,49,313,32*46
$GPGSV,4,2,14,24,48,174,42,13,44,035,23,05,42,076,30,41,36,236,39*7D
$GPGSV,4,3,14,29,23,226,45,23,23,307,42,21,18,091,,11,06,146,*73
$GPGSV,4,4,14,30,02,036,,194,,,*74
$BDGSV,5,1,18,03,55,199,42,20,53,315,46,08,51,347,26,13,47,329,29*6A
$BDGSV,5,2,18,01,47,137,26,29,45,277,47,30,41,202,40,02,39,237,36*67
$BDGSV,5,3,18,04,37,118,,16,28,175,,10,25,218,,06,22,182,37*65
$BDGSV,5,4,18,07,22,206,34,23,20,072,,19,18,273,,05,17,255,*64
$BDGSV,5,5,18,09,12,188,,27,02,162,*68
$GNRMC,130736.000,A,3018.4846,N,12004.7424,E,0.28,20.50,270326,,,D*4C
$GNVTG,20.50,T,,M,0.28,N,0.53,K,D*1D
$GNGGA,130737.000,3018.4846,N,12004.7424,E,2,17,0.78,-28.9,M,7.0,M,,*56
$GNGLL,3018.4846,N,12004.7424,E,130737.000,A,D*45
$GPGSA,A,3,15,05,18,195,29,23,24,,,,,,1.16,0.78,0.87*3D
$BDGSA,A,3,03,30,01,02,13,20,08,29,07,06,,,1.16,0.78,0.87*14
$GPGSV,4,1,14,15,66,351,40,195,58,147,36,20,50,031,19,18,49,313,32*40
$GPGSV,4,2,14,24,48,174,43,13,44,035,24,05,42,076,30,41,36,236,37*75
$GPGSV,4,3,14,29,23,226,45,23,23,307,35,21,18,091,,11,06,146,*73
$GPGSV,4,4,14,30,02,036,,194,,,*74
$BDGSV,5,1,18,03,55,199,41,20,53,315,46,08,51,347,40,13,47,329,40*66
$BDGSV,5,2,18,01,47,137,26,29,45,277,46,30,41,202,40,02,39,237,29*68
$BDGSV,5,3,18,04,37,118,,16,28,175,,10,25,218,,06,22,182,36*64
$BDGSV,5,4,18,07,22,206,33,23,20,072,,19,18,273,,05,17,255,*63
$BDGSV,5,5,18,09,12,188,,27,02,162,*68
$GNRMC,130737.000,A,3018.4846,N,12004.7424,E,0.02,20.50,270326,,,D*45
$GNVTG,20.50,T,,M,0.02,N,0.04,K,D*17
$GNGGA,130738.000,3018.4846,N,12004.7424,E,2,19,0.69,-28.9,M,7.0,M,,*57
$GNGLL,3018.4846,N,12004.7424,E,130738.000,A,D*4A
$GPGSA,A,3,15,20,13,05,18,195,29,23,24,,,,1.10,0.69,0.86*3A
$BDGSA,A,3,03,30,01,02,13,20,08,29,07,06,,,1.10,0.69,0.86*13
$GPGSV,4,1,14,15,66,351,41,195,58,147,26,20,50,031,19,18,49,313,33*41
$GPGSV,4,2,14,24,48,174,35,13,44,035,25,05,42,076,30,41,36,236,37*75
$GPGSV,4,3,14,29,23,226,45,23,23,307,36,21,18,091,,11,06,146,*70
$GPGSV,4,4,14,30,02,036,,194,,,*74
$BDGSV,5,1,18,03,55,199,39,20,53,315,46,08,51,347,40,13,47,329,40*69
$BDGSV,5,2,18,01,47,137,26,29,45,277,46,30,41,202,29,02,39,237,37*68
$BDGSV,5,3,18,04,37,118,,16,28,175,,10,25,218,,06,22,182,25*66
$BDGSV,5,4,18,07,22,206,34,23,20,072,,19,18,273,,05,17,255,*64
$BDGSV,5,5,18,09,12,188,,27,02,162,*68
$GNRMC,130738.000,A,3018.4846,N,12004.7424,E,0.34,20.50,270326,,,D*4F
$GNVTG,20.50,T,,M,0.34,N,0.63,K,D*13
$GNGGA,130739.000,3018.4846,N,12004.7424,E,2,17,0.78,-28.9,M,7.0,M,,*58
$GNGLL,3018.4846,N,12004.7424,E,130739.000,A,D*4B
$GPGSA,A,3,15,05,18,195,29,23,24,,,,,,1.16,0.78,0.87*3D
$BDGSA,A,3,03,30,01,02,13,20,08,29,07,06,,,1.16,0.78,0.87*14
$GPGSV,4,1,14,15,66,351,41,195,58,147,34,20,50,031,19,18,49,313,33*42
$GPGSV,4,2,14,24,48,174,43,13,44,035,25,05,42,076,29,41,36,236,38*73
$GPGSV,4,3,14,29,23,226,46,23,23,307,37,21,18,091,15,11,06,146,*76
$GPGSV,4,4,14,30,02,036,,194,,,*74
$BDGSV,5,1,18,03,55,199,40,20,53,315,46,08,51,347,40,13,47,329,41*66
$BDGSV,5,2,18,01,47,137,25,29,45,277,46,30,41,202,31,02,39,237,37*62
$BDGSV,5,3,18,04,37,118,,16,28,175,,10,25,218,,06,22,182,32*60
$BDGSV,5,4,18,07,22,206,33,23,20,072,,19,18,273,,05,17,255,*63
$BDGSV,5,5,18,09,12,188,,27,02,162,*68
$GNRMC,130739.000,A,3018.4846,N,12004.7424,E,0.13,20.50,270326,,,D*4B
$GNVTG,20.50,T,,M,0.13,N,0.24,K,D*15
$GNGGA,130740.000,3018.4846,N,12004.7424,E,2,18,0.72,-28.9,M,7.0,M,,*53
$GNGLL,3018.4846,N,12004.7424,E,130740.000,A,D*45
$GPGSA,A,3,15,13,05,18,195,29,23,24,,,,,1.12,0.72,0.86*30
$BDGSA,A,3,03,30,01,02,13,20,08,29,07,06,,,1.12,0.72,0.86*1B
$GPGSV,4,1,14,15,66,351,41,195,58,147,34,20,50,031,19,18,49,313,34*45
$GPGSV,4,2,14,24,48,174,43,13,44,035,26,05,42,076,28,41,36,236,27*7F
$GPGSV,4,3,14,29,23,226,46,23,23,307,38,21,18,091,16,11,06,146,*7A
$GPGSV,4,4,14,30,02,036,,194,,,*74
$BDGSV,5,1,18,03,55,199,40,20,53,315,46,08,51,347,40,13,47,329,40*67
$BDGSV,5,2,18,01,47,137,25,29,45,277,46,30,41,202,39,02,39,237,30*6D
$BDGSV,5,3,18,04,37,118,,16,28,175,,10,25,218,,06,22,182,33*61
$BDGSV,5,4,18,07,22,206,34,23,20,072,,19,18,273,,05,17,255,*64
$BDGSV,5,5,18,09,12,188,,27,02,162,*68
$GNRMC,130740.000,A,3018.4846,N,12004.7424,E,0.25,20.50,270326,,,D*40
$GNVTG,20.50,T,,M,0.25,N,0.46,K,D*14
$GNGGA,130741.000,3018.4846,N,12004.7425,E,2,18,0.73,-28.9,M,7.0,M,,*52
$GNGLL,3018.4846,N,12004.7425,E,130741.000,A,D*45
$GPGSA,A,3,15,20,05,18,195,29,23,24,,,,,1.13,0.73,0.87*31
$BDGSA,A,3,03,30,01,02,13,20,08,29,07,06,,,1.13,0.73,0.87*1A
$GPGSV,4,1,14,15,66,351,42,195,58,147,33,20,50,031,21,18,49,313,35*4B
$GPGSV,4,2,14,24,48,174,43,13,44,035,25,05,42,076,28,41,36,236,38*72
$GPGSV,4,3,14,29,23,226,46,23,23,307,36,21,18,091,14,11,06,146,*76
$GPGSV,4,4,14,30,02,036,,194,,,*74
$BDGSV,5,1,18,03,55,199,40,20,53,315,45,08,51,347,41,13,47,329,37*65
$BDGSV,5,2,18,01,47,137,25,29,45,277,46,30,41,202,40,02,39,237,38*6B
$BDGSV,5,3,18,04,37,118,,16,28,175,,10,25,218,,06,22,182,34*66
$BDGSV,5,4,18,07,22,206,32,23,20,072,,19,18,273,,05,17,255,*62
$BDGSV,5,5,18,09,12,188,,27,02,162,*68
$GNRMC,130741.000,A,3018.4846,N,12004.7425,E,0.11,20.50,270326,,,D*47
$GNVTG,20.50,T,,M,0.11,N,0.20,K,D*13
$GNGGA,130742.000,3018.4847,N,12004.7425,E,2,20,0.63,-28.9,M,7.0,M,,*5A
$GNGLL,3018.4847,N,12004.7425,E,130742.000,A,D*47
$GPGSA,A,3,15,20,13,05,18,195,29,21,23,24,,,1.02,0.63,0.80*36
$BDGSA,A,3,03,30,01,02,13,20,08,29,07,06,,,1.02,0.63,0.80*1C
$GPGSV,4,1,14,15,66,351,42,195,58,147,33,20,50,031,21,18,49,313,35*4B
$GPGSV,4,2,14,24,48,174,43,13,44,035,24,05,42,076,28,41,36,236,31*7A
$GPGSV,4,3,14,29,23,226,45,23,23,307,38,21,18,091,13,11,06,146,*7C
$GPGSV,4,4,14,30,02,036,,194,,,*74
$BDGSV,5,1,18,03,55,199,40,20,53,315,46,08,51,347,40,13,47,329,38*68
$BDGSV,5,2,18,01,47,137,25,29,45,277,46,30,41,202,41,02,39,237,37*65
$BDGSV,5,3,18,04,37,118,,16,28,175,,10,25,218,,06,22,182,35*67
$BDGSV,5,4,18,07,22,206,33,23,20,072,,19,18,273,,05,17,255,*63
$BDGSV,5,5,18,09,12,188,,27,02,162,*68
$GNRMC,130742.000,A,3018.4847,N,12004.7425,E,0.11,20.50,270326,,,D*45
$GNVTG,20.50,T,,M,0.11,N,0.21,K,D*12
$GNGGA,130743.000,3018.4846,N,12004.7425,E,2,17,0.78,-28.8,M,7.0,M,,*55
$GNGLL,3018.4846,N,12004.7425,E,130743.000,A,D*47
$GPGSA,A,3,15,05,18,195,29,23,24,,,,,,1.16,0.78,0.87*3D
$BDGSA,A,3,03,30,01,02,13,20,08,29,07,06,,,1.16,0.78,0.87*14
$GPGSV,4,1,14,15,66,351,42,195,58,147,33,20,50,031,21,18,49,313,36*48
$GPGSV,4,2,14,24,48,174,43,13,44,035,24,05,42,076,28,41,36,236,40*7C
$GPGSV,4,3,14,29,23,226,45,23,23,307,38,21,18,091,,11,06,146,*7E
$GPGSV,4,4,14,30,02,036,,194,,,*74
$BDGSV,5,1,18,03,55,199,41,20,53,315,47,08,51,347,40,13,47,329,38*68
$BDGSV,5,2,18,01,47,137,26,29,45,277,46,30,41,202,41,02,39,237,37*66
$BDGSV,5,3,18,04,37,118,,16,28,175,,10,25,218,,06,22,182,35*67
$BDGSV,5,4,18,07,22,206,34,23,20,072,,19,18,273,,05,17,255,*64
$BDGSV,5,5,18,09,12,188,,27,02,162,*68
$GNRMC,130743.000,A,3018.4846,N,12004.7425,E,0.17,20.50,270326,,,D*43
$GNVTG,20.50,T,,M,0.17,N,0.31,K,D*15
$GNGGA,130744.000,3018.4846,N,12004.7425,E,2,19,0.69,-28.8,M,7.0,M,,*5C
$GNGLL,3018.4846,N,12004.7425,E,130744.000,A,D*40
$GPGSA,A,3,15,20,13,05,18,195,29,23,24,,,,1.10,0.69,0.86*3A
$BDGSA,A,3,03,30,01,02,13,20,08,29,07,06,,,1.10,0.69,0.86*13
$GPGSV,4,1,14,15,66,351,42,195,58,147,33,20,50,031,21,18,49,313,36*48
$GPGSV,4,2,14,24,48,174,43,13,44,035,25,05,42,076,27,41,36,236,40*72
$GPGSV,4,3,14,29,23,226,46,23,23,307,37,21,18,091,,11,06,146,*72
$GPGSV,4,4,14,30,02,036,,194,,,*74
$BDGSV,5,1,18,03,55,199,41,20,53,315,47,08,51,347,40,13,47,329,39*69
$BDGSV,5,2,18,01,47,137,26,29,45,277,46,30,41,202,41,02,39,237,36*67
$BDGSV,5,3,18,04,37,118,,16,28,175,,10,25,218,,06,22,182,35*67
$BDGSV,5,4,18,07,22,206,35,23,20,072,,19,18,273,,05,17,255,*65
$BDGSV,5,5,18,09,12,188,,27,02,162,*68
$GNRMC,130744.000,A,3018.4846,N,12004.7425,E,0.16,20.50,270326,,,D*45
$GNVTG,20.50,T,,M,0.16,N,0.29,K,D*1D
$GNGGA,130745.000,3018.4847,N,12004.7426,E,2,18,0.72,-28.8,M,7.0,M,,*54
$GNGLL,3018.4847,N,12004.7426,E,130745.000,A,D*43
$GPGSA,A,3,15,13,05,18,195,29,23,24,,,,,1.12,0.72,0.86*30
$BDGSA,A,3,03,30,01,02,13,20,08,29,07,06,,,1.12,0.72,0.86*1B
$GPGSV,4,1,14,15,66,351,42,195,58,147,33,20,50,031,,18,49,313,36*4B
$GPGSV,4,2,14,24,48,174,42,13,44,035,26,05,42,076,26,41,36,236,39*7F
$GPGSV,4,3,14,29,23,226,46,23,23,307,38,21,18,091,,11,06,146,*7D
$GPGSV,4,4,14,30,02,036,,194,,,*74
$BDGSV,5,1,18,03,55,199,41,20,53,315,47,08,51,347,40,13,47,329,39*69
$BDGSV,5,2,18,01,47,137,25,29,45,277,46,30,41,202,41,02,39,237,36*64
$BDGSV,5,3,18,04,37,118,,16,28,175,,10,25,218,,06,22,182,27*64
$BDGSV,5,4,18,07,22,206,34,23,20,072,,19,18,273,,05,17,255,*64
$BDGSV,5,5,18,09,12,188,,27,02,162,*68
$GNRMC,130745.000,A,3018.4847,N,12004.7426,E,0.23,20.50,270326,,,D*40
$GNVTG,20.50,T,,M,0.23,N,0.43,K,D*17
$GNGGA,130746.000,3018.4847,N,12004.7426,E,2,18,0.72,-28.7,M,7.0,M,,*58
$GNGLL,3018.4847,N,12004.7426,E,130746.000,A,D*40
$GPGSA,A,3,15,13,05,18,195,29,23,24,,,,,1.12,0.72,0.86*30
$BDGSA,A,3,03,30,01,02,13,20,08,29,07,06,,,1.12,0.72,0.86*1B
$GPGSV,4,1,14,15,66,351,42,195,58,147,33,20,50,031,21,18,49,313,36*48
$GPGSV,4,2,14,24,48,174,42,13,44,035,27,05,42,076,25,41,36,236,39*7D
$GPGSV,4,3,14,29,23,226,46,23,23,307,39,21,18,091,,11,06,146,*7C
$GPGSV,4,4,14,30,02,036,,194,,,*74
$BDGSV,5,1,18,03,55,199,41,20,53,315,47,08,51,347,40,13,47,329,39*69
$BDGSV,5,2,18,01,47,137,25,29,45,277,46,30,41,202,42,02,39,237,36*67
$BDGSV,5,3,18,04,37,118,,16,28,175,,10,25,218,,06,22,182,27*64
$BDGSV,5,4,18,07,22,206,35,23,20,072,,19,18,273,,05,17,255,*65
$BDGSV,5,5,18,09,12,188,,27,02,162,*68
$GNRMC,130746.000,A,3018.4847,N,12004.7426,E,0.22,20.50,270326,,,D*42
$GNVTG,20.50,T,,M,0.22,N,0.41,K,D*14
$GNGGA,130747.000,3018.4847,N,12004.7426,E,2,18,0.72,-28.7,M,7.0,M,,*59
$GNGLL,3018.4847,N,12004.7426,E,130747.000,A,D*41
$GPGSA,A,3,15,13,05,18,195,29,23,24,,,,,1.12,0.72,0.86*30
$BDGSA,A,3,03,30,01,02,13,20,08,29,07,06,,,1.12,0.72,0.86*1B
$GPGSV,4,1,14,15,66,351,41,195,58,147,32,20,50,031,20,18,49,313,35*48
$GPGSV,4,2,14,24,48,174,42,13,44,035,27,05,42,076,24,41,36,236,38*7D
$GPGSV,4,3,14,29,23,226,44,23,23,307,40,21,18,091,,11,06,146,*70
$GPGSV,4,4,14,30,02,036,,194,,,*74
$BDGSV,5,1,18,03,55,199,39,20,53,315,47,08,51,347,40,13,47,329,39*66
$BDGSV,5,2,18,01,47,137,25,29,45,277,46,30,41,202,33,02,39,237,36*61
$BDGSV,5,3,18,04,37,118,,16,28,175,,10,25,218,,06,22,182,29*6A
$BDGSV,5,4,18,07,22,206,35,23,20,072,,19,18,273,,05,17,255,*65
$BDGSV,5,5,18,09,12,188,,27,02,162,*68
$GNRMC,130747.000,A,3018.4847,N,12004.7426,E,0.03,20.50,270326,,,D*40
$GNVTG,20.50,T,,M,0.03,N,0.06,K,D*14
$GNGGA,130748.000,3018.4847,N,12004.7427,E,2,19,0.69,-28.7,M,7.0,M,,*5C
$GNGLL,3018.4847,N,12004.7427,E,130748.000,A,D*4F
$GPGSA,A,3,15,20,13,05,18,195,29,23,24,,,,1.10,0.69,0.86*3A
$BDGSA,A,3,03,30,01,02,13,20,08,29,07,06,,,1.10,0.69,0.86*13
$GPGSV,4,1,14,15,66,351,41,195,58,147,31,20,50,031,23,18,49,313,34*49
$GPGSV,4,2,14,24,48,174,42,13,44,035,27,05,42,076,24,41,36,236,38*7D
$GPGSV,4,3,14,29,23,226,45,23,23,307,40,21,18,091,,11,06,146,*71
$GPGSV,4,4,14,30,02,036,,194,,,*74
$BDGSV,5,1,18,03,55,199,39,20,53,315,46,08,51,347,40,13,47,329,39*67
$BDGSV,5,2,18,01,47,137,25,29,45,277,46,30,41,202,43,02,39,237,36*66
$BDGSV,5,3,18,04,37,118,,16,28,175,,10,25,218,,06,22,182,29*6A
$BDGSV,5,4,18,07,22,206,36,23,20,072,,19,18,273,,05,17,255,*66
$BDGSV,5,5,18,09,12,188,,27,02,162,*68
$GNRMC,130748.000,A,3018.4847,N,12004.7427,E,0.16,20.50,270326,,,D*4A
$GNVTG,20.50,T,,M,0.16,N,0.30,K,D*15
$GNGGA,130749.000,3018.4847,N,12004.7427,E,2,19,0.69,-28.7,M,7.0,M,,*5D
$GNGLL,3018.4847,N,12004.7427,E,130749.000,A,D*4E
$GPGSA,A,3,15,20,13,05,18,195,29,23,24,,,,1.10,0.69,0.86*3A
$BDGSA,A,3,03,30,01,02,13,20,08,29,07,06,,,1.10,0.69,0.86*13
$GPGSV,4,1,14,15,66,351,41,195,58,147,30,20,50,031,22,18,49,313,35*48
$GPGSV,4,2,14,24,48,174,41,13,44,035,27,05,42,076,26,41,36,236,38*7C
$GPGSV,4,3,14,29,23,226,45,23,23,307,40,21,18,091,,11,06,146,*71
$GPGSV,4,4,14,30,02,036,,194,,,*74
$BDGSV,5,1,18,03,55,199,39,20,53,315,46,08,51,347,39,13,47,329,39*69
$BDGSV,5,2,18,01,47,137,24,29,45,277,46,30,41,202,43,02,39,237,36*67
$BDGSV,5,3,18,04,37,118,,16,28,175,,10,25,218,,06,22,182,30*62
$BDGSV,5,4,18,07,22,206,36,23,20,072,,19,18,273,,05,17,255,*66
$BDGSV,5,5,18,09,12,188,,27,02,162,*68
$GNRMC,130749.000,A,3018.4847,N,12004.7427,E,0.13,20.50,270326,,,D*4E
$GNVTG,20.50,T,,M,0.13,N,0.23,K,D*12
$GNGGA,130750.000,3018.4847,N,12004.7427,E,2,17,0.78,-28.7,M,7.0,M,,*5B
$GNGLL,3018.4847,N,12004.7427,E,130750.000,A,D*46
$GPGSA,A,3,15,05,18,195,29,23,24,,,,,,1.16,0.78,0.87*3D
$BDGSA,A,3,03,30,01,02,13,20,08,29,07,06,,,1.16,0.78,0.87*14
$GPGSV,4,1,14,15,66,351,41,195,58,147,30,20,50,031,18,18,49,313,36*42
$GPGSV,4,2,14,24,48,174,40,13,44,035,26,05,42,076,26,41,36,236,38*7C
$GPGSV,4,3,14,29,23,226,46,23,23,307,40,21,18,091,,11,06,146,*72
$GPGSV,4,4,14,30,02,036,,194,,,*74
$BDGSV,5,1,18,03,55,199,39,20,53,315,46,08,51,347,39,13,47,329,40*67
$BDGSV,5,2,18,01,47,137,24,29,45,277,46,30,41,202,43,02,39,237,35*64
$BDGSV,5,3,18,04,37,118,,16,28,175,,10,25,218,,06,22,182,30*62
$BDGSV,5,4,18,07,22,206,36,23,20,072,,19,18,273,,05,17,255,*66
$BDGSV,5,5,18,09,12,188,,27,02,162,*68
$GNRMC,130750.000,A,3018.4847,N,12004.7427,E,0.12,20.50,270326,,,D*47
$GNVTG,20.50,T,,M,0.12,N,0.23,K,D*13
$GNGGA,130751.000,3018.4847,N,12004.7427,E,2,17,0.78,-28.6,M,7.0,M,,*5B
$GNGLL,3018.4847,N,12004.7427,E,130751.000,A,D*47
$GPGSA,A,3,15,05,18,195,29,23,24,,,,,,1.16,0.78,0.87*3D
$BDGSA,A,3,03,30,01,02,13,20,08,29,07,06,,,1.16,0.78,0.87*14
$GPGSV,4,1,14,15,66,351,41,195,58,147,30,20,50,031,18,18,49,313,36*42
$GPGSV,4,2,14,24,48,174,39,13,44,035,26,05,42,076,26,41,36,236,39*73
$GPGSV,4,3,14,29,23,226,46,23,23,307,40,21,18,091,,11,06,146,*72
$GPGSV,4,4,14,30,02,036,,194,,,*74
$BDGSV,5,1,18,03,55,199,39,20,53,315,46,08,51,347,39,13,47,329,40*67
$BDGSV,5,2,18,01,47,137,24,29,45,277,46,30,41,202,42,02,39,237,35*65
$BDGSV,5,3,18,04,37,118,,16,28,175,,10,25,218,,06,22,182,30*62
$BDGSV,5,4,18,07,22,206,36,23,20,072,,19,18,273,,05,17,255,*66
$BDGSV,5,5,18,09,12,188,,27,02,162,*68
$GNRMC,130751.000,A,3018.4847,N,12004.7427,E,0.18,20.50,270326,,,D*4C
$GNVTG,20.50,T,,M,0.18,N,0.33,K,D*18
$GNGGA,130752.000,3018.4848,N,12004.7426,E,2,17,0.76,-28.6,M,7.0,M,,*58
$GNGLL,3018.4848,N,12004.7426,E,130752.000,A,D*4A
$GPGSA,A,3,15,13,05,18,195,29,23,24,,,,,1.14,0.76,0.86*32
$BDGSA,A,3,03,30,02,13,20,08,29,07,06,,,,1.14,0.76,0.86*18
$GPGSV,4,1,14,15,66,351,40,195,58,147,30,20,50,031,19,18,49,313,34*40
$GPGSV,4,2,14,24,48,174,39,13,44,035,28,05,42,076,28,41,36,236,38*72
$GPGSV,4,3,14,29,23,226,46,23,23,307,40,21,18,091,,11,06,146,*72
$GPGSV,4,4,14,30,02,036,,194,,,*74
$BDGSV,5,1,18,03,55,199,39,20,53,315,45,08,51,347,38,13,47,329,29*6A
$BDGSV,5,2,18,01,47,137,,29,45,277,45,30,41,202,43,02,39,237,35*61
$BDGSV,5,3,18,04,37,118,,16,28,175,,10,25,218,,06,22,182,38*6A
$BDGSV,5,4,18,07,22,206,35,23,20,072,,19,18,273,,05,17,255,*65
$BDGSV,5,5,18,09,12,188,,27,02,162,*68
$GNRMC,130752.000,A,3018.4848,N,12004.7426,E,0.22,20.50,270326,,,D*48
$GNVTG,20.50,T,,M,0.22,N,0.40,K,D*15
$GNGGA,130753.000,3018.4848,N,12004.7426,E,2,17,0.77,-28.6,M,7.0,M,,*58
$GNGLL,3018.4848,N,12004.7426,E,130753.000,A,D*4B
$GPGSA,A,3,15,20,05,18,195,29,23,24,,,,,1.16,0.77,0.87*30
$BDGSA,A,3,03,30,02,13,20,08,29,07,06,,,,1.16,0.77,0.87*1A
$GPGSV,4,1,14,15,66,351,38,195,58,147,32,20,50,031,19,18,49,313,44*4A
$GPGSV,4,2,14,24,48,174,40,13,44,035,26,05,42,076,29,41,36,236,38*73
$GPGSV,4,3,14,29,23,226,46,23,23,307,40,21,18,091,,11,06,146,*72
$GPGSV,4,4,14,30,02,036,,194,,,*74
$BDGSV,5,1,18,03,55,199,40,20,53,315,45,08,51,347,31,13,47,329,40*62
$BDGSV,5,2,18,01,47,137,,29,45,277,46,30,41,202,42,02,39,237,35*63
$BDGSV,5,3,18,04,37,118,,16,28,175,,10,25,218,,06,22,182,38*6A
$BDGSV,5,4,18,07,22,206,36,23,20,072,,19,18,273,,05,17,255,*66
$BDGSV,5,5,18,09,12,188,,27,02,162,*68
$GNRMC,130753.000,A,3018.4848,N,12004.7426,E,0.10,20.50,270326,,,D*48
$GNVTG,20.50,T,,M,0.10,N,0.19,K,D*18
$GNGGA,130754.000,3018.4848,N,12004.7426,E,2,17,0.77,-28.6,M,7.0,M,,*5F
$GNGLL,3018.4848,N,12004.7426,E,130754.000,A,D*4C
$GPGSA,A,3,15,20,05,18,195,29,23,24,,,,,1.16,0.77,0.87*30
$BDGSA,A,3,03,30,02,13,20,08,29,07,06,,,,1.16,0.77,0.87*1A
$GPGSV,4,1,14,15,66,351,38,195,58,147,33,20,50,031,19,18,49,313,44*4B
$GPGSV,4,2,14,24,48,174,41,13,44,035,24,05,42,076,30,41,36,236,38*78
$GPGSV,4,3,14,29,23,226,46,23,23,307,41,21,18,091,,11,06,146,*73
$GPGSV,4,4,14,30,02,036,,194,,,*74
$BDGSV,5,1,18,03,55,199,41,20,53,315,46,08,51,347,33,13,47,329,41*63
$BDGSV,5,2,18,01,47,137,,29,45,277,46,30,41,202,41,02,39,237,35*60
$BDGSV,5,3,18,04,37,118,,16,28,175,,10,25,218,,06,22,182,38*6A
$BDGSV,5,4,18,07,22,206,36,23,20,072,,19,18,273,,05,17,255,*66
$BDGSV,5,5,18,09,12,188,,27,02,162,*68
$GNRMC,130754.000,A,3018.4848,N,12004.7426,E,0.18,20.50,270326,,,D*47
$GNVTG,20.50,T,,M,0.18,N,0.33,K,D*18
$GNGGA,130755.000,3018.4848,N,12004.7427,E,2,17,0.77,-28.6,M,7.0,M,,*5F
$GNGLL,3018.4848,N,12004.7427,E,130755.000,A,D*4C
$GPGSA,A,3,15,20,05,18,195,29,23,24,,,,,1.16,0.77,0.87*30
$BDGSA,A,3,03,30,02,13,20,08,29,07,06,,,,1.16,0.77,0.87*1A
$GPGSV,4,1,14,15,66,351,39,195,58,147,34,20,50,031,19,18,49,313,43*4A
$GPGSV,4,2,14,24,48,174,41,13,44,035,24,05,42,076,31,41,36,236,39*78
$GPGSV,4,3,14,29,23,226,46,23,23,307,42,21,18,091,,11,06,146,*70
$GPGSV,4,4,14,30,02,036,,194,,,*74
$BDGSV,5,1,18,03,55,199,41,20,53,315,47,08,51,347,34,13,47,329,42*66
$BDGSV,5,2,18,01,47,137,,29,45,277,46,30,41,202,41,02,39,237,35*60
$BDGSV,5,3,18,04,37,118,,16,28,175,,10,25,218,,06,22,182,38*6A
$BDGSV,5,4,18,07,22,206,36,23,20,072,,19,18,273,,05,17,255,*66
$BDGSV,5,5,18,09,12,188,,27,02,162,*68
$GNRMC,130755.000,A,3018.4848,N,12004.7427,E,0.19,20.50,270326,,,D*46
$GNVTG,20.50,T,,M,0.19,N,0.35,K,D*1F
$GNGGA,130756.000,3018.4848,N,12004.7427,E,2,16,0.82,-28.6,M,7.0,M,,*57
$GNGLL,3018.4848,N,12004.7427,E,130756.000,A,D*4F
$GPGSA,A,3,15,05,18,195,29,23,24,,,,,,1.20,0.82,0.87*3D
$BDGSA,A,3,03,30,02,13,20,08,29,07,06,,,,1.20,0.82,0.87*15
$GPGSV,4,1,14,15,66,351,40,195,58,147,34,20,50,031,18,18,49,313,43*45
$GPGSV,4,2,14,24,48,174,41,13,44,035,24,05,42,076,31,41,36,236,40*76
$GPGSV,4,3,14,29,23,226,46,23,23,307,42,21,18,091,,11,06,146,*70
$GPGSV,4,4,14,30,02,036,,194,,,*74
$BDGSV,5,1,18,03,55,199,41,20,53,315,47,08,51,347,35,13,47,329,42*67
$BDGSV,5,2,18,01,47,137,,29,45,277,46,30,41,202,41,02,39,237,35*60
$BDGSV,5,3,18,04,37,118,,16,28,175,,10,25,218,,06,22,182,38*6A
$BDGSV,5,4,18,07,22,206,36,23,20,072,,19,18,273,,05,17,255,*66
$BDGSV,5,5,18,09,12,188,,27,02,162,*68
$GNRMC,130756.000,A,3018.4848,N,12004.7427,E,0.18,20.50,270326,,,D*44
$GNVTG,20.50,T,,M,0.18,N,0.32,K,D*19
$GNGGA,130757.000,3018.4848,N,12004.7427,E,2,16,0.82,-28.6,M,7.0,M,,*56
$GNGLL,3018.4848,N,12004.7427,E,130757.000,A,D*4E
$GPGSA,A,3,15,05,18,195,29,23,24,,,,,,1.19,0.82,0.87*37
$BDGSA,A,3,03,30,02,13,20,08,29,07,06,,,,1.19,0.82,0.87*1F
$GPGSV,4,1,14,15,66,351,40,195,58,147,35,20,50,031,18,18,49,313,42*45
$GPGSV,4,2,14,24,48,174,41,13,44,035,24,05,42,076,31,41,36,236,40*76
$GPGSV,4,3,14,29,23,226,46,23,23,307,43,21,18,091,16,11,06,146,*76
$GPGSV,4,4,14,30,02,036,,194,,,*74
$BDGSV,5,1,18,03,55,199,41,20,53,315,47,08,51,347,36,13,47,329,42*64
$BDGSV,5,2,18,01,47,137,,29,45,277,46,30,41,202,41,02,39,237,35*60
$BDGSV,5,3,18,04,37,118,,16,28,175,,10,25,218,,06,22,182,38*6A
$BDGSV,5,4,18,07,22,206,36,23,20,072,,19,18,273,,05,17,255,*66
$BDGSV,5,5,18,09,12,188,,27,02,162,*68
$GNRMC,130757.000,A,3018.4848,N,12004.7427,E,0.16,20.50,270326,,,D*4B
$GNVTG,20.50,T,,M,0.16,N,0.30,K,D*15
$GNGGA,130758.000,3018.4849,N,12004.7427,E,2,18,0.77,-28.6,M,7.0,M,,*5C
$GNGLL,3018.4849,N,12004.7427,E,130758.000,A,D*40
$GPGSA,A,3,15,20,05,18,195,29,21,23,24,,,,1.16,0.77,0.87*33
$BDGSA,A,3,03,30,02,13,20,08,29,07,06,,,,1.16,0.77,0.87*1A
$GPGSV,4,1,14,15,66,351,40,195,58,147,35,20,50,031,18,18,49,313,42*45
$GPGSV,4,2,14,24,48,174,41,13,44,035,24,05,42,076,31,41,36,236,40*76
$GPGSV,4,3,14,29,23,226,46,23,23,307,43,21,18,091,16,11,06,146,*76
$GPGSV,4,4,14,30,02,036,,194,,,*74
$BDGSV,5,1,18,03,55,199,41,20,53,315,47,08,51,347,36,13,47,329,42*64
$BDGSV,5,2,18,01,47,137,,29,45,277,46,30,41,202,41,02,39,237,35*60
$BDGSV,5,3,18,04,37,118,,16,28,175,,10,25,218,,06,22,182,38*6A
$BDGSV,5,4,18,07,22,206,34,23,20,072,,19,18,273,,05,17,255,*64
$BDGSV,5,5,18,09,12,188,,27,02,162,*68
$GNRMC,130758.000,A,3018.4849,N,12004.7427,E,0.28,20.50,270326,,,D*48
$GNVTG,20.50,T,,M,0.28,N,0.51,K,D*1F
$GNGGA,130759.000,3018.4849,N,12004.7428,E,2,18,0.76,-28.6,M,7.0,M,,*53
$GNGLL,3018.4849,N,12004.7428,E,130759.000,A,D*4E
$GPGSA,A,3,15,13,05,18,195,29,21,23,24,,,,1.15,0.76,0.86*30
$BDGSA,A,3,03,30,02,13,20,08,29,07,06,,,,1.15,0.76,0.86*19
$GPGSV,4,1,14,15,66,351,40,195,58,147,35,20,50,031,17,18,49,313,42*4A
$GPGSV,4,2,14,24,48,174,41,13,44,035,25,05,42,076,31,41,36,236,40*77
$GPGSV,4,3,14,29,23,226,46,23,23,307,43,21,18,091,17,11,06,146,*77
$GPGSV,4,4,14,30,02,036,,194,,,*74
$BDGSV,5,1,18,03,55,199,41,20,53,315,47,08,51,347,36,13,47,329,42*64
$BDGSV,5,2,18,01,47,137,,29,45,277,46,30,41,202,39,02,39,237,35*6F
$BDGSV,5,3,18,04,37,118,,16,28,175,,10,25,218,,06,22,182,37*65
$BDGSV,5,4,18,07,22,206,23,23,20,072,,19,18,273,,05,17,255,*62
$BDGSV,5,5,18,09,12,188,,27,02,162,*68
$GNRMC,130759.000,A,3018.4849,N,12004.7428,E,0.21,20.50,270326,,,D*4F
$GNVTG,20.50,T,,M,0.21,N,0.38,K,D*19
$GNGGA,130800.000,3018.4849,N,12004.7428,E,2,18,0.76,-28.6,M,7.0,M,,*50
$GNGLL,3018.4849,N,12004.7428,E,130800.000,A,D*4D
$GPGSA,A,3,15,13,05,18,195,29,21,23,24,,,,1.14,0.76,0.86*31
$BDGSA,A,3,03,30,02,13,20,08,29,07,06,,,,1.14,0.76,0.86*18
$GPGSV,4,1,14,15,66,351,40,195,58,147,35,20,50,031,17,18,49,313,42*4A
$GPGSV,4,2,14,24,48,174,41,13,44,035,25,05,42,076,31,41,36,236,33*73
$GPGSV,4,3,14,29,23,226,46,23,23,307,44,21,18,091,16,11,06,146,*71
$GPGSV,4,4,14,30,02,036,,194,,,*74
$BDGSV,5,1,18,03,55,199,41,20,53,315,47,08,51,347,36,13,47,329,42*64
$BDGSV,5,2,18,01,47,137,,29,45,277,46,30,41,202,40,02,39,237,33*67
$BDGSV,5,3,18,04,37,118,,16,28,175,,10,25,218,,06,22,182,37*65
$BDGSV,5,4,18,07,22,206,39,23,20,072,,19,18,273,,05,17,255,*69
$BDGSV,5,5,18,09,12,188,,27,02,162,*68
$GNRMC,130800.000,A,3018.4849,N,12004.7428,E,0.19,20.50,270326,,,D*47
$GNVTG,20.50,T,,M,0.19,N,0.35,K,D*1F
$GNGGA,130801.000,3018.4849,N,12004.7428,E,2,17,0.82,-28.6,M,7.0,M,,*55
$GNGLL,3018.4849,N,12004.7428,E,130801.000,A,D*4C
$GPGSA,A,3,15,05,18,195,29,21,23,24,,,,,1.19,0.82,0.87*34
$BDGSA,A,3,03,30,02,13,20,08,29,07,06,,,,1.19,0.82,0.87*1F
$GPGSV,4,1,14,15,66,351,40,195,58,147,35,20,50,031,17,18,49,313,42*4A
$GPGSV,4,2,14,24,48,174,41,13,44,035,25,05,42,076,31,41,36,236,40*77
$GPGSV,4,3,14,29,23,226,46,23,23,307,44,21,18,091,16,11,06,146,*71
$GPGSV,4,4,14,30,02,036,,194,,,*74
$BDGSV,5,1,18,03,55,199,42,20,53,315,48,08,51,347,36,13,47,329,42*68
$BDGSV,5,2,18,01,47,137,,29,45,277,45,30,41,202,41,02,39,237,32*64
$BDGSV,5,3,18,04,37,118,,16,28,175,,10,25,218,,06,22,182,37*65
$BDGSV,5,4,18,07,22,206,37,23,20,072,,19,18,273,,05,17,255,*67
$BDGSV,5,5,18,09,12,188,,27,02,162,*68
$GNRMC,130801.000,A,3018.4849,N,12004.7428,E,0.11,20.50,270326,,,D*4E
$GNVTG,20.50,T,,M,0.11,N,0.21,K,D*12
$GNGGA,130802.000,3018.4849,N,12004.7428,E,2,17,0.76,-28.5,M,7.0,M,,*5E
$GNGLL,3018.4849,N,12004.7428,E,130802.000,A,D*4F
$GPGSA,A,3,15,13,05,18,195,29,23,24,,,,,1.14,0.76,0.86*32
$BDGSA,A,3,03,30,02,13,20,08,29,07,06,,,,1.14,0.76,0.86*18
$GPGSV,4,1,14,15,66,351,40,195,58,147,35,20,50,031,17,18,49,313,41*49
$GPGSV,4,2,14,24,48,174,41,13,44,035,26,05,42,076,31,41,36,236,40*74
$GPGSV,4,3,14,29,23,226,46,23,23,307,44,21,18,091,16,11,06,146,*71
$GPGSV,4,4,14,30,02,036,,194,,,*74
$BDGSV,5,1,18,03,55,199,42,20,53,315,48,08,51,347,36,13,47,329,42*68
$BDGSV,5,2,18,01,47,137,,29,45,277,44,30,41,202,41,02,39,237,33*64
$BDGSV,5,3,18,04,37,118,,16,28,175,,10,25,218,,06,22,182,36*64
$BDGSV,5,4,18,07,22,206,37,23,20,072,,19,18,273,,05,17,255,*67
$BDGSV,5,5,18,09,12,188,,27,02,162,*68
$GNRMC,130802.000,A,3018.4849,N,12004.7428,E,0.13,20.50,270326,,,D*4F
$GNVTG,20.50,T,,M,0.13,N,0.24,K,D*15
$GNGGA,130803.000,3018.4850,N,12004.7428,E,2,17,0.78,-28.5,M,7.0,M,,*59
$GNGLL,3018.4850,N,12004.7428,E,130803.000,A,D*46
$GPGSA,A,3,15,05,18,195,29,23,24,,,,,,1.16,0.78,0.87*3D
$BDGSA,A,3,03,30,01,02,13,20,08,29,07,06,,,1.16,0.78,0.87*14
$GPGSV,4,1,14,15,66,351,40,195,58,147,35,20,50,031,16,18,49,313,41*48
$GPGSV,4,2,14,24,48,174,41,13,44,035,26,05,42,076,31,41,36,236,40*74
$GPGSV,4,3,14,29,23,226,46,23,23,307,43,21,18,091,16,11,06,146,*76
$GPGSV,4,4,14,30,02,036,,194,,,*74
$BDGSV,5,1,18,03,55,199,42,20,53,315,48,08,51,347,35,13,47,329,42*6B
$BDGSV,5,2,18,01,47,137,25,29,45,277,45,30,41,202,40,02,39,237,34*64
$BDGSV,5,3,18,04,37,118,,16,28,175,,10,25,218,,06,22,182,34*66
$BDGSV,5,4,18,07,22,206,37,23,20,072,,19,18,273,,05,17,255,*67
$BDGSV,5,5,18,09,12,188,,27,02,162,*68
$GNRMC,130803.000,A,3018.4850,N,12004.7428,E,0.20,20.50,270326,,,D*46
$GNVTG,20.50,T,,M,0.20,N,0.36,K,D*16
$GNGGA,130804.000,3018.4850,N,12004.7429,E,2,18,0.73,-28.5,M,7.0,M,,*5B
$GNGLL,3018.4850,N,12004.7429,E,130804.000,A,D*40
$GPGSA,A,3,15,20,05,18,195,29,23,24,,,,,1.13,0.73,0.87*31
$BDGSA,A,3,03,30,01,02,13,20,08,29,07,06,,,1.13,0.73,0.87*1A
$GPGSV,4,1,14,15,66,351,40,195,58,147,35,20,50,031,16,18,49,313,41*48
$GPGSV,4,2,14,24,48,174,41,13,44,035,26,05,42,076,32,41,36,236,40*77
$GPGSV,4,3,14,29,23,226,46,23,23,307,43,21,18,091,16,11,06,146,*76
$GPGSV,4,4,14,30,02,036,,194,,,*74
$BDGSV,5,1,18,03,55,199,42,20,53,315,48,08,51,347,36,13,47,329,42*68
$BDGSV,5,2,18,01,47,137,27,29,45,277,46,30,41,202,40,02,39,237,34*65
$BDGSV,5,3,18,04,37,118,,16,28,175,,10,25,218,,06,22,182,34*66
$BDGSV,5,4,18,07,22,206,36,23,20,072,,19,18,273,,05,17,255,*66
$BDGSV,5,5,18,09,12,188,,27,02,162,*68
$GNRMC,130804.000,A,3018.4850,N,12004.7429,E,0.28,20.50,270326,,,D*48
$GNVTG,20.50,T,,M,0.28,N,0.53,K,D*1D
$GNGGA,130805.000,3018.4850,N,12004.7429,E,2,18,0.73,-28.5,M,7.0,M,,*5A
$GNGLL,3018.4850,N,12004.7429,E,130805.000,A,D*41
$GPGSA,A,3,15,20,05,18,195,29,23,24,,,,,1.13,0.73,0.87*31
$BDGSA,A,3,03,30,01,02,13,20,08,29,07,06,,,1.13,0.73,0.87*1A
$GPGSV,4,1,14,15,66,351,39,195,58,147,35,20,50,031,17,18,49,313,41*47
$GPGSV,4,2,14,24,48,174,41,13,44,035,25,05,42,076,32,41,36,236,40*74
$GPGSV,4,3,14,29,23,226,46,23,23,307,43,21,18,091,16,11,06,146,*76
$GPGSV,4,4,14,30,02,036,,194,,,*74
$BDGSV,5,1,18,03,55,199,41,20,53,315,48,08,51,347,36,13,47,329,42*6B
$BDGSV,5,2,18,01,47,137,25,29,45,277,46,30,41,202,39,02,39,237,35*68
$BDGSV,5,3,18,04,37,118,,16,28,175,,10,25,218,,06,22,182,35*67
$BDGSV,5,4,18,07,22,206,25,23,20,072,,19,18,273,,05,17,255,*64
$BDGSV,5,5,18,09,12,188,,27,02,162,*68
$GNRMC,130805.000,A,3018.4850,N,12004.7429,E,0.47,20.50,270326,,,D*40
$GNVTG,20.50,T,,M,0.47,N,0.87,K,D*1D
$GNGGA,130806.000,3018.4851,N,12004.7430,E,2,18,0.78,-28.5,M,7.0,M,,*5B
$GNGLL,3018.4851,N,12004.7430,E,130806.000,A,D*4B
$GPGSA,A,3,15,05,18,195,29,21,23,24,,,,,1.16,0.78,0.87*3E
$BDGSA,A,3,03,30,01,02,13,20,08,29,07,06,,,1.16,0.78,0.87*14
$GPGSV,4,1,14,15,66,351,30,195,58,147,35,20,50,031,17,18,49,313,34*4C
$GPGSV,4,2,14,24,48,174,41,13,44,035,18,05,42,076,31,41,36,236,40*79
$GPGSV,4,3,14,29,23,226,46,23,23,307,42,21,18,091,15,11,06,146,*74
$GPGSV,4,4,14,30,02,036,,194,,,*74
$BDGSV,5,1,18,03,55,199,41,20,53,315,46,08,51,347,34,13,47,329,35*67
$BDGSV,5,2,18,01,47,137,24,29,45,277,46,30,41,202,40,02,39,237,33*61
$BDGSV,5,3,18,04,37,118,,16,28,175,,10,25,218,,06,22,182,36*64
$BDGSV,5,4,18,07,22,206,26,23,20,072,,19,18,273,,05,17,255,*67
$BDGSV,5,5,18,09,12,188,,27,02,162,*68
$GNRMC,130806.000,A,3018.4851,N,12004.7430,E,0.25,20.50,270326,,,D*4E
$GNVTG,20.50,T,,M,0.25,N,0.46,K,D*14
$GNGGA,130807.000,3018.4850,N,12004.7430,E,2,19,0.69,-28.4,M,7.0,M,,*5B
$GNGLL,3018.4850,N,12004.7430,E,130807.000,A,D*4B
$GPGSA,A,3,15,20,13,05,18,195,29,23,24,,,,1.10,0.69,0.86*3A
$BDGSA,A,3,03,30,01,02,13,20,08,29,07,06,,,1.10,0.69,0.86*13
$GPGSV,4,1,14,15,66,351,41,195,58,147,36,20,50,031,17,18,49,313,34*49
$GPGSV,4,2,14,24,48,174,41,13,44,035,30,05,42,076,31,41,36,236,39*7D
$GPGSV,4,3,14,29,23,226,45,23,23,307,31,21,18,091,15,11,06,146,*73
$GPGSV,4,4,14,30,02,036,,194,,,*74
$BDGSV,5,1,18,03,55,199,41,20,53,315,47,08,51,347,35,13,47,329,36*64
$BDGSV,5,2,18,01,47,137,25,29,45,277,45,30,41,202,40,02,39,237,32*62
$BDGSV,5,3,18,04,37,118,,16,28,175,,10,25,218,,06,22,182,35*67
$BDGSV,5,4,18,07,22,206,35,23,20,072,,19,18,273,,05,17,255,*65
$BDGSV,5,5,18,09,12,188,,27,02,162,*68
$GNRMC,130807.000,A,3018.4850,N,12004.7430,E,0.43,20.50,270326,,,D*4E
$GNVTG,20.50,T,,M,0.43,N,0.80,K,D*1E
$GNGGA,130808.000,3018.4851,N,12004.7431,E,2,18,0.72,-28.5,M,7.0,M,,*5E
$GNGLL,3018.4851,N,12004.7431,E,130808.000,A,D*44
$GPGSA,A,3,15,13,05,18,195,29,23,24,,,,,1.12,0.72,0.86*30
$BDGSA,A,3,03,30,01,02,13,20,08,29,07,06,,,1.12,0.72,0.86*1B
$GPGSV,4,1,14,15,66,351,41,195,58,147,27,20,50,031,17,18,49,313,36*4B
$GPGSV,4,2,14,24,48,174,40,13,44,035,30,05,42,076,32,41,36,236,38*7E
$GPGSV,4,3,14,29,23,226,46,23,23,307,33,21,18,091,15,11,06,146,*72
$GPGSV,4,4,14,30,02,036,,194,,,*74
$BDGSV,5,1,18,03,55,199,32,20,53,315,47,08,51,347,36,13,47,329,37*62
$BDGSV,5,2,18,01,47,137,25,29,45,277,46,30,41,202,39,02,39,237,33*6E
$BDGSV,5,3,18,04,37,118,,16,28,175,,10,25,218,,06,22,182,27*64
$BDGSV,5,4,18,07,22,206,35,23,20,072,,19,18,273,,05,17,255,*65
$BDGSV,5,5,18,09,12,188,,27,02,162,*68
$GNRMC,130808.000,A,3018.4851,N,12004.7431,E,0.32,20.50,270326,,,D*47
$GNVTG,20.50,T,,M,0.32,N,0.60,K,D*16
$GNGGA,130809.000,3018.4852,N,12004.7430,E,2,20,0.69,-28.5,M,7.0,M,,*5C
$GNGLL,3018.4852,N,12004.7430,E,130809.000,A,D*47
$GPGSA,A,3,15,20,13,05,18,195,29,21,23,24,,,1.10,0.69,0.86*39
$BDGSA,A,3,03,30,01,02,13,20,08,29,07,06,,,1.10,0.69,0.86*13
$GPGSV,4,1,14,15,66,351,41,195,58,147,25,20,50,031,16,18,49,313,36*48
$GPGSV,4,2,14,24,48,174,39,13,44,035,30,05,42,076,32,41,36,236,39*71
$GPGSV,4,3,14,29,23,226,47,23,23,307,40,21,18,091,14,11,06,146,*76
$GPGSV,4,4,14,30,02,036,,194,,,*74
$BDGSV,5,1,18,03,55,199,40,20,53,315,47,08,51,347,37,13,47,329,38*69
$BDGSV,5,2,18,01,47,137,25,29,45,277,46,30,41,202,40,02,39,237,35*66
$BDGSV,5,3,18,04,37,118,,16,28,175,,10,25,218,,06,22,182,29*6A
$BDGSV,5,4,18,07,22,206,35,23,20,072,,19,18,273,,05,17,255,*65
$BDGSV,5,5,18,09,12,188,,27,02,162,*68
$GNRMC,130809.000,A,3018.4852,N,12004.7430,E,0.12,20.50,270326,,,D*46
$GNVTG,20.50,T,,M,0.12,N,0.23,K,D*13
$GNGGA,130810.000,3018.4852,N,12004.7430,E,2,20,0.69,-28.5,M,7.0,M,,*54
$GNGLL,3018.4852,N,12004.7430,E,130810.000,A,D*4F
$GPGSA,A,3,15,20,13,05,18,195,29,21,23,24,,,1.10,0.69,0.86*39
$BDGSA,A,3,03,30,01,02,13,20,08,29,07,06,,,1.10,0.69,0.86*13
$GPGSV,4,1,14,15,66,351,40,195,58,147,23,20,50,031,16,18,49,313,36*4F
$GPGSV,4,2,14,24,48,174,39,13,44,035,30,05,42,076,31,41,36,236,39*72
$GPGSV,4,3,14,29,23,226,47,23,23,307,40,21,18,091,14,11,06,146,*76
$GPGSV,4,4,14,30,02,036,,194,,,*74
$BDGSV,5,1,18,03,55,199,39,20,53,315,47,08,51,347,38,13,47,329,39*69
$BDGSV,5,2,18,01,47,137,25,29,45,277,46,30,41,202,40,02,39,237,34*67
$BDGSV,5,3,18,04,37,118,,16,28,175,,10,25,218,,06,22,182,29*6A
$BDGSV,5,4,18,07,22,206,35,23,20,072,,19,18,273,,05,17,255,*65
$BDGSV,5,5,18,09,12,188,,27,02,162,*68
$GNRMC,130810.000,A,3018.4852,N,12004.7430,E,0.22,20.50,270326,,,D*4D
$GNVTG,20.50,T,,M,0.22,N,0.41,K,D*14
$GNGGA,130811.000,3018.4852,N,12004.7430,E,2,19,0.69,-28.4,M,7.0,M,,*5E
$GNGLL,3018.4852,N,12004.7430,E,130811.000,A,D*4E
$GPGSA,A,3,15,20,13,05,18,195,29,23,24,,,,1.10,0.69,0.86*3A
$BDGSA,A,3,03,30,01,02,13,20,08,29,07,06,,,1.10,0.69,0.86*13
$GPGSV,4,1,14,15,66,351,40,195,58,147,25,20,50,031,15,18,49,313,35*49
$GPGSV,4,2,14,24,48,174,38,13,44,035,29,05,42,076,30,41,36,236,39*7A
$GPGSV,4,3,14,29,23,226,47,23,23,307,41,21,18,091,13,11,06,146,*70
$GPGSV,4,4,14,30,02,036,,194,,,*74
$BDGSV,5,1,18,03,55,199,27,20,53,315,47,08,51,347,38,13,47,329,39*66
$BDGSV,5,2,18,01,47,137,24,29,45,277,46,30,41,202,29,02,39,237,35*68
$BDGSV,5,3,18,04,37,118,,16,28,175,,10,25,218,,06,22,182,28*6B
$BDGSV,5,4,18,07,22,206,35,23,20,072,,19,18,273,,05,17,255,*65
$BDGSV,5,5,18,09,12,188,,27,02,162,*68
$GNRMC,130811.000,A,3018.4852,N,12004.7430,E,0.22,20.50,270326,,,D*4C
$GNVTG,20.50,T,,M,0.22,N,0.41,K,D*14
$GNGGA,130812.000,3018.4852,N,12004.7430,E,2,20,0.69,-28.4,M,7.0,M,,*57
$GNGLL,3018.4852,N,12004.7430,E,130812.000,A,D*4D
$GPGSA,A,3,15,20,13,05,18,195,29,21,23,24,,,1.10,0.69,0.86*39
$BDGSA,A,3,03,30,01,02,13,20,08,29,07,06,,,1.10,0.69,0.86*13
$GPGSV,4,1,14,15,66,351,40,195,58,147,23,20,50,031,14,18,49,313,42*4E
$GPGSV,4,2,14,24,48,174,22,13,44,035,28,05,42,076,28,41,36,236,40*77
$GPGSV,4,3,14,29,23,226,45,23,23,307,42,21,18,091,13,11,06,146,*71
$GPGSV,4,4,14,30,02,036,,194,,,*74
$BDGSV,5,1,18,03,55,199,26,20,53,315,45,08,51,347,37,13,47,329,38*6B
$BDGSV,5,2,18,01,47,137,24,29,45,277,46,30,41,202,30,02,39,237,34*61
$BDGSV,5,3,18,04,37,118,,16,28,175,,10,25,218,,06,22,182,20*63
$BDGSV,5,4,18,07,22,206,28,23,20,072,,19,18,273,,05,17,255,*69
$BDGSV,5,5,18,09,12,188,,27,02,162,*68
$GNRMC,130812.000,A,3018.4852,N,12004.7430,E,0.34,20.50,270326,,,D*48
$GNVTG,20.50,T,,M,0.34,N,0.64,K,D*14
$GNGGA,130813.000,3018.4853,N,12004.7430,E,2,19,0.65,-28.4,M,7.0,M,,*51
$GNGLL,3018.4853,N,12004.7430,E,130813.000,A,D*4D
$GPGSA,A,3,15,20,13,05,18,195,29,21,23,24,,,1.04,0.65,0.81*37
$BDGSA,A,3,03,30,02,13,20,08,29,07,06,,,,1.04,0.65,0.81*1C
$GPGSV,4,1,14,15,66,351,40,195,58,147,22,20,50,031,14,18,49,313,42*4F
$GPGSV,4,2,14,24,48,174,21,13,44,035,26,05,42,076,27,41,36,236,40*75
$GPGSV,4,3,14,29,23,226,44,23,23,307,41,21,18,091,13,11,06,146,*73
$GPGSV,4,4,14,30,02,036,,194,,,*74
$BDGSV,5,1,18,03,55,199,25,20,53,315,44,08,51,347,36,13,47,329,37*67
$BDGSV,5,2,18,01,47,137,,29,45,277,46,30,41,202,31,02,39,237,33*61
$BDGSV,5,3,18,04,37,118,,16,28,175,,10,25,218,,06,22,182,21*62
$BDGSV,5,4,18,07,22,206,27,23,20,072,,19,18,273,,05,17,255,*66
$BDGSV,5,5,18,09,12,188,,27,02,162,*68
$GNRMC,130813.000,A,3018.4853,N,12004.7430,E,0.23,20.50,270326,,,D*4E
$GNVTG,20.50,T,,M,0.23,N,0.43,K,D*17
$GNGGA,130814.000,3018.4853,N,12004.7430,E,2,18,0.67,-28.4,M,7.0,M,,*55
$GNGLL,3018.4853,N,12004.7430,E,130814.000,A,D*4A
$GPGSA,A,3,15,20,05,18,195,29,21,23,24,,,,1.05,0.67,0.81*36
$BDGSA,A,3,03,30,02,13,20,08,29,07,06,,,,1.05,0.67,0.81*1F
$GPGSV,4,1,14,15,66,351,41,195,58,147,21,20,50,031,14,18,49,313,40*4F
$GPGSV,4,2,14,24,48,174,28,13,44,035,24,05,42,076,26,41,36,236,32*7A
$GPGSV,4,3,14,29,23,226,34,23,23,307,42,21,18,091,13,11,06,146,*77
$GPGSV,4,4,14,30,02,036,,194,,,*74
$BDGSV,5,1,18,03,55,199,26,20,53,315,44,08,51,347,36,13,47,329,37*64
$BDGSV,5,2,18,01,47,137,,29,45,277,45,30,41,202,32,02,39,237,32*60
$BDGSV,5,3,18,04,37,118,,16,28,175,,10,25,218,,06,22,182,21*62
$BDGSV,5,4,18,07,22,206,27,23,20,072,,19,18,273,,05,17,255,*66
$BDGSV,5,5,18,09,12,188,,27,02,162,*68
$GNRMC,130814.000,A,3018.4853,N,12004.7430,E,0.57,20.50,270326,,,D*4A
$GNVTG,20.50,T,,M,0.57,N,1.05,K,D*17
$GNGGA,130815.000,3018.4854,N,12004.7428,E,2,18,0.67,-28.4,M,7.0,M,,*5A
$GNGLL,3018.4854,N,12004.7428,E,130815.000,A,D*45
$GPGSA,A,3,15,20,05,18,195,29,21,23,24,,,,1.05,0.67,0.81*36
$BDGSA,A,3,03,30,02,13,20,08,29,07,06,,,,1.05,0.67,0.81*1F
$GPGSV,4,1,14,15,66,351,41,195,58,147,22,20,50,031,14,18,49,313,39*42
$GPGSV,4,2,14,24,48,174,35,13,44,035,23,05,42,076,27,41,36,236,34*76
$GPGSV,4,3,14,29,23,226,44,23,23,307,43,21,18,091,13,11,06,146,*71
$GPGSV,4,4,14,30,02,036,,194,,,*74
$BDGSV,5,1,18,03,55,199,37,20,53,315,43,08,51,347,37,13,47,329,38*6D
$BDGSV,5,2,18,01,47,137,,29,45,277,44,30,41,202,42,02,39,237,33*67
$BDGSV,5,3,18,04,37,118,,16,28,175,,10,25,218,,06,22,182,31*63
$BDGSV,5,4,18,07,22,206,29,23,20,072,,19,18,273,,05,17,255,*68
$BDGSV,5,5,18,09,12,188,,27,02,162,*68
$GNRMC,130815.000,A,3018.4854,N,12004.7428,E,0.51,20.50,270326,,,D*43
$GNVTG,20.50,T,,M,0.51,N,0.94,K,D*18
$GNGGA,130816.000,3018.4854,N,12004.7427,E,2,16,0.82,-28.4,M,7.0,M,,*53
$GNGLL,3018.4854,N,12004.7427,E,130816.000,A,D*49
$GPGSA,A,3,15,05,18,195,29,23,24,,,,,,1.19,0.82,0.87*37
$BDGSA,A,3,03,30,02,13,20,08,29,07,06,,,,1.19,0.82,0.87*1F
$GPGSV,4,1,14,15,66,351,42,195,58,147,35,20,50,031,15,18,49,313,40*48
$GPGSV,4,2,14,24,48,174,36,13,44,035,22,05,42,076,27,41,36,236,36*76
$GPGSV,4,3,14,29,23,226,44,23,23,307,44,21,18,091,14,11,06,146,*71
$GPGSV,4,4,14,30,02,036,,194,,,*74
$BDGSV,5,1,18,03,55,199,38,20,53,315,43,08,51,347,38,13,47,329,38*6D
$BDGSV,5,2,18,01,47,137,,29,45,277,43,30,41,202,42,02,39,237,34*67
$BDGSV,5,3,18,04,37,118,,16,28,175,,10,25,218,,06,22,182,32*60
$BDGSV,5,4,18,07,22,206,37,23,20,072,,19,18,273,,05,17,255,*67
$BDGSV,5,5,18,09,12,188,,27,02,162,*68
$GNRMC,130816.000,A,3018.4854,N,12004.7427,E,0.25,20.50,270326,,,D*4C
$GNVTG,20.50,T,,M,0.25,N,0.47,K,D*15
$GNGGA,130817.000,3018.4853,N,12004.7426,E,2,17,0.77,-28.4,M,7.0,M,,*5F
$GNGLL,3018.4853,N,12004.7426,E,130817.000,A,D*4E
$GPGSA,A,3,15,20,05,18,195,29,23,24,,,,,1.16,0.77,0.87*30
$BDGSA,A,3,03,30,02,13,20,08,29,07,06,,,,1.16,0.77,0.87*1A
$GPGSV,4,1,14,15,66,351,42,195,58,147,33,20,50,031,17,18,49,313,40*4C
$GPGSV,4,2,14,24,48,174,37,13,44,035,22,05,42,076,27,41,36,236,36*77
$GPGSV,4,3,14,29,23,226,43,23,23,307,44,21,18,091,13,11,06,146,*71
$GPGSV,4,4,14,30,02,036,,194,,,*74
$BDGSV,5,1,18,03,55,199,38,20,53,315,42,08,51,347,38,13,47,329,38*6C
$BDGSV,5,2,18,01,47,137,,29,45,277,43,30,41,202,42,02,39,237,34*67
$BDGSV,5,3,18,04,37,118,,16,28,175,,10,25,218,,06,22,182,32*60
$BDGSV,5,4,18,07,22,206,37,23,20,072,,19,18,273,,05,17,255,*67
$BDGSV,5,5,18,09,12,188,,27,02,162,*68
$GNRMC,130817.000,A,3018.4853,N,12004.7426,E,0.27,20.50,270326,,,D*49
$GNVTG,20.50,T,,M,0.27,N,0.51,K,D*10
$GNGGA,130818.000,3018.4853,N,12004.7426,E,2,17,0.77,-28.4,M,7.0,M,,*50
$GNGLL,3018.4853,N,12004.7426,E,130818.000,A,D*41
$GPGSA,A,3,15,20,05,18,195,29,23,24,,,,,1.16,0.77,0.87*30
$BDGSA,A,3,03,30,02,13,20,08,29,07,06,,,,1.16,0.77,0.87*1A
$GPGSV,4,1,14,15,66,351,42,195,58,147,33,20,50,031,18,18,49,313,40*43
$GPGSV,4,2,14,24,48,174,37,13,44,035,21,05,42,076,27,41,36,236,36*74
$GPGSV,4,3,14,29,23,226,42,23,23,307,44,21,18,091,14,11,06,146,*77
$GPGSV,4,4,14,30,02,036,,194,,,*74
$BDGSV,5,1,18,03,55,199,39,20,53,315,42,08,51,347,38,13,47,329,38*6D
$BDGSV,5,2,18,01,47,137,,29,45,277,42,30,41,202,42,02,39,237,34*66
$BDGSV,5,3,18,04,37,118,,16,28,175,,10,25,218,,06,22,182,33*61
$BDGSV,5,4,18,07,22,206,36,23,20,072,,19,18,273,,05,17,255,*66
$BDGSV,5,5,18,09,12,188,,27,02,162,*68
$GNRMC,130818.000,A,3018.4853,N,12004.7426,E,0.16,20.50,270326,,,D*44
$GNVTG,20.50,T,,M,0.16,N,0.29,K,D*1D
$GNGGA,130819.000,3018.4854,N,12004.7425,E,2,18,0.77,-28.4,M,7.0,M,,*5A
$GNGLL,3018.4854,N,12004.7425,E,130819.000,A,D*44
$GPGSA,A,3,15,20,05,18,195,29,21,23,24,,,,1.16,0.77,0.87*33
$BDGSA,A,3,03,30,02,13,20,08,29,07,06,,,,1.16,0.77,0.87*1A
$GPGSV,4,1,14,15,66,351,42,195,58,147,32,20,50,031,20,18,49,313,40*49
$GPGSV,4,2,14,24,48,174,37,13,44,035,22,05,42,076,26,41,36,236,35*75
$GPGSV,4,3,14,29,23,226,40,23,23,307,45,21,18,091,14,11,06,146,*74
$GPGSV,4,4,14,30,02,036,,194,,,*74
$BDGSV,5,1,18,03,55,199,39,20,53,315,42,08,51,347,38,13,47,329,38*6D
$BDGSV,5,2,18,01,47,137,,29,45,277,42,30,41,202,41,02,39,237,33*62
$BDGSV,5,3,18,04,37,118,,16,28,175,,10,25,218,,06,22,182,32*60
$BDGSV,5,4,18,07,22,206,36,23,20,072,,19,18,273,,05,17,255,*66
$BDGSV,5,5,18,09,12,188,,27,02,162,*68
$GNRMC,130819.000,A,3018.4854,N,12004.7425,E,0.17,20.50,270326,,,D*40
$GNVTG,20.50,T,,M,0.17,N,0.32,K,D*16
$GNGGA,130820.000,3018.4854,N,12004.7425,E,2,18,0.77,-28.4,M,7.0,M,,*50
$GNGLL,3018.4854,N,12004.7425,E,130820.000,A,D*4E
$GPGSA,A,3,15,20,05,18,195,29,21,23,24,,,,1.16,0.77,0.87*33
$BDGSA,A,3,03,30,02,13,20,08,29,07,06,,,,1.16,0.77,0.87*1A
$GPGSV,4,1,14,15,66,351,42,195,58,147,23,20,50,031,22,18,49,313,40*4B
$GPGSV,4,2,14,24,48,174,37,13,44,035,23,05,42,076,26,41,36,236,35*74
$GPGSV,4,3,14,29,23,226,41,23,23,307,45,21,18,091,14,11,06,146,*75
$GPGSV,4,4,14,30,02,036,,194,,,*74
$BDGSV,5,1,18,03,55,199,39,20,53,315,42,08,51,347,38,13,47,329,38*6D
$BDGSV,5,2,18,01,47,137,,29,45,277,31,30,41,202,41,02,39,237,33*66
$BDGSV,5,3,18,04,37,118,,16,28,175,,10,25,218,,06,22,182,32*60
$BDGSV,5,4,18,07,22,206,34,23,20,072,,19,18,273,,05,17,255,*64
$BDGSV,5,5,18,09,12,188,,27,02,162,*68
$GNRMC,130820.000,A,3018.4854,N,12004.7425,E,0.19,20.50,270326,,,D*44
$GNVTG,20.50,T,,M,0.19,N,0.35,K,D*1F
$GNGGA,130821.000,3018.4854,N,12004.7425,E,2,18,0.77,-28.4,M,7.0,M,,*51
$GNGLL,3018.4854,N,12004.7425,E,130821.000,A,D*4F
$GPGSA,A,3,15,20,05,18,195,29,21,23,24,,,,1.16,0.77,0.87*33
$BDGSA,A,3,03,30,02,13,20,08,29,07,06,,,,1.16,0.77,0.87*1A
$GPGSV,4,1,14,15,66,351,42,195,58,147,22,20,50,031,23,18,49,313,40*4B
$GPGSV,4,2,14,24,48,174,37,13,44,035,23,05,42,076,26,41,36,236,36*77
$GPGSV,4,3,14,29,23,226,42,23,23,307,45,21,18,091,14,11,06,146,*76
$GPGSV,4,4,14,30,02,036,,194,,,*74
$BDGSV,5,1,18,03,55,199,38,20,53,315,42,08,51,347,38,13,47,329,38*6C
$BDGSV,5,2,18,01,47,137,,29,45,277,42,30,41,202,41,02,39,237,34*65
$BDGSV,5,3,18,04,37,118,,16,28,175,,10,25,218,,06,23,182,33*60
$BDGSV,5,4,18,07,22,206,32,23,20,072,,19,18,273,,05,17,255,*62
$BDGSV,5,5,18,09,12,188,,27,02,162,*68
$GNRMC,130821.000,A,3018.4854,N,12004.7425,E,0.28,20.50,270326,,,D*47
$GNVTG,20.50,T,,M,0.28,N,0.52,K,D*1C
$GNGGA,130822.000,3018.4854,N,12004.7425,E,2,18,0.77,-28.3,M,7.0,M,,*55
$GNGLL,3018.4854,N,12004.7425,E,130822.000,A,D*4C
$GPGSA,A,3,15,20,05,18,195,29,21,23,24,,,,1.16,0.77,0.87*33
$BDGSA,A,3,03,30,02,13,20,08,29,07,06,,,,1.16,0.77,0.87*1A
$GPGSV,4,1,14,15,66,351,42,195,58,147,22,20,50,031,24,18,49,313,40*4C
$GPGSV,4,2,14,24,48,174,38,13,44,035,23,05,42,076,26,41,36,236,35*7B
$GPGSV,4,3,14,29,23,226,41,23,23,307,45,21,18,091,14,11,06,146,*75
$GPGSV,4,4,14,30,02,036,,194,,,*74
$BDGSV,5,1,18,03,55,199,38,20,53,315,41,08,51,347,38,13,47,329,38*6F
$BDGSV,5,2,18,01,47,137,,29,45,277,42,30,41,202,42,02,39,237,34*66
$BDGSV,5,3,18,04,37,118,,16,28,175,,10,25,218,,06,23,182,31*62
$BDGSV,5,4,18,07,22,205,33,23,20,072,,19,18,273,,05,17,255,*60
$BDGSV,5,5,18,09,12,188,,27,02,162,*68
$GNRMC,130822.000,A,3018.4854,N,12004.7425,E,0.35,20.50,270326,,,D*48
$GNVTG,20.50,T,,M,0.35,N,0.65,K,D*14
$GNGGA,130823.000,3018.4855,N,12004.7424,E,2,19,0.67,-28.3,M,7.0,M,,*54
$GNGLL,3018.4855,N,12004.7424,E,130823.000,A,D*4D
$GPGSA,A,3,15,20,05,18,195,29,21,23,24,,,,1.05,0.67,0.81*36
$BDGSA,A,3,03,30,02,13,20,23,08,29,07,06,,,1.05,0.67,0.81*1E
$GPGSV,4,1,14,15,66,351,42,195,58,147,24,20,50,031,25,18,49,313,41*4A
$GPGSV,4,2,14,24,48,174,37,13,44,035,23,05,42,076,26,41,36,236,37*76
$GPGSV,4,3,14,29,23,226,42,23,23,307,46,21,18,091,13,11,06,146,*72
$GPGSV,4,4,14,30,02,036,,194,,,*74
$BDGSV,5,1,18,03,55,199,38,20,53,315,42,08,51,347,38,13,47,329,38*6C
$BDGSV,5,2,18,01,47,137,,29,45,277,41,30,41,202,41,02,39,237,35*67
$BDGSV,5,3,18,04,37,118,,16,28,175,,10,25,218,,06,23,182,29*6B
$BDGSV,5,4,18,07,22,205,32,23,20,072,22,19,18,273,,05,17,255,*61
$BDGSV,5,5,18,09,12,188,,27,02,162,*68
$GNRMC,130823.000,A,3018.4855,N,12004.7424,E,0.31,20.50,270326,,,D*4D
$GNVTG,20.50,T,,M,0.31,N,0.58,K,D*1E
$GNGGA,130824.000,3018.4855,N,12004.7423,E,2,19,0.67,-28.3,M,7.0,M,,*54
$GNGLL,3018.4855,N,12004.7423,E,130824.000,A,D*4D
$GPGSA,A,3,15,20,05,18,195,29,21,23,24,,,,1.05,0.67,0.81*36
$BDGSA,A,3,03,30,02,13,20,23,08,29,07,06,,,1.05,0.67,0.81*1E
$GPGSV,4,1,14,15,66,351,42,195,58,147,24,20,50,031,25,18,49,313,42*49
$GPGSV,4,2,14,24,48,174,37,13,44,035,24,05,42,076,25,41,36,236,38*7D
$GPGSV,4,3,14,29,23,226,42,23,23,307,46,21,18,091,13,11,06,146,*72
$GPGSV,4,4,14,30,02,036,,194,,,*74
$BDGSV,5,1,18,03,55,199,37,20,53,315,42,08,51,347,38,13,47,329,38*63
$BDGSV,5,2,18,01,47,137,,29,45,277,41,30,41,202,41,02,39,237,36*64
$BDGSV,5,3,18,04,37,118,,16,28,175,,10,25,218,,06,23,182,19*68
$BDGSV,5,4,18,07,22,205,25,23,20,072,23,19,18,273,,05,17,255,*66
$BDGSV,5,5,18,09,13,188,,27,02,162,*69
$GNRMC,130824.000,A,3018.4855,N,12004.7423,E,0.31,20.50,270326,,,D*4D
$GNVTG,20.50,T,,M,0.31,N,0.57,K,D*11
$GNGGA,130825.000,3018.4855,N,12004.7424,E,2,19,0.67,-28.3,M,7.0,M,,*52
$GNGLL,3018.4855,N,12004.7424,E,130825.000,A,D*4B
$GPGSA,A,3,15,20,05,18,195,29,21,23,24,,,,1.05,0.67,0.81*36
$BDGSA,A,3,03,30,02,13,20,23,08,29,07,06,,,1.05,0.67,0.81*1E
$GPGSV,4,1,14,15,66,351,42,195,58,147,26,20,50,031,26,18,49,313,42*48
$GPGSV,4,2,14,24,48,174,37,13,44,035,23,05,42,076,25,41,36,236,38*7A
$GPGSV,4,3,14,29,23,226,42,23,23,307,46,21,18,091,14,11,06,146,*75
$GPGSV,4,4,14,30,02,036,,194,,,*74
$BDGSV,5,1,18,03,55,199,37,20,53,315,42,08,51,347,38,13,47,329,38*63
$BDGSV,5,2,18,01,47,137,,29,45,277,41,30,41,202,39,02,39,237,35*68
$BDGSV,5,3,18,04,37,118,,16,28,175,,10,25,218,,06,23,182,26*64
$BDGSV,5,4,18,07,22,205,24,23,20,072,23,19,18,273,,05,17,255,*67
$BDGSV,5,5,18,09,13,188,,27,02,162,*69
$GNRMC,130825.000,A,3018.4855,N,12004.7424,E,0.58,20.50,270326,,,D*44
$GNVTG,20.50,T,,M,0.58,N,1.07,K,D*1A
$GNGGA,130826.000,3018.4856,N,12004.7424,E,2,19,0.67,-28.4,M,7.0,M,,*55
$GNGLL,3018.4856,N,12004.7424,E,130826.000,A,D*4B
$GPGSA,A,3,15,20,05,18,195,29,21,23,24,,,,1.05,0.67,0.81*36
$BDGSA,A,3,03,30,02,13,20,23,08,29,07,06,,,1.05,0.67,0.81*1E
$GPGSV,4,1,14,15,66,351,42,195,58,147,26,20,50,031,26,18,49,313,42*48
$GPGSV,4,2,14,24,48,174,38,13,44,035,22,05,42,076,24,41,36,236,36*7B
$GPGSV,4,3,14,29,23,226,42,23,23,307,46,21,18,091,15,11,06,146,*74
$GPGSV,4,4,14,30,02,036,,194,,,*74
$BDGSV,5,1,18,03,55,199,36,20,53,315,42,08,51,347,38,13,47,329,38*62
$BDGSV,5,2,18,01,47,137,,29,45,277,42,30,41,202,41,02,39,237,28*68
$BDGSV,5,3,18,04,37,118,,16,28,175,,10,25,218,,06,23,182,25*67
$BDGSV,5,4,18,07,22,205,36,23,20,072,23,19,18,273,,05,17,255,*64
$BDGSV,5,5,18,09,13,188,,27,02,162,*69
$GNRMC,130826.000,A,3018.4856,N,12004.7424,E,0.32,20.50,270326,,,D*48
$GNVTG,20.50,T,,M,0.32,N,0.58,K,D*1D
$GNGGA,130827.000,3018.4857,N,12004.7424,E,2,19,0.67,-28.4,M,7.0,M,,*55
$GNGLL,3018.4857,N,12004.7424,E,130827.000,A,D*4B
$GPGSA,A,3,15,20,05,18,195,29,21,23,24,,,,1.05,0.67,0.81*36
$BDGSA,A,3,03,30,02,13,20,23,08,29,07,06,,,1.05,0.67,0.81*1E
$GPGSV,4,1,14,15,66,351,42,195,58,147,25,20,50,031,25,18,49,313,43*49
$GPGSV,4,2,14,24,48,174,37,13,44,035,22,05,42,076,24,41,36,236,36*74
$GPGSV,4,3,14,29,23,226,41,23,23,307,46,21,18,091,16,11,06,146,*74
$GPGSV,4,4,14,30,02,036,,194,,,*74
$BDGSV,5,1,18,03,55,199,36,20,53,315,34,08,51,347,39,13,47,329,28*63
$BDGSV,5,2,18,01,47,137,,29,45,277,43,30,41,202,40,02,39,237,28*68
$BDGSV,5,3,18,04,37,118,,16,28,175,,10,25,218,,06,23,182,36*65
$BDGSV,5,4,18,07,22,205,34,23,20,072,24,19,18,273,,05,17,255,*61
$BDGSV,5,5,18,09,13,188,,27,02,162,*69
$GNRMC,130827.000,A,3018.4857,N,12004.7424,E,0.27,20.50,270326,,,D*4C
$GNVTG,20.50,T,,M,0.27,N,0.50,K,D*11
$GNGGA,130828.000,3018.4857,N,12004.7425,E,2,19,0.67,-28.5,M,7.0,M,,*5A
$GNGLL,3018.4857,N,12004.7425,E,130828.000,A,D*45
$GPGSA,A,3,15,20,05,18,195,29,21,23,24,,,,1.05,0.67,0.81*36
$BDGSA,A,3,03,30,02,13,20,23,08,29,07,06,,,1.05,0.67,0.81*1E
$GPGSV,4,1,14,15,66,351,42,195,58,147,24,20,50,031,25,18,49,313,42*49
$GPGSV,4,2,14,24,48,174,37,13,44,035,22,05,42,076,24,41,36,236,37*75
$GPGSV,4,3,14,29,23,226,42,23,23,307,46,21,18,091,16,11,06,146,*77
$GPGSV,4,4,14,30,02,036,,194,,,*74
$BDGSV,5,1,18,03,55,199,36,20,53,315,36,08,51,347,39,13,47,330,30*60
$BDGSV,5,2,18,01,47,137,,29,45,277,43,30,41,202,40,02,39,237,36*67
$BDGSV,5,3,18,04,37,118,,16,28,175,,10,25,218,,06,23,182,28*6A
$BDGSV,5,4,18,07,22,205,34,23,20,072,24,19,18,273,,05,17,255,*61
$BDGSV,5,5,18,09,13,188,,27,02,162,*69
$GNRMC,130828.000,A,3018.4857,N,12004.7425,E,0.26,20.50,270326,,,D*43
$GNVTG,20.50,T,,M,0.26,N,0.49,K,D*18
$GNGGA,130829.000,3018.4857,N,12004.7425,E,2,19,0.67,-28.5,M,7.0,M,,*5B
$GNGLL,3018.4857,N,12004.7425,E,130829.000,A,D*44
$GPGSA,A,3,15,20,05,18,195,29,21,23,24,,,,1.05,0.67,0.81*36
$BDGSA,A,3,03,30,02,13,20,23,08,29,07,06,,,1.05,0.67,0.81*1E
$GPGSV,4,1,14,15,66,351,42,195,58,147,26,20,50,031,24,18,49,313,42*4A
$GPGSV,4,2,14,24,48,174,37,13,44,035,21,05,42,076,24,41,36,236,38*79
$GPGSV,4,3,14,29,23,226,43,23,23,307,46,21,18,091,16,11,06,146,*76
$GPGSV,4,4,14,30,02,036,,194,,,*74
$BDGSV,5,1,18,03,55,199,36,20,53,315,38,08,51,347,39,13,47,330,32*6C
$BDGSV,5,2,18,01,47,137,,29,45,277,43,30,41,202,40,02,39,237,37*66
$BDGSV,5,3,18,04,37,118,,16,28,175,,10,25,218,,06,23,182,28*6A
$BDGSV,5,4,18,07,22,205,33,23,20,072,24,19,18,273,,05,17,255,*66
$BDGSV,5,5,18,09,13,188,,27,02,162,*69
$GNRMC,130829.000,A,3018.4857,N,12004.7425,E,0.17,20.50,270326,,,D*40
$GNVTG,20.50,T,,M,0.17,N,0.32,K,D*16
$GNGGA,130830.000,3018.4857,N,12004.7425,E,2,19,0.67,-28.5,M,7.0,M,,*53
$GNGLL,3018.4857,N,12004.7425,E,130830.000,A,D*4C
$GPGSA,A,3,15,20,05,18,195,29,21,23,24,,,,1.05,0.67,0.81*36
$BDGSA,A,3,03,30,02,13,20,23,08,29,07,06,,,1.05,0.67,0.81*1E
$GPGSV,4,1,14,15,66,351,42,195,58,147,28,20,50,031,23,18,49,313,42*43
$GPGSV,4,2,14,24,48,174,37,13,44,035,20,05,42,076,24,41,36,236,39*79
$GPGSV,4,3,14,29,23,226,43,23,23,307,46,21,18,091,15,11,06,146,*75
$GPGSV,4,4,14,30,02,036,,194,,,*74
$BDGSV,5,1,18,03,55,199,36,20,53,315,40,08,51,347,38,13,47,330,34*64
$BDGSV,5,2,18,01,47,137,,29,45,277,43,30,41,202,40,02,39,237,37*66
$BDGSV,5,3,18,04,37,118,,16,28,175,,10,25,218,,06,23,182,27*65
$BDGSV,5,4,18,07,22,205,32,23,20,072,24,19,18,273,,05,17,255,*67
$BDGSV,5,5,18,09,13,188,,27,02,162,*69
$GNRMC,130830.000,A,3018.4857,N,12004.7425,E,0.17,20.50,270326,,,D*48
$GNVTG,20.50,T,,M,0.17,N,0.31,K,D*15
$GNGGA,130831.000,3018.4858,N,12004.7425,E,2,19,0.67,-28.5,M,7.0,M,,*5D
$GNGLL,3018.4858,N,12004.7425,E,130831.000,A,D*42
$GPGSA,A,3,15,20,05,18,195,29,21,23,24,,,,1.05,0.67,0.81*36
$BDGSA,A,3,03,30,02,13,20,23,08,29,07,06,,,1.05,0.67,0.81*1E
$GPGSV,4,1,14,15,66,351,42,195,58,147,28,20,50,031,23,18,49,313,42*43
$GPGSV,4,2,14,24,48,174,37,13,44,035,19,05,42,076,23,41,36,236,39*74
$GPGSV,4,3,14,29,23,226,44,23,23,307,46,21,18,091,15,11,06,146,*72
$GPGSV,4,4,14,30,02,036,18,194,,,*7D
$BDGSV,5,1,18,03,55,199,36,20,53,315,41,08,51,347,38,13,47,330,35*64
$BDGSV,5,2,18,01,47,137,,29,45,277,43,30,41,202,40,02,39,237,37*66
$BDGSV,5,3,18,04,37,118,,16,29,175,,10,25,218,,06,23,182,27*64
$BDGSV,5,4,18,07,22,205,32,23,20,072,25,19,18,273,,05,17,255,*66
$BDGSV,5,5,18,09,13,188,,27,02,162,*69
$GNRMC,130831.000,A,3018.4858,N,12004.7425,E,0.26,20.50,270326,,,D*44
$GNVTG,20.50,T,,M,0.26,N,0.48,K,D*19
$GNGGA,130832.000,3018.4858,N,12004.7426,E,2,18,0.67,-28.5,M,7.0,M,,*5C
$GNGLL,3018.4858,N,12004.7426,E,130832.000,A,D*42
$GPGSA,A,3,15,20,05,18,195,29,23,24,,,,,1.05,0.67,0.81*35
$BDGSA,A,3,03,30,02,13,20,23,08,29,07,06,,,1.05,0.67,0.81*1E
$GPGSV,4,1,14,15,66,351,42,195,58,147,27,20,50,031,23,18,49,313,42*4C
$GPGSV,4,2,14,24,48,174,37,13,44,035,20,05,42,076,23,41,36,236,39*7E
$GPGSV,4,3,14,29,23,226,45,23,23,307,46,21,18,091,15,11,06,146,*73
$GPGSV,4,4,14,30,02,036,19,194,,,*7C
$BDGSV,5,1,18,03,55,199,36,20,53,315,41,08,51,347,38,13,47,330,35*64
$BDGSV,5,2,18,01,47,137,,29,45,277,43,30,41,202,40,02,39,237,37*66
$BDGSV,5,3,18,04,37,118,,16,29,175,,10,25,218,,06,23,182,26*65
$BDGSV,5,4,18,07,22,205,32,23,20,072,25,19,18,273,,05,17,255,*66
$BDGSV,5,5,18,09,13,188,,27,02,162,*69
$GNRMC,130832.000,A,3018.4858,N,12004.7426,E,0.25,20.50,270326,,,D*47
$GNVTG,20.50,T,,M,0.25,N,0.47,K,D*15
$GNGGA,130833.000,3018.4858,N,12004.7426,E,2,18,0.67,-28.5,M,7.0,M,,*5D
$GNGLL,3018.4858,N,12004.7426,E,130833.000,A,D*43
$GPGSA,A,3,15,20,05,18,195,29,23,24,,,,,1.05,0.67,0.81*35
