57,36,05,41,259,41,19,,,33*4D
$GPGSV,3,2,09,25,,,27,20,,,29,06,,,33,13,,,29*75
$GPGSV,3,3,09,12,,,28*79
$GPRMC,090938.081,V,,,,,0.12,40.84,110806,,,N*7A
$GPVTG,40.84,T,,M,0.12,N,0.22,K,N*09
$GPGGA,090939.081,,,,,0,0,,,M,,M,,*4B
$GPGLL,,,,,090939.081,V,N*79
$GPGSA,A,1,,,,,,,,,,,,,,,*1E
$GPGSV,3,1,09,21,68,289,39,11,59,357,36,05,41,259,41,19,,,33*4D
$GPGSV,3,2,09,25,,,27,20,,,29,06,,,33,13,,,29*75
$GPGSV,3,3,09,12,,,28*79
$GPRMC,090939.081,V,,,,,0.53,140.14,110806,,,N*46
$GPVTG,140.14,T,,M,0.53,N,0.98,K,N*35
$GPGGA,090940.081,,,,,0,0,,,M,,M,,*45
$GPGLL,,,,,090940.081,V,N*77
$GPGSA,A,1,,,,,,,,,,,,,,,*1E
$GPGSV,3,1,09,21,68,289,39,11,59,357,36,05,41,259,41,19,,,33*4D
$GPGSV,3,2,09,25,,,27,20,,,29,06,,,33,13,,,29*75
$GPGSV,3,3,09,12,,,28*79
$GPRMC,090940.081,V,,,,,0.04,83.14,110806,,,N*74
$GPVTG,83.14,T,,M,0.04,N,0.07,K,N*0F
$GPGGA,090941.081,,,,,0,0,,,M,,M,,*44
$GPGLL,,,,,090941.081,V,N*76
$GPGSA,A,1,,,,,,,,,,,,,,,*1E
$GPGSV,3,1,09,21,68,289,39,11,59,357,36,05,41,259,41,19,,,33*4D
$GPGSV,3,2,09,25,,,27,20,,,29,06,,,33,13,,,29*75
$GPGSV,3,3,09,12,,,27*76
$GPRMC,090941.081,V,,,,,0.36,157.19,110806,,,N*41
$GPVTG,157.19,T,,M,0.36,N,0.66,K,N*3C
$GPGGA,090942.081,,,,,0,0,,,M,,M,,*47
$GPGLL,,,,,090942.081,V,N*75
$GPGSA,A,1,,,,,,,,,,,,,,,*1E
$GPGSV,3,1,09,21,68,289,39,11,59,357,36,05,41,259,41,19,,,33*4D
$GPGSV,3,2,09,25,,,27,20,,,29,06,,,33,13,,,29*75
$GPGSV,3,3,09,12,,,27*76
$GPRMC,090942.081,V,,,,,0.11,245.82,110806,,,N*45
$GPVTG,245.82,T,,M,0.11,N,0.21,K,N*38
$GPGGA,090943.081,,,,,0,0,,,M,,M,,*46
$GPGLL,,,,,090943.081,V,N*74
$GPGSA,A,1,,,,,,,,,,,,,,,*1E
$GPGSV,3,1,09,21,68,289,39,11,59,357,36,05,41,259,41,19,,,34*4A
$GPGSV,3,2,09,25,,,28,20,,,29,06,,,33,13,,,29*7A
$GPGSV,3,3,09,12,,,27*76
$GPRMC,090943.081,V,,,,,0.14,327.45,110806,,,N*4F
$GPVTG,327.45,T,,M,0.14,N,0.25,K,N*37
$GPGGA,090944.081,,,,,0,0,,,M,,M,,*41
$GPGLL,,,,,090944.081,V,N*73
$GPGSA,A,1,,,,,,,,,,,,,,,*1E
$GPGSV,3,1,09,21,68,289,39,11,59,357,36,05,41,259,41,19,,,34*4A
$GPGSV,3,2,09,25,,,28,20,,,29,06,,,33,13,,,29*7A
$GPGSV,3,3,09,12,,,27*76
$GPRMC,090944.081,V,,,,,0.31,121.69,110806,,,N*45
$GPVTG,121.69,T,,M,0.31,N,0.57,K,N*3F
$GPGGA,090945.081,,,,,0,0,,,M,,M,,*40
$GPGLL,,,,,090945.081,V,N*72
$GPGSA,A,1,,,,,,,,,,,,,,,*1E
$GPGSV,3,1,09,21,68,289,39,11,59,357,36,05,41,259,41,19,,,34*4A
$GPGSV,3,2,09,25,,,28,20,,,29,06,,,33,13,,,29*7A
$GPGSV,3,3,09,12,,,27*76
$GPRMC,090945.081,V,,,,,0.37,121.98,110806,,,N*4C
$GPVTG,121.98,T,,M,0.37,N,0.69,K,N*3A
$GPGGA,090946.081,,,,,0,0,,,M,,M,,*43
$GPGLL,,,,,090946.081,V,N*71
$GPGSA,A,1,,,,,,,,,,,,,,,*1E
$GPGSV,3,1,09,21,68,289,39,11,59,357,36,05,41,259,41,19,,,34*4A
$GPGSV,3,2,09,25,,,28,20,,,29,06,,,33,13,,,29*7A
$GPGSV,3,3,09,12,,,27*76
$GPRMC,090946.081,V,,,,,0.04,19.97,110806,,,N*7A
$GPVTG,19.97,T,,M,0.04,N,0.08,K,N*08
$GPGGA,090947.081,,,,,0,0,,,M,,M,,*42
$GPGLL,,,,,090947.081,V,N*70
$GPGSA,A,1,,,,,,,,,,,,,,,*1E
$GPGSV,3,1,09,21,68,289,39,11,59,357,36,05,41,259,41,19,,,34*4A
$GPGSV,3,2,09,25,,,27,20,,,29,06,,,33,13,,,29*75
$GPGSV,3,3,09,12,,,27*76
$GPRMC,090947.081,V,,,,,0.29,145.72,110806,,,N*47
$GPVTG,145.72,T,,M,0.29,N,0.53,K,N*3A
$GPGGA,090948.081,3018.4201,N,12004.6546,E,1,5,1.67,24.9,M,7.0,M,,*5F
$GPGLL,3018.4201,N,12004.6546,E,090948.081,A,A*57
$GPGSA,A,3,19,21,11,05,25,,,,,,,,1.90,1.67,0.90*0A
$GPGSV,3,1,10,21,68,289,39,11,59,357,36,05,41,259,41,19,37,147,34*74
$GPGSV,3,2,10,25,12,293,26,40,11,255,,20,,,29,06,,,33*78
$GPGSV,3,3,10,13,,,29,12,,,27*77
$GPRMC,090948.081,A,3018.4201,N,12004.6546,E,0.26,199.01,110806,,,A*6A
$GPVTG,199.01,T,,M,0.26,N,0.49,K,A*34
$GPGGA,090949.081,3018.4205,N,12004.6546,E,1,5,1.67,22.0,M,7.0,M,,*55
$GPGLL,3018.4205,N,12004.6546,E,090949.081,A,A*52
$GPGSA,A,3,19,21,11,05,25,,,,,,,,1.90,1.67,0.90*0A
$GPGSV,3,1,10,21,68,289,39,11,59,357,37,05,41,259,41,19,37,147,34*75
$GPGSV,3,2,10,25,12,293,26,40,11,255,,20,,,29,06,,,33*78
$GPGSV,3,3,10,13,,,29,12,,,27*77
$GPRMC,090949.081,A,3018.4205,N,12004.6546,E,0.24,198.50,110806,,,A*68
$GPVTG,198.50,T,,M,0.24,N,0.44,K,A*3E
$GPGGA,090951.000,3018.4207,N,12004.6545,E,1,5,1.67,21.0,M,7.0,M,,*57
$GPGLL,3018.4207,N,12004.6545,E,090951.000,A,A*53
$GPGSA,A,3,19,21,11,05,25,,,,,,,,1.90,1.67,0.90*0A
$GPGSV,3,1,10,21,68,289,39,11,59,357,37,05,41,259,41,19,37,147,34*75
$GPGSV,3,2,10,25,12,293,26,40,11,255,,20,,,29,06,,,33*78
$GPGSV,3,3,10,13,,,29,12,,,28*78
$GPRMC,090951.000,A,3018.4207,N,12004.6545,E,0.14,265.88,110806,,,A*6E
$GPVTG,265.88,T,,M,0.14,N,0.25,K,A*3E
$GPGGA,090952.000,3018.4208,N,12004.6546,E,1,5,1.67,19.9,M,7.0,M,,*5A
$GPGLL,3018.4208,N,12004.6546,E,090952.000,A,A*5C
$GPGSA,A,3,19,21,11,05,25,,,,,,,,1.90,1.67,0.90*0A
$GPGSV,3,1,10,21,68,289,39,11,59,357,37,05,41,259,41,19,37,147,34*75
$GPGSV,3,2,10,25,12,293,26,40,11,255,,20,,,28,06,,,33*79
$GPGSV,3,3,10,13,,,29,12,,,28*78
$GPRMC,090952.000,A,3018.4208,N,12004.6546,E,0.06,52.12,110806,,,A*57
$GPVTG,52.12,T,,M,0.06,N,0.12,K,A*0C
$GPGGA,090953.000,3018.4209,N,12004.6547,E,1,5,1.67,18.6,M,7.0,M,,*55
$GPGLL,3018.4209,N,12004.6547,E,090953.000,A,A*5D
$GPGSA,A,3,19,21,11,05,25,,,,,,,,1.90,1.67,0.90*0A
$GPGSV,3,1,10,21,68,290,39,11,59,357,37,05,41,259,42,19,37,147,34*7E
$GPGSV,3,2,10,25,12,293,26,40,11,255,30,20,,,28,06,,,33*7A
$GPGSV,3,3,10,13,,,29,12,,,28*78
$GPRMC,090953.000,A,3018.4209,N,12004.6547,E,0.07,140.39,110806,,,A*6C
$GPVTG,140.39,T,,M,0.07,N,0.12,K,A*36
$GPGGA,090954.000,3018.4211,N,12004.6548,E,1,5,1.67,17.5,M,7.0,M,,*58
$GPGLL,3018.4211,N,12004.6548,E,090954.000,A,A*5C
$GPGSA,A,3,19,21,11,05,25,,,,,,,,1.90,1.67,0.90*0A
$GPGSV,3,1,10,21,68,290,39,11,59,357,37,05,41,259,42,19,37,147,34*7E
$GPGSV,3,2,10,25,12,293,25,40,11,255,28,20,,,28,06,,,33*70
$GPGSV,3,3,10,13,,,29,12,,,29*79
$GPRMC,090954.000,A,3018.4211,N,12004.6548,E,0.06,140.74,110806,,,A*65
$GPVTG,140.74,T,,M,0.06,N,0.12,K,A*3E
$GPGGA,090955.000,3018.4211,N,12004.6548,E,1,5,1.67,16.9,M,7.0,M,,*54
$GPGLL,3018.4211,N,12004.6548,E,090955.000,A,A*5D
$GPGSA,A,3,19,21,11,05,25,,,,,,,,1.90,1.67,0.90*0A
$GPGSV,3,1,10,21,68,290,39,11,59,357,37,05,41,259,42,19,37,147,34*7E
$GPGSV,3,2,10,25,12,293,25,40,11,255,29,20,,,28,06,,,33*71
$GPGSV,3,3,10,13,,,29,12,,,29*79
$GPRMC,090955.000,A,3018.4211,N,12004.6548,E,0.04,141.00,110806,,,A*64
$GPVTG,141.00,T,,M,0.04,N,0.08,K,A*35
$GPGGA,090956.000,3018.4212,N,12004.6549,E,1,5,1.67,16.0,M,7.0,M,,*5C
$GPGLL,3018.4212,N,12004.6549,E,090956.000,A,A*5C
$GPGSA,A,3,19,21,11,05,25,,,,,,,,1.90,1.67,0.90*0A
$GPGSV,3,1,10,21,68,290,39,11,59,357,37,05,41,259,42,19,37,147,34*7E
$GPGSV,3,2,10,25,12,293,25,40,11,255,29,20,,,28,06,,,33*71
$GPGSV,3,3,10,13,,,29,12,,,29*79
$GPRMC,090956.000,A,3018.4212,N,12004.6549,E,0.03,152.01,110806,,,A*61
$GPVTG,152.01,T,,M,0.03,N,0.05,K,A*3C
$GPGGA,090957.000,3018.4212,N,12004.6550,E,1,5,1.67,15.0,M,7.0,M,,*56
$GPGLL,3018.4212,N,12004.6550,E,090957.000,A,A*55
$GPGSA,A,3,19,21,11,05,25,,,,,,,,1.90,1.67,0.90*0A
$GPGSV,3,1,10,21,68,290,39,11,59,357,37,05,41,259,42,19,37,147,34*7E
$GPGSV,3,2,10,25,12,293,25,40,11,255,30,20,,,28,06,,,33*79
$GPGSV,3,3,10,13,,,29,12,,,29*79
$GPRMC,090957.000,A,3018.4212,N,12004.6550,E,0.02,114.91,110806,,,A*62
$GPVTG,114.91,T,,M,0.02,N,0.03,K,A*30
$GPGGA,090958.000,3018.4212,N,12004.6551,E,1,5,1.67,14.4,M,7.0,M,,*5D
$GPGLL,3018.4212,N,12004.6551,E,090958.000,A,A*5B
$GPGSA,A,3,19,21,11,05,25,,,,,,,,1.90,1.67,0.90*0A
$GPGSV,3,1,10,21,68,290,39,11,59,357,37,05,41,259,42,19,37,147,34*7E
$GPGSV,3,2,10,25,12,293,25,40,11,255,29,20,,,28,06,,,33*71
$GPGSV,3,3,10,13,,,29,12,,,29*79
$GPRMC,090958.000,A,3018.4212,N,12004.6551,E,0.04,87.56,110806,,,A*5A
$GPVTG,87.56,T,,M,0.04,N,0.08,K,A*0D
$GPGGA,090959.000,3018.4213,N,12004.6552,E,1,5,1.67,13.7,M,7.0,M,,*5A
$GPGLL,3018.4213,N,12004.6552,E,090959.000,A,A*58
$GPGSA,A,3,19,21,11,05,25,,,,,,,,1.90,1.67,0.90*0A
$GPGSV,3,1,10,21,68,290,39,11,59,357,37,05,41,259,42,19,37,147,34*7E
$GPGSV,3,2,10,25,12,293,25,40,11,255,28,20,,,28,06,,,33*70
$GPGSV,3,3,10,13,,,29,12,,,29*79
$GPRMC,090959.000,A,3018.4213,N,12004.6552,E,0.03,107.46,110806,,,A*66
$GPVTG,107.46,T,,M,0.03,N,0.05,K,A*3F
$GPGGA,091000.000,3018.4213,N,12004.6553,E,1,5,1.67,13.2,M,7.0,M,,*5A
$GPGLL,3018.4213,N,12004.6553,E,091000.000,A,A*5D
$GPGSA,A,3,19,21,11,05,25,,,,,,,,1.90,1.67,0.90*0A
$GPGSV,3,1,10,21,68,290,39,11,59,357,37,05,41,259,42,19,37,147,34*7E
$GPGSV,3,2,10,25,12,293,25,40,11,255,28,20,,,28,06,,,33*70
$GPGSV,3,3,10,13,,,29,12,,,30*71
$GPRMC,091000.000,A,3018.4213,N,12004.6553,E,0.03,129.93,110806,,,A*67
$GPVTG,129.93,T,,M,0.03,N,0.06,K,A*38
$GPGGA,091001.000,3018.4214,N,12004.6553,E,1,9,0.95,13.4,M,7.0,M,,*5A
$GPGLL,3018.4214,N,12004.6553,E,091001.000,A,A*5B
$GPGSA,A,3,19,21,11,05,25,20,06,13,12,,,,1.28,0.95,0.87*06
$GPGSV,3,1,10,21,68,290,39,11,59,357,37,06,43,069,33,05,41,259,42*79
$GPGSV,3,2,10,19,37,147,34,12,25,256,30,20,16,193,28,13,15,184,29*72
$GPGSV,3,3,10,25,12,293,25,40,11,255,28*7F
$GPRMC,091001.000,A,3018.4214,N,12004.6553,E,0.03,104.30,110806,,,A*67
$GPVTG,104.30,T,,M,0.03,N,0.06,K,A*3E
$GPGGA,091002.000,3018.4215,N,12004.6555,E,1,9,0.95,13.1,M,7.0,M,,*5B
$GPGLL,3018.4215,N,12004.6555,E,091002.000,A,A*5F
$GPGSA,A,3,19,21,11,05,25,20,06,13,12,,,,1.28,0.95,0.87*06
$GPGSV,3,1,10,21,68,290,39,11,59,357,37,06,43,069,33,05,41,259,42*79
$GPGSV,3,2,10,19,37,147,34,12,25,256,30,20,16,193,27,13,15,184,29*7D
$GPGSV,3,3,10,25,12,293,25,40,11,255,28*7F
$GPRMC,091002.000,A,3018.4215,N,12004.6555,E,0.05,89.08,110806,,,A*5A
$GPVTG,89.08,T,,M,0.05,N,0.10,K,A*00
$GPGGA,091003.000,3018.4216,N,12004.6556,E,1,9,0.95,13.1,M,7.0,M,,*5A
$GPGLL,3018.4216,N,12004.6556,E,091003.000,A,A*5E
$GPGSA,A,3,19,21,11,05,25,20,06,13,12,,,,1.28,0.95,0.87*06
$GPGSV,3,1,10,21,68,290,39,11,59,357,37,06,43,069,33,05,41,259,42*79
$GPGSV,3,2,10,19,37,147,34,12,25,256,30,20,16,193,27,13,15,184,29*7D
$GPGSV,3,3,10,25,12,293,27,40,11,255,28*7D
$GPRMC,091003.000,A,3018.4216,N,12004.6556,E,0.06,50.31,110806,,,A*56
$GPVTG,50.31,T,,M,0.06,N,0.10,K,A*0D
$GPGGA,091004.000,3018.4218,N,12004.6557,E,1,9,0.95,12.3,M,7.0,M,,*51
$GPGLL,3018.4218,N,12004.6557,E,091004.000,A,A*56
$GPGSA,A,3,19,21,11,05,25,20,06,13,12,,,,1.28,0.95,0.87*06
$GPGSV,3,1,10,21,68,290,39,11,59,357,37,06,43,069,33,05,41,259,42*79
$GPGSV,3,2,10,19,37,147,34,12,25,256,30,20,16,193,26,13,15,184,29*7C
$GPGSV,3,3,10,25,12,293,27,40,11,255,28*7D
$GPRMC,091004.000,A,3018.4218,N,12004.6557,E,0.11,14.67,110806,,,A*5B
$GPVTG,14.67,T,,M,0.11,N,0.21,K,A*0A
$GPGGA,091005.000,3018.4220,N,12004.6557,E,1,9,1.07,12.1,M,7.0,M,,*53
$GPGLL,3018.4220,N,12004.6557,E,091005.000,A,A*5C
$GPGSA,A,3,19,21,11,05,25,20,06,13,12,,,,2.06,1.07,1.76*0C
$GPGSV,3,1,10,21,68,290,39,11,59,357,37,06,43,069,33,05,41,259,42*79
$GPGSV,3,2,10,19,37,147,34,12,25,256,30,20,16,193,26,13,15,184,29*7C
$GPGSV,3,3,10,25,12,293,28,40,11,255,28*72
$GPRMC,091005.000,A,3018.4220,N,12004.6557,E,0.13,12.72,110806,,,A*51
$GPVTG,12.72,T,,M,0.13,N,0.23,K,A*08
$GPGGA,091006.000,3018.4221,N,12004.6557,E,1,9,1.07,12.0,M,7.0,M,,*50
$GPGLL,3018.4221,N,12004.6557,E,091006.000,A,A*5E
$GPGSA,A,3,19,21,11,05,25,20,06,13,12,,,,2.06,1.07,1.76*0C
$GPGSV,3,1,10,21,68,290,39,11,59,357,37,06,43,069,33,05,41,259,42*79
$GPGSV,3,2,10,19,37,147,34,12,25,256,30,20,16,193,26,13,15,184,29*7C
$GPGSV,3,3,10,25,12,293,28,40,11,255,28*72
$GPRMC,091006.000,A,3018.4221,N,12004.6557,E,0.03,65.01,110806,,,A*56
$GPVTG,65.01,T,,M,0.03,N,0.06,K,A*0A
$GPGGA,091007.000,3018.4222,N,12004.6558,E,1,9,0.95,11.8,M,7.0,M,,*5C
$GPGLL,3018.4222,N,12004.6558,E,091007.000,A,A*53
$GPGSA,A,3,19,21,11,05,25,20,06,13,12,,,,1.28,0.95,0.87*06
$GPGSV,3,1,10,21,68,290,39,11,59,357,37,06,43,069,33,05,41,259,42*79
$GPGSV,3,2,10,19,37,147,34,12,25,256,30,20,16,193,26,13,15,184,29*7C
$GPGSV,3,3,10,25,12,293,28,40,11,255,28*72
$GPRMC,091007.000,A,3018.4222,N,12004.6558,E,0.03,176.98,110806,,,A*68
$GPVTG,176.98,T,,M,0.03,N,0.06,K,A*39
$GPGGA,091008.000,3018.4222,N,12004.6558,E,1,9,0.95,11.8,M,7.0,M,,*53
$GPGLL,3018.4222,N,12004.6558,E,091008.000,A,A*5C
$GPGSA,A,3,19,21,11,05,25,20,06,13,12,,,,1.28,0.95,0.87*06
$GPGSV,3,1,10,21,68,290,39,11,59,357,37,06,43,069,33,05,41,259,42*79
$GPGSV,3,2,10,19,37,147,34,12,25,256,30,20,16,193,26,13,15,184,29*7C
$GPGSV,3,3,10,25,12,293,29,40,11,255,28*73
$GPRMC,091008.000,A,3018.4222,N,12004.6558,E,0.01,126.47,110806,,,A*62
$GPVTG,126.47,T,,M,0.01,N,0.02,K,A*38
$GPGGA,091009.000,3018.4222,N,12004.6558,E,1,9,0.95,11.8,M,7.0,M,,*52
$GPGLL,3018.4222,N,12004.6558,E,091009.000,A,A*5D
$GPGSA,A,3,19,21,11,05,25,20,06,13,12,,,,1.28,0.95,0.87*06
$GPGSV,3,1,10,21,68,290,39,11,59,357,37,06,43,069,33,05,41,259,42*79
$GPGSV,3,2,10,19,37,147,34,12,25,256,30,20,16,193,26,13,15,184,29*7C
$GPGSV,3,3,10,25,12,293,28,40,11,255,27*7D
$GPRMC,091009.000,A,3018.4222,N,12004.6558,E,0.04,204.79,110806,,,A*68
$GPVTG,204.79,T,,M,0.04,N,0.08,K,A*39
$GPGGA,091010.000,3018.4223,N,12004.6558,E,1,9,0.95,11.6,M,7.0,M,,*55
$GPGLL,3018.4223,N,12004.6558,E,091010.000,A,A*54
$GPGSA,A,3,19,21,11,05,25,20,06,13,12,,,,1.28,0.95,0.87*06
$GPGSV,3,1,10,21,68,290,39,11,59,357,37,06,43,069,33,05,41,259,42*79
$GPGSV,3,2,10,19,37,147,34,12,25,256,30,20,16,193,26,13,15,184,29*7C
$GPGSV,3,3,10,25,12,293,29,40,11,255,27*7C
$GPRMC,091010.000,A,3018.4223,N,12004.6558,E,0.10,337.09,110806,,,A*62
$GPVTG,337.09,T,,M,0.10,N,0.18,K,A*3B
$GPGGA,091011.000,3018.4223,N,12004.6558,E,1,9,0.95,11.4,M,7.0,M,,*56
$GPGLL,3018.4223,N,12004.6558,E,091011.000,A,A*55
$GPGSA,A,3,19,21,11,05,25,20,06,13,12,,,,1.28,0.95,0.87*06
$GPGSV,3,1,10,21,68,290,39,11,59,357,37,06,43,069,33,05,41,259,42*79
$GPGSV,3,2,10,19,37,147,34,12,25,256,30,20,16,193,26,13,15,184,29*7C
$GPGSV,3,3,10,25,12,293,29,40,11,255,27*7C
$GPRMC,091011.000,A,3018.4223,N,12004.6558,E,0.10,128.57,110806,,,A*64
$GPVTG,128.57,T,,M,0.10,N,0.18,K,A*3C
$GPGGA,091012.000,3018.4222,N,12004.6559,E,1,9,0.95,11.4,M,7.0,M,,*55
$GPGLL,3018.4222,N,12004.6559,E,091012.000,A,A*56
$GPGSA,A,3,19,21,11,05,25,20,06,13,12,,,,1.28,0.95,0.87*06
$GPGSV,3,1,10,21,68,290,39,11,59,357,37,06,43,069,33,05,41,259,42*79
$GPGSV,3,2,10,19,37,147,34,12,25,256,30,20,16,193,25,13,15,184,29*7F
$GPGSV,3,3,10,25,12,293,29,40,11,255,27*7C
$GPRMC,091012.000,A,3018.4222,N,12004.6559,E,0.07,139.36,110806,,,A*66
$GPVTG,139.36,T,,M,0.07,N,0.12,K,A*37
$GPGGA,091013.000,3018.4222,N,12004.6560,E,1,9,0.95,11.5,M,7.0,M,,*5F
$GPGLL,3018.4222,N,12004.6560,E,091013.000,A,A*5D
$GPGSA,A,3,19,21,11,05,25,20,06,13,12,,,,1.28,0.95,0.87*06
$GPGSV,3,1,10,21,68,290,39,11,59,357,37,06,43,069,33,05,41,259,42*79
$GPGSV,3,2,10,19,37,147,34,12,25,256,30,20,16,193,25,13,15,184,29*7F
$GPGSV,3,3,10,25,12,293,29,40,11,255,27*7C
$GPRMC,091013.000,A,3018.4222,N,12004.6560,E,0.08,115.04,110806,,,A*6D
$GPVTG,115.04,T,,M,0.08,N,0.15,K,A*30
$GPGGA,091014.000,3018.4222,N,12004.6560,E,1,9,0.95,11.3,M,7.0,M,,*5E
$GPGLL,3018.4222,N,12004.6560,E,091014.000,A,A*5A
$GPGSA,A,3,19,21,11,05,25,20,06,13,12,,,,1.28,0.95,0.87*06
$GPGSV,3,1,10,21,68,290,38,11,59,357,37,06,43,069,33,05,41,259,42*78
$GPGSV,3,2,10,19,37,147,34,12,25,256,30,20,16,193,25,13,15,184,29*7F
$GPGSV,3,3,10,25,12,293,29,40,11,255,27*7C
$GPRMC,091014.000,A,3018.4222,N,12004.6560,E,0.02,82.73,110806,,,A*5F
$GPVTG,82.73,T,,M,0.02,N,0.03,K,A*02
$GPGGA,091015.000,3018.4222,N,12004.6561,E,1,9,0.95,11.2,M,7.0,M,,*5F
$GPGLL,3018.4222,N,12004.6561,E,091015.000,A,A*5A
$GPGSA,A,3,19,21,11,05,25,20,06,13,12,,,,1.28,0.95,0.87*06
$GPGSV,3,1,10,21,68,290,38,11,59,357,37,06,43,069,33,05,41,259,42*78
$GPGSV,3,2,10,19,37,147,34,12,25,256,30,20,16,193,25,13,15,184,29*7F
$GPGSV,3,3,10,25,12,293,29,40,11,255,27*7C
$GPRMC,091015.000,A,3018.4222,N,12004.6561,E,0.19,136.51,110806,,,A*6B
$GPVTG,136.51,T,,M,0.19,N,0.34,K,A*32
$GPGGA,091016.000,3018.4222,N,12004.6561,E,1,9,0.95,11.2,M,7.0,M,,*5C
$GPGLL,3018.4222,N,12004.6561,E,091016.000,A,A*59
$GPGSA,A,3,19,21,11,05,25,20,06,13,12,,,,1.28,0.95,0.87*06
$GPGSV,3,1,10,21,68,290,38,11,59,357,37,06,43,069,33,05,41,259,42*78
$GPGSV,3,2,10,19,37,147,34,12,25,256,30,20,16,193,25,13,15,184,29*7F
$GPGSV,3,3,10,25,12,293,29,40,11,255,27*7C
$GPRMC,091016.000,A,3018.4222,N,12004.6561,E,0.03,67.07,110806,,,A*55
$GPVTG,67.07,T,,M,0.03,N,0.06,K,A*0E
$GPGGA,091017.000,3018.4223,N,12004.6561,E,1,9,0.95,10.9,M,7.0,M,,*56
$GPGLL,3018.4223,N,12004.6561,E,091017.000,A,A*59
$GPGSA,A,3,19,21,11,05,25,20,06,13,12,,,,1.28,0.95,0.87*06
$GPGSV,3,1,10,21,68,290,38,11,59,357,37,06,43,069,33,05,41,259,42*78
$GPGSV,3,2,10,19,37,147,34,12,25,256,30,20,16,193,25,13,15,184,29*7F
$GPGSV,3,3,10,25,12,293,29,40,11,255,27*7C
$GPRMC,091017.000,A,3018.4223,N,12004.6561,E,0.01,121.28,110806,,,A*69
$GPVTG,121.28,T,,M,0.01,N,0.01,K,A*35
$GPGGA,091018.000,3018.4223,N,12004.6562,E,1,9,0.95,10.7,M,7.0,M,,*54
$GPGLL,3018.4223,N,12004.6562,E,091018.000,A,A*55
$GPGSA,A,3,19,21,11,05,25,20,06,13,12,,,,1.28,0.95,0.87*06
$GPGSV,3,1,10,21,68,290,38,11,59,357,37,06,43,069,33,05,41,259,42*78
$GPGSV,3,2,10,19,37,147,34,12,25,256,30,20,16,193,25,13,15,184,29*7F
$GPGSV,3,3,10,25,12,293,29,40,11,255,27*7C
$GPRMC,091018.000,A,3018.4223,N,12004.6562,E,0.07,16.97,110806,,,A*52
$GPVTG,16.97,T,,M,0.07,N,0.12,K,A*00
$GPGGA,091019.000,3018.4223,N,12004.6562,E,1,9,0.95,10.8,M,7.0,M,,*5A
$GPGLL,3018.4223,N,12004.6562,E,091019.000,A,A*54
$GPGSA,A,3,19,21,11,05,25,20,06,13,12,,,,1.28,0.95,0.87*06
$GPGSV,3,1,10,21,68,290,38,11,59,357,37,06,43,069,33,05,41,259,42*78
$GPGSV,3,2,10,19,37,147,34,12,25,256,30,20,16,193,25,13,15,184,29*7F
$GPGSV,3,3,10,25,12,293,29,40,11,255,27*7C
$GPRMC,091019.000,A,3018.4223,N,12004.6562,E,0.03,257.51,110806,,,A*6A
$GPVTG,257.51,T,,M,0.03,N,0.05,K,A*3F
$GPGGA,091020.000,3018.4224,N,12004.6561,E,1,9,0.95,10.8,M,7.0,M,,*54
$GPGLL,3018.4224,N,12004.6561,E,091020.000,A,A*5A
$GPGSA,A,3,19,21,11,05,25,20,06,13,12,,,,1.28,0.95,0.87*06
$GPGSV,3,1,10,21,68,290,38,11,59,357,37,42,48,143,,06,43,069,33*7C
$GPGSV,3,2,10,05,41,259,42,19,37,147,34,12,25,256,30,20,16,193,25*77
$GPGSV,3,3,10,13,15,184,29,25,12,293,29*7F
$GPRMC,091020.000,A,3018.4224,N,12004.6561,E,0.05,98.34,110806,,,A*50
$GPVTG,98.34,T,,M,0.05,N,0.10,K,A*0F
$GPGGA,091021.000,3018.4224,N,12004.6561,E,1,9,0.95,10.8,M,7.0,M,,*55
$GPGLL,3018.4224,N,12004.6561,E,091021.000,A,A*5B
$GPGSA,A,3,19,21,11,05,25,20,06,13,12,,,,1.28,0.95,0.87*06
$GPGSV,3,1,10,21,68,290,38,11,59,357,37,42,48,143,30,06,43,069,33*7F
$GPGSV,3,2,10,05,41,259,42,19,37,147,34,12,25,256,30,20,16,193,25*77
$GPGSV,3,3,10,13,15,184,29,25,12,293,29*7F
$GPRMC,091021.000,A,3018.4224,N,12004.6561,E,0.05,128.82,110806,,,A*66
$GPVTG,128.82,T,,M,0.05,N,0.09,K,A*30
$GPGGA,091022.000,3018.4224,N,12004.6561,E,1,9,0.95,10.9,M,7.0,M,,*57
$GPGLL,3018.4224,N,12004.6561,E,091022.000,A,A*58
$GPGSA,A,3,19,21,11,05,25,20,06,13,12,,,,1.28,0.95,0.87*06
$GPGSV,3,1,10,21,68,290,38,11,59,357,37,42,48,143,30,06,43,069,33*7F
$GPGSV,3,2,10,05,41,259,42,19,37,147,34,12,25,256,30,20,16,193,25*77
$GPGSV,3,3,10,13,15,184,30,25,12,293,29*77
$GPRMC,091022.000,A,3018.4224,N,12004.6561,E,0.03,73.85,110806,,,A*5B
$GPVTG,73.85,T,,M,0.03,N,0.05,K,A*02
$GPGGA,091023.000,3018.4223,N,12004.6561,E,1,9,0.95,11.1,M,7.0,M,,*58
$GPGLL,3018.4223,N,12004.6561,E,091023.000,A,A*5E
$GPGSA,A,3,19,21,11,05,25,20,06,13,12,,,,1.28,0.95,0.87*06
$GPGSV,3,1,10,21,68,290,38,11,59,357,37,42,48,143,31,06,43,069,33*7E
$GPGSV,3,2,10,05,41,259,42,19,37,147,34,12,25,256,30,20,16,193,25*77
$GPGSV,3,3,10,13,15,184,30,25,12,293,30*7F
$GPRMC,091023.000,A,3018.4223,N,12004.6561,E,0.03,17.32,110806,,,A*53
$GPVTG,17.32,T,,M,0.03,N,0.06,K,A*0F
$GPGGA,091024.000,3018.4223,N,12004.6562,E,1,9,0.95,11.1,M,7.0,M,,*5C
$GPGLL,3018.4223,N,12004.6562,E,091024.000,A,A*5A
$GPGSA,A,3,19,21,11,05,25,20,06,13,12,,,,1.28,0.95,0.87*06
$GPGSV,3,1,11,21,68,290,38,11,59,357,37,42,48,143,29,06,43,069,33*76
$GPGSV,3,2,11,05,41,259,42,19,37,147,34,12,25,256,30,20,16,193,24*77
$GPGSV,3,3,11,13,15,184,30,25,12,293,30,17,,,24*7E
$GPRMC,091024.000,A,3018.4223,N,12004.6562,E,0.02,156.95,110806,,,A*6F
$GPVTG,156.95,T,,M,0.02,N,0.04,K,A*35
$GPGGA,091025.000,3018.4222,N,12004.6562,E,1,9,0.95,11.3,M,7.0,M,,*5E
$GPGLL,3018.4222,N,12004.6562,E,091025.000,A,A*5A
$GPGSA,A,3,19,21,11,05,25,20,06,13,12,,,,1.28,0.95,0.87*06
$GPGSV,3,1,11,21,68,290,38,11,59,357,37,42,48,143,30,06,43,069,33*7E
$GPGSV,3,2,11,05,41,259,42,19,37,147,34,12,25,256,30,20,16,193,24*77
$GPGSV,3,3,11,13,15,184,30,25,12,293,31,17,,,25*7E
$GPRMC,091025.000,A,3018.4222,N,12004.6562,E,0.02,50.84,110806,,,A*58
$GPVTG,50.84,T,,M,0.02,N,0.04,K,A*02
$GPGGA,091026.000,3018.4222,N,12004.6562,E,1,9,0.95,11.4,M,7.0,M,,*5A
$GPGLL,3018.4222,N,12004.6562,E,091026.000,A,A*59
$GPGSA,A,3,19,21,11,05,25,20,06,13,12,,,,1.28,0.95,0.87*06
$GPGSV,3,1,11,21,68,290,38,11,59,357,37,42,48,143,30,06,43,069,33*7E
$GPGSV,3,2,11,05,41,259,42,19,37,147,34,12,25,256,30,20,16,193,24*77
$GPGSV,3,3,11,13,15,184,30,25,12,293,31,17,,,25*7E
$GPRMC,091026.000,A,3018.4222,N,12004.6562,E,0.05,50.35,110806,,,A*56
$GPVTG,50.35,T,,M,0.05,N,0.08,K,A*03
$GPGGA,091027.000,3018.4222,N,12004.6562,E,1,9,0.95,11.5,M,7.0,M,,*5A
$GPGLL,3018.4222,N,12004.6562,E,091027.000,A,A*58
$GPGSA,A,3,19,21,11,05,25,20,06,13,12,,,,1.28,0.95,0.87*06
$GPGSV,3,1,11,21,68,290,38,11,59,357,37,42,48,143,30,06,43,069,33*7E
$GPGSV,3,2,11,05,41,259,42,19,37,147,34,12,25,256,30,20,16,193,24*77
$GPGSV,3,3,11,13,15,184,30,25,12,293,31,17,,,25*7E
$GPRMC,091027.000,A,3018.4222,N,12004.6562,E,0.03,171.27,110806,,,A*60
$GPVTG,171.27,T,,M,0.03,N,0.05,K,A*39
$GPGGA,091028.000,3018.4222,N,12004.6561,E,1,9,0.95,11.7,M,7.0,M,,*54
$GPGLL,3018.4222,N,12004.6561,E,091028.000,A,A*54
$GPGSA,A,3,19,21,11,05,25,20,06,13,12,,,,1.28,0.95,0.87*06
$GPGSV,3,1,11,21,68,290,38,11,59,357,37,42,48,143,29,06,43,069,33*76
$GPGSV,3,2,11,05,41,259,42,19,37,147,34,12,25,256,31,20,16,193,24*76
$GPGSV,3,3,11,13,15,184,30,25,12,293,31,17,,,25*7E
$GPRMC,091028.000,A,3018.4222,N,12004.6561,E,0.02,75.53,110806,,,A*5B
$GPVTG,75.53,T,,M,0.02,N,0.04,K,A*0F
$GPGGA,091029.000,3018.4222,N,12004.6561,E,1,9,0.95,12.0,M,7.0,M,,*51
$GPGLL,3018.4222,N,12004.6561,E,091029.000,A,A*55
$GPGSA,A,3,19,21,11,05,25,20,06,13,12,,,,1.29,0.95,0.87*07
$GPGSV,3,1,11,21,68,290,38,11,59,357,37,42,48,143,30,06,43,069,33*7E
$GPGSV,3,2,11,05,41,259,42,19,37,147,34,12,25,256,31,20,16,193,24*76
$GPGSV,3,3,11,13,15,184,30,25,12,293,31,17,,,25*7E
$GPRMC,091029.000,A,3018.4222,N,12004.6561,E,0.04,43.53,110806,,,A*59
$GPVTG,43.53,T,,M,0.04,N,0.07,K,A*0F
$GPGGA,091030.000,3018.4221,N,12004.6561,E,1,9,0.95,12.4,M,7.0,M,,*5E
$GPGLL,3018.4221,N,12004.6561,E,091030.000,A,A*5E
$GPGSA,A,3,19,21,11,05,25,20,06,13,12,,,,1.28,0.95,0.87*06
$GPGSV,3,1,11,21,68,290,38,11,59,357,38,42,48,143,30,06,43,069,33*71
$GPGSV,3,2,11,05,41,259,42,19,37,147,34,12,25,256,31,20,16,193,24*76
$GPGSV,3,3,11,13,15,184,30,25,12,293,31,17,,,25*7E
$GPRMC,091030.000,A,3018.4221,N,12004.6561,E,0.04,61.39,110806,,,A*5E
$GPVTG,61.39,T,,M,0.04,N,0.08,K,A*0C
$GPGGA,091031.000,3018.4220,N,12004.6561,E,1,9,0.95,12.8,M,7.0,M,,*52
$GPGLL,3018.4220,N,12004.6561,E,091031.000,A,A*5E
$GPGSA,A,3,19,21,11,05,25,20,06,13,12,,,,1.28,0.95,0.87*06
$GPGSV,3,1,11,21,68,290,38,11,59,357,38,42,48,143,30,06,43,069,34*76
$GPGSV,3,2,11,05,41,259,42,19,37,147,34,12,25,256,31,20,16,193,23*71
$GPGSV,3,3,11,13,15,184,30,25,12,293,32,17,,,25*7D
$GPRMC,091031.000,A,3018.4220,N,12004.6561,E,0.02,261.27,110806,,,A*65
$GPVTG,261.27,T,,M,0.02,N,0.04,K,A*3B
$GPGGA,091032.000,3018.4220,N,12004.6560,E,1,9,0.95,13.2,M,7.0,M,,*5B
$GPGLL,3018.4220,N,12004.6560,E,091032.000,A,A*5C
$GPGSA,A,3,19,21,11,05,25,20,06,13,12,,,,1.29,0.95,0.87*07
$GPGSV,3,1,11,21,68,290,38,11,59,357,38,42,48,143,30,06,43,069,34*76
$GPGSV,3,2,11,05,41,259,42,19,37,147,34,12,25,256,31,20,16,193,23*71
$GPGSV,3,3,11,13,15,184,30,25,12,293,32,17,,,25*7D
$GPRMC,091032.000,A,3018.4220,N,12004.6560,E,0.04,136.40,110806,,,A*61
$GPVTG,136.40,T,,M,0.04,N,0.07,K,A*3E
$GPGGA,091033.000,3018.4219,N,12004.6560,E,1,9,1.07,13.5,M,7.0,M,,*5D
$GPGLL,3018.4219,N,12004.6560,E,091033.000,A,A*57
$GPGSA,A,3,19,21,11,05,25,20,06,13,12,,,,2.06,1.07,1.76*0C
$GPGSV,3,1,11,21,68,290,38,11,59,357,38,42,48,143,30,06,43,069,34*76
$GPGSV,3,2,11,05,41,259,42,19,37,147,34,12,25,256,31,20,16,193,23*71
$GPGSV,3,3,11,13,15,184,30,25,12,293,32,17,,,25*7D
$GPRMC,091033.000,A,3018.4219,N,12004.6560,E,0.02,59.78,110806,,,A*5F
$GPVTG,59.78,T,,M,0.02,N,0.04,K,A*08
$GPGGA,091034.000,3018.4218,N,12004.6560,E,1,9,1.07,13.7,M,7.0,M,,*59
$GPGLL,3018.4218,N,12004.6560,E,091034.000,A,A*51
$GPGSA,A,3,19,21,11,05,25,20,06,13,12,,,,2.06,1.07,1.77*0D
$GPGSV,3,1,11,21,68,290,38,11,59,357,38,42,48,143,30,06,43,069,34*76
$GPGSV,3,2,11,05,41,259,42,19,37,147,34,12,25,256,31,20,16,193,23*71
$GPGSV,3,3,11,13,15,184,30,25,12,293,32,17,,,25*7D
$GPRMC,091034.000,A,3018.4218,N,12004.6560,E,0.01,57.32,110806,,,A*5A
$GPVTG,57.32,T,,M,0.01,N,0.02,K,A*0D
$GPGGA,091035.000,3018.4218,N,12004.6560,E,1,9,1.07,14.0,M,7.0,M,,*58
$GPGLL,3018.4218,N,12004.6560,E,091035.000,A,A*50
$GPGSA,A,3,19,21,11,05,25,20,06,13,12,,,,2.07,1.07,1.77*0C
$GPGSV,3,1,11,21,68,290,38,11,59,357,38,42,48,143,31,06,43,069,34*77
$GPGSV,3,2,11,05,41,259,42,19,37,147,35,12,25,256,31,20,16,193,23*70
$GPGSV,3,3,11,13,15,184,30,25,12,293,32,17,,,25*7D
$GPRMC,091035.000,A,3018.4218,N,12004.6560,E,0.02,105.18,110806,,,A*66
$GPVTG,105.18,T,,M,0.02,N,0.04,K,A*36
$GPGGA,091036.000,3018.4217,N,12004.6560,E,1,9,1.07,14.2,M,7.0,M,,*56
$GPGLL,3018.4217,N,12004.6560,E,091036.000,A,A*5C
$GPGSA,A,3,19,21,11,05,25,20,06,13,12,,,,2.07,1.07,1.77*0C
$GPGSV,3,1,11,21,68,290,38,11,59,357,38,42,48,143,31,06,43,069,34*77
$GPGSV,3,2,11,05,41,259,42,19,37,147,35,12,25,256,30,20,16,193,23*71
$GPGSV,3,3,11,13,15,184,30,25,12,293,32,17,,,25*7D
$GPRMC,091036.000,A,3018.4217,N,12004.6560,E,0.01,295.39,110806,,,A*60
$GPVTG,295.39,T,,M,0.01,N,0.01,K,A*39
$GPGGA,091037.000,3018.4217,N,12004.6560,E,1,9,1.07,14.4,M,7.0,M,,*51
$GPGLL,3018.4217,N,12004.6560,E,091037.000,A,A*5D
$GPGSA,A,3,19,21,11,05,25,20,06,13,12,,,,2.07,1.07,1.77*0C
$GPGSV,3,1,11,21,68,290,38,11,59,357,38,42,48,143,30,06,43,069,34*76
$GPGSV,3,2,11,05,41,259,42,19,37,147,35,12,25,256,30,20,16,193,23*71
$GPGSV,3,3,11,13,15,184,30,25,12,293,32,17,,,25*7D
$GPRMC,091037.000,A,3018.4217,N,12004.6560,E,0.02,97.79,110806,,,A*56
$GPVTG,97.79,T,,M,0.02,N,0.03,K,A*0C
$GPGGA,091038.000,3018.4216,N,12004.6559,E,1,9,1.07,14.6,M,7.0,M,,*57
$GPGLL,3018.4216,N,12004.6559,E,091038.000,A,A*59
$GPGSA,A,3,19,21,11,05,25,20,06,13,12,,,,2.07,1.07,1.77*0C
$GPGSV,3,1,11,21,68,290,38,11,59,357,38,42,48,143,30,06,43,069,34*76
$GPGSV,3,2,11,05,41,259,42,19,37,147,35,12,25,256,30,20,16,193,23*71
$GPGSV,3,3,11,13,15,184,29,25,12,293,32,17,,,25*75
$GPRMC,091038.000,A,3018.4216,N,12004.6559,E,0.02,93.86,110806,,,A*56
$GPVTG,93.86,T,,M,0.02,N,0.04,K,A*0F
$GPGGA,091039.000,3018.4216,N,12004.6559,E,1,9,1.07,14.7,M,7.0,M,,*57
$GPGLL,3018.4216,N,12004.6559,E,091039.000,A,A*58
$GPGSA,A,3,19,21,11,05,25,20,06,13,12,,,,2.07,1.07,1.77*0C
$GPGSV,3,1,11,21,68,290,38,11,59,357,38,42,48,143,31,06,43,069,34*77
$GPGSV,3,2,11,05,41,259,42,19,37,147,35,12,25,256,30,20,16,193,23*71
$GPGSV,3,3,11,13,15,184,29,25,12,293,32,17,,,25*75
$GPRMC,091039.000,A,3018.4216,N,12004.6559,E,0.01,77.47,110806,,,A*53
$GPVTG,77.47,T,,M,0.01,N,0.03,K,A*0C
$GPGGA,091040.000,3018.4215,N,12004.6559,E,1,9,1.07,14.9,M,7.0,M,,*54
$GPGLL,3018.4215,N,12004.6559,E,091040.000,A,A*55
$GPGSA,A,3,19,21,11,05,25,20,06,13,12,,,,2.07,1.07,1.77*0C
$GPGSV,3,1,11,21,68,290,38,11,59,357,38,42,48,143,31,06,43,069,34*77
$GPGSV,3,2,11,05,41,259,42,19,37,147,35,12,25,256,30,20,16,193,23*71
$GPGSV,3,3,11,13,15,184,29,25,12,293,32,17,,,24*74
$GPRMC,091040.000,A,3018.4215,N,12004.6559,E,0.02,121.78,110806,,,A*63
$GPVTG,121.78,T,,M,0.02,N,0.03,K,A*31
$GPGGA,091041.000,3018.4215,N,12004.6559,E,1,9,1.07,15.1,M,7.0,M,,*5C
$GPGLL,3018.4215,N,12004.6559,E,091041.000,A,A*54
$GPGSA,A,3,19,21,11,05,25,20,06,13,12,,,,2.07,1.07,1.77*0C
$GPGSV,3,1,11,21,68,290,38,11,59,357,38,42,48,143,32,06,43,069,34*74
$GPGSV,3,2,11,05,41,259,42,19,37,147,35,12,25,256,30,20,16,193,23*71
$GPGSV,3,3,11,13,15,184,29,25,12,293,32,17,,,24*74
$GPRMC,091041.000,A,3018.4215,N,12004.6559,E,0.02,138.20,110806,,,A*67
$GPVTG,138.20,T,,M,0.02,N,0.03,K,A*34
$GPGGA,091042.000,3018.4215,N,12004.6559,E,1,9,1.07,15.1,M,7.0,M,,*5F
$GPGLL,3018.4215,N,12004.6559,E,091042.000,A,A*57
$GPGSA,A,3,19,21,11,05,25,20,06,13,12,,,,2.07,1.07,1.77*0C
$GPGSV,3,1,11,21,68,290,38,11,59,357,38,42,48,143,31,06,43,069,34*77
$GPGSV,3,2,11,05,41,259,42,19,37,147,35,12,25,256,30,20,16,193,23*71
$GPGSV,3,3,11,13,15,184,29,25,12,293,32,17,,,24*74
$GPRMC,091042.000,A,3018.4215,N,12004.6559,E,0.01,54.97,110806,,,A*50
$GPVTG,54.97,T,,M,0.01,N,0.02,K,A*01
$GPGGA,091043.000,3018.4215,N,12004.6559,E,1,9,1.07,15.0,M,7.0,M,,*5F
$GPGLL,3018.4215,N,12004.6559,E,091043.000,A,A*56
$GPGSA,A,3,19,21,11,05,25,20,06,13,12,,,,2.07,1.07,1.77*0C
$GPGSV,3,1,11,21,68,290,38,11,59,357,38,42,48,143,31,06,43,069,34*77
$GPGSV,3,2,11,05,41,259,42,19,37,147,35,12,25,256,30,20,16,193,23*71
$GPGSV,3,3,11,13,15,184,29,25,12,293,32,17,,,24*74
$GPRMC,091043.000,A,3018.4215,N,12004.6559,E,0.01,79.37,110806,,,A*54
$GPVTG,79.37,T,,M,0.01,N,0.02,K,A*04
$GPGGA,091044.000,3018.4215,N,12004.6559,E,1,9,1.07,15.0,M,7.0,M,,*58
$GPGLL,3018.4215,N,12004.6559,E,091044.000,A,A*51
$GPGSA,A,3,19,21,11,05,25,20,06,13,12,,,,2.07,1.07,1.77*0C
$GPGSV,3,1,11,21,68,290,38,11,59,357,38,42,48,143,31,06,43,069,34*77
$GPGSV,3,2,11,05,41,259,42,19,37,147,35,12,25,256,30,20,16,193,23*71
$GPGSV,3,3,11,13,15,184,28,25,12,293,32,17,,,24*75
$GPRMC,091044.000,A,3018.4215,N,12004.6559,E,0.04,59.78,110806,,,A*5F
$GPVTG,59.78,T,,M,0.04,N,0.07,K,A*0D
$GPGGA,091045.000,3018.4215,N,12004.6559,E,1,9,1.07,15.1,M,7.0,M,,*58
$GPGLL,3018.4215,N,12004.6559,E,091045.000,A,A*50
$GPGSA,A,3,19,21,11,05,25,20,06,13,12,,,,2.07,1.07,1.77*0C
$GPGSV,3,1,11,21,68,290,38,11,59,357,38,42,48,143,31,06,43,069,34*77
$GPGSV,3,2,11,05,41,259,42,19,37,147,35,12,25,256,30,20,16,193,23*71
$GPGSV,3,3,11,13,15,184,28,25,12,293,33,17,,,24*74
$GPRMC,091045.000,A,3018.4215,N,12004.6559,E,0.01,164.38,110806,,,A*60
$GPVTG,164.38,T,,M,0.01,N,0.02,K,A*36
$GPGGA,091046.000,3018.4215,N,12004.6559,E,1,9,1.07,15.1,M,7.0,M,,*5B
$GPGLL,3018.4215,N,12004.6559,E,091046.000,A,A*53
$GPGSA,A,3,19,21,11,05,25,20,06,13,12,,,,2.07,1.07,1.77*0C
$GPGSV,3,1,11,21,68,290,38,11,59,357,38,42,48,143,31,06,43,069,34*77
$GPGSV,3,2,11,05,41,259,42,19,37,147,35,12,25,256,30,20,16,193,23*71
$GPGSV,3,3,11,13,15,184,28,25,12,293,33,17,,,23*73
$GPRMC,091046.000,A,3018.4215,N,12004.6559,E,0.02,68.95,110806,,,A*5A
$GPVTG,68.95,T,,M,0.02,N,0.04,K,A*09
$GPGGA,091047.000,3018.4214,N,12004.6559,E,1,9,1.07,15.2,M,7.0,M,,*58
$GPGLL,3018.4214,N,12004.6559,E,091047.000,A,A*53
$GPGSA,A,3,19,21,11,05,25,20,06,13,12,,,,2.07,1.07,1.77*0C
$GPGSV,3,1,11,21,68,290,38,11,59,357,38,42,48,143,31,06,43,069,34*77
$GPGSV,3,2,11,05,41,259,42,19,37,147,35,12,25,256,31,20,16,193,23*70
$GPGSV,3,3,11,13,15,184,28,25,12,293,33,17,,,23*73
$GPRMC,091047.000,A,3018.4214,N,12004.6559,E,0.01,110.88,110806,,,A*6B
$GPVTG,110.88,T,,M,0.01,N,0.02,K,A*3E
$GPGGA,091048.000,3018.4214,N,12004.6559,E,1,9,1.07,15.3,M,7.0,M,,*56
$GPGLL,3018.4214,N,12004.6559,E,091048.000,A,A*5C
$GPGSA,A,3,19,21,11,05,25,20,06,13,12,,,,2.07,1.07,1.77*0C
$GPGSV,3,1,11,21,68,290,38,11,59,357,38,42,48,143,31,06,43,069,34*77
$GPGSV,3,2,11,05,41,259,42,19,37,147,35,12,25,256,31,20,16,193,22*71
$GPGSV,3,3,11,13,15,184,28,25,12,293,33,17,,,23*73
$GPRMC,091048.000,A,3018.4214,N,12004.6559,E,0.02,68.10,110806,,,A*58
$GPVTG,68.10,T,,M,0.02,N,0.03,K,A*03
$GPGGA,091049.000,3018.4214,N,12004.6559,E,1,9,1.07,15.4,M,7.0,M,,*50
$GPGLL,3018.4214,N,12004.6559,E,091049.000,A,A*5D
$GPGSA,A,3,19,21,11,05,25,20,06,13,12,,,,2.07,1.07,1.77*0C
$GPGSV,3,1,11,21,68,290,38,11,59,357,38,42,48,143,31,06,43,069,34*77
$GPGSV,3,2,11,05,41,259,42,19,37,147,35,12,25,256,31,20,16,193,22*71
$GPGSV,3,3,11,13,15,184,28,25,12,293,33,17,,,23*73
$GPRMC,091049.000,A,3018.4214,N,12004.6559,E,0.01,110.08,110806,,,A*6D
$GPVTG,110.08,T,,M,0.01,N,0.02,K,A*36
$GPGGA,091050.000,3018.4213,N,12004.6559,E,1,9,1.07,15.5,M,7.0,M,,*5E
$GPGLL,3018.4213,N,12004.6559,E,091050.000,A,A*52
$GPGSA,A,3,19,21,11,05,25,20,06,13,12,,,,2.07,1.07,1.77*0C
$GPGSV,3,1,11,21,68,290,38,11,59,357,38,42,48,143,30,06,43,069,34*76
$GPGSV,3,2,11,05,41,259,42,19,37,147,35,12,25,256,31,20,16,193,22*71
$GPGSV,3,3,11,13,15,184,28,25,12,293,33,17,,,23*73
$GPRMC,091050.000,A,3018.4213,N,12004.6559,E,0.01,109.16,110806,,,A*65
$GPVTG,109.16,T,,M,0.01,N,0.03,K,A*30
$GPGGA,091051.000,3018.4213,N,12004.6559,E,1,9,1.07,15.6,M,7.0,M,,*5C
$GPGLL,3018.4213,N,12004.6559,E,091051.000,A,A*53
$GPGSA,A,3,19,21,11,05,25,20,06,13,12,,,,2.07,1.07,1.77*0C
$GPGSV,3,1,11,21,68,290,38,11,59,357,38,42,48,143,30,06,43,069,34*76
$GPGSV,3,2,11,05,41,259,42,19,37,147,35,12,25,256,31,20,16,193,22*71
$GPGSV,3,3,11,13,15,184,28,25,12,293,33,17,,,23*73
$GPRMC,091051.000,A,3018.4213,N,12004.6559,E,0.01,114.66,110806,,,A*6F
$GPVTG,114.66,T,,M,0.01,N,0.01,K,A*39
$GPGGA,091052.000,3018.4212,N,12004.6559,E,1,9,1.07,15.7,M,7.0,M,,*5F
$GPGLL,3018.4212,N,12004.6559,E,091052.000,A,A*51
$GPGSA,A,3,19,21,11,05,25,20,06,13,12,,,,2.07,1.07,1.77*0C
$GPGSV,3,1,11,21,68,290,38,11,59,357,38,42,48,143,31,06,43,069,34*77
$GPGSV,3,2,11,05,41,259,42,19,37,147,35,12,25,256,31,20,16,193,22*71
$GPGSV,3,3,11,13,15,184,28,25,12,293,33,17,,,22*72
$GPRMC,091052.000,A,3018.4212,N,12004.6559,E,0.01,150.54,110806,,,A*6C
$GPVTG,150.54,T,,M,0.01,N,0.02,K,A*3B
$GPGGA,091053.000,3018.4212,N,12004.6559,E,1,9,1.07,15.8,M,7.0,M,,*51
$GPGLL,3018.4212,N,12004.6559,E,091053.000,A,A*50
$GPGSA,A,3,19,21,11,05,25,20,06,13,12,,,,2.07,1.07,1.77*0C
$GPGSV,3,1,11,21,68,290,38,11,59,357,38,42,48,143,31,06,43,069,34*77
$GPGSV,3,2,11,05,41,259,42,19,37,147,35,12,25,256,31,20,16,193,22*71
$GPGSV,3,3,11,13,15,184,28,25,12,293,33,17,,,22*72
$GPRMC,091053.000,A,3018.4212,N,12004.6559,E,0.02,153.74,110806,,,A*6F
$GPVTG,153.74,T,,M,0.02,N,0.04,K,A*3F
$GPGGA,091054.000,3018.4212,N,12004.6559,E,1,9,1.07,15.9,M,7.0,M,,*57
$GPGLL,3018.4212,N,12004.6559,E,091054.000,A,A*57
$GPGSA,A,3,19,21,11,05,25,20,06,13,12,,,,2.07,1.07,1.77*0C
$GPGSV,3,1,11,21,68,290,38,11,59,357,38,06,43,069,34,42,42,228,31*73
$GPGSV,3,2,11,05,41,259,42,19,37,147,35,12,25,256,31,20,16,193,22*71
$GPGSV,3,3,11,13,15,184,28,25,12,293,33,17,,,22*72
$GPRMC,091054.000,A,3018.4212,N,12004.6559,E,0.03,53.65,110806,,,A*58
$GPVTG,53.65,T,,M,0.03,N,0.05,K,A*0E
$GPGGA,091055.000,3018.4212,N,12004.6559,E,1,9,1.07,16.0,M,7.0,M,,*5C
$GPGLL,3018.4212,N,12004.6559,E,091055.000,A,A*56
$GPGSA,A,3,19,21,11,05,25,20,06,13,12,,,,2.07,1.07,1.77*0C
$GPGSV,3,1,11,21,68,290,38,11,59,357,38,06,43,069,34,42,42,228,31*73
$GPGSV,3,2,11,05,41,259,42,19,37,147,35,12,25,256,31,20,16,193,22*71
$GPGSV,3,3,11,13,15,184,28,25,12,293,33,17,,,22*72
$GPRMC,091055.000,A,3018.4212,N,12004.6559,E,0.01,222.95,110806,,,A*60
$GPVTG,222.95,T,,M,0.01,N,0.02,K,A*30
$GPGGA,091056.000,3018.4211,N,12004.6559,E,1,9,1.07,16.1,M,7.0,M,,*5D
$GPGLL,3018.4211,N,12004.6559,E,091056.000,A,A*56
$GPGSA,A,3,19,21,11,05,25,20,06,13,12,,,,2.07,1.07,1.77*0C
$GPGSV,3,1,11,21,68,290,38,11,59,357,38,06,43,069,34,42,42,228,31*73
$GPGSV,3,2,11,05,41,259,42,19,37,147,35,12,25,256,32,20,16,193,23*73
$GPGSV,3,3,11,13,15,184,28,25,12,293,33,17,,,22*72
$GPRMC,091056.000,A,3018.4211,N,12004.6559,E,0.01,55.60,110806,,,A*58
$GPVTG,55.60,T,,M,0.01,N,0.02,K,A*08
$GPGGA,091057.000,3018.4211,N,12004.6559,E,1,9,1.07,16.2,M,7.0,M,,*5F
$GPGLL,3018.4211,N,12004.6559,E,091057.000,A,A*57
$GPGSA,A,3,19,21,11,05,25,20,06,13,12,,,,2.07,1.07,1.77*0C
$GPGSV,3,1,11,21,68,290,38,11,59,357,38,06,43,069,34,05,42,260,42*78
$GPGSV,3,2,11,42,42,228,31,19,37,147,35,12,25,256,32,20,16,193,23*71
$GPGSV,3,3,11,13,15,184,28,25,12,293,33,17,,,21*71
$GPRMC,091057.000,A,3018.4211,N,12004.6559,E,0.04,78.58,110806,,,A*58
$GPVTG,78.58,T,,M,0.04,N,0.07,K,A*0C
$GPGGA,091058.000,3018.4210,N,12004.6560,E,1,9,1.07,16.2,M,7.0,M,,*5B
$GPGLL,3018.4210,N,12004.6560,E,091058.000,A,A*53
$GPGSA,A,3,19,21,11,05,25,20,06,13,12,,,,2.07,1.07,1.77*0C
$GPGSV,3,1,11,21,68,290,38,11,59,357,38,06,43,070,34,05,42,260,42*70
$GPGSV,3,2,11,42,42,228,31,19,37,147,35,12,25,256,32,20,16,193,24*76
$GPGSV,3,3,11,13,15,184,28,25,12,293,33,17,,,21*71
$GPRMC,091058.000,A,3018.4210,N,12004.6560,E,0.00,76.14,110806,,,A*5E
$GPVTG,76.14,T,,M,0.00,N,0.01,K,A*08
$GPGGA,091059.000,3018.4210,N,12004.6560,E,1,9,1.07,16.3,M,7.0,M,,*5B
$GPGLL,3018.4210,N,12004.6560,E,091059.000,A,A*52
$GPGSA,A,3,19,21,11,05,25,20,06,13,12,,,,2.07,1.07,1.77*0C
$GPGSV,3,1,11,21,68,290,38,11,59,357,38,06,43,070,34,05,42,260,42*70
$GPGSV,3,2,11,42,42,228,32,19,37,147,35,12,25,256,32,20,16,193,24*75
$GPGSV,3,3,11,13,15,184,28,25,12,293,33,17,,,21*71
$GPRMC,091059.000,A,3018.4210,N,12004.6560,E,0.02,55.57,110806,,,A*5B
$GPVTG,55.57,T,,M,0.02,N,0.03,K,A*0E
$GPGGA,091100.000,3018.4210,N,12004.6560,E,1,9,1.07,16.3,M,7.0,M,,*56
$GPGLL,3018.4210,N,12004.6560,E,091100.000,A,A*5F
$GPGSA,A,3,19,21,11,05,25,20,06,13,12,,,,2.07,1.07,1.77*0C
$GPGSV,3,1,11,21,68,290,38,11,59,357,38,06,43,070,34,05,42,260,42*70
$GPGSV,3,2,11,42,42,228,31,19,37,147,35,12,25,256,32,20,16,193,24*76
$GPGSV,3,3,11,13,15,184,28,25,12,293,32,17,,,21*70
$GPRMC,091100.000,A,3018.4210,N,12004.6560,E,0.02,67.51,110806,,,A*51
$GPVTG,67.51,T,,M,0.02,N,0.03,K,A*09
$GPGGA,091101.000,3018.4209,N,12004.6560,E,1,9,1.07,16.3,M,7.0,M,,*5F
$GPGLL,3018.4209,N,12004.6560,E,091101.000,A,A*56
$GPGSA,A,3,19,21,11,05,25,20,06,13,12,,,,2.07,1.07,1.77*0C
$GPGSV,3,1,11,21,68,290,38,11,59,357,38,06,43,070,34,05,42,260,42*70
$GPGSV,3,2,11,42,42,228,31,19,37,147,35,12,25,256,32,20,16,193,24*76
$GPGSV,3,3,11,13,15,184,28,25,12,293,31,17,,,21*73
$GPRMC,091101.000,A,3018.4209,N,12004.6560,E,0.01,70.57,110806,,,A*5B
$GPVTG,70.57,T,,M,0.01,N,0.02,K,A*0B
$GPGGA,091102.000,3018.4209,N,12004.6560,E,1,9,1.07,16.3,M,7.0,M,,*5C
$GPGLL,3018.4209,N,12004.6560,E,091102.000,A,A*55
$GPGSA,A,3,19,21,11,05,25,20,06,13,12,,,,2.07,1.07,1.77*0C
$GPGSV,3,1,11,21,68,290,38,11,59,357,38,06,43,070,34,05,42,260,42*70
$GPGSV,3,2,11,42,42,228,31,19,37,147,35,12,25,256,32,20,16,193,24*76
$GPGSV,3,3,11,13,15,184,28,25,12,293,31,17,,,20*72
$GPRMC,091102.000,A,3018.4209,N,12004.6560,E,0.00,223.13,110806,,,A*6D
$GPVTG,223.13,T,,M,0.00,N,0.01,K,A*3D
$GPGGA,091103.000,3018.4209,N,12004.6560,E,1,9,1.07,16.2,M,7.0,M,,*5C
$GPGLL,3018.4209,N,12004.6560,E,091103.000,A,A*54
$GPGSA,A,3,19,21,11,05,25,20,06,13,12,,,,2.07,1.07,1.77*0C
$GPGSV,3,1,11,21,68,290,38,11,59,358,38,06,43,070,34,05,42,260,42*7F
$GPGSV,3,2,11,42,42,228,31,19,37,147,35,12,25,256,32,20,16,193,24*76
$GPGSV,3,3,11,13,15,184,28,25,12,293,31,17,,,19*78
$GPRMC,091103.000,A,3018.4209,N,12004.6560,E,0.01,59.62,110806,,,A*54
$GPVTG,59.62,T,,M,0.01,N,0.02,K,A*06
$GPGGA,091104.000,3018.4209,N,12004.6560,E,1,9,1.07,16.2,M,7.0,M,,*5B
$GPGLL,3018.4209,N,12004.6560,E,091104.000,A,A*53
$GPGSA,A,3,19,21,11,05,25,20,06,13,12,,,,2.07,1.07,1.77*0C
$GPGSV,3,1,11,21,68,290,38,11,59,358,38,06,43,070,34,05,42,260,42*7F
$GPGSV,3,2,11,42,42,228,31,19,37,147,35,12,25,256,32,20,16,193,24*76
$GPGSV,3,3,11,13,15,184,28,25,12,293,31,17,,,19*78
$GPRMC,091104.000,A,3018.4209,N,12004.6560,E,0.00,74.34,110806,,,A*5E
$GPVTG,74.34,T,,M,0.00,N,0.00,K,A*09
$GPGGA,091105.000,3018.4209,N,12004.6560,E,1,9,1.07,16.1,M,7.0,M,,*59
$GPGLL,3018.4209,N,12004.6560,E,091105.000,A,A*52
$GPGSA,A,3,19,21,11,05,25,20,06,13,12,,,,2.07,1.07,1.77*0C
$GPGSV,3,1,11,21,68,290,38,11,59,358,38,06,43,070,34,05,42,260,42*7F
$GPGSV,3,2,11,42,42,228,30,19,37,147,35,12,25,256,32,20,16,193,24*77
$GPGSV,3,3,11,13,16,184,28,25,12,293,31,17,,,19*7B
$GPRMC,091105.000,A,3018.4209,N,12004.6560,E,0.02,76.21,110806,,,A*5B
$GPVTG,76.21,T,,M,0.02,N,0.04,K,A*09
$GPGGA,091106.000,3018.4209,N,12004.6560,E,1,9,1.07,16.0,M,7.0,M,,*5B
$GPGLL,3018.4209,N,12004.6560,E,091106.000,A,A*51
$GPGSA,A,3,19,21,11,05,25,20,06,13,12,,,,2.07,1.07,1.77*0C
$GPGSV,3,1,11,21,68,290,38,11,59,358,38,06,43,070,34,05,42,260,42*7F
$GPGSV,3,2,11,42,42,228,30,19,37,147,35,12,25,256,32,20,16,193,25*76
$GPGSV,3,3,11,13,16,184,28,25,12,293,31,17,,,19*7B
$GPRMC,091106.000,A,3018.4209,N,12004.6560,E,0.01,354.95,110806,,,A*67
$GPVTG,354.95,T,,M,0.01,N,0.02,K,A*30
$GPGGA,091107.000,3018.4209,N,12004.6560,E,1,9,1.07,16.0,M,7.0,M,,*5A
$GPGLL,3018.4209,N,12004.6560,E,091107.000,A,A*50
$GPGSA,A,3,19,21,11,05,25,20,06,13,12,,,,2.07,1.07,1.77*0C
$GPGSV,3,1,11,21,68,290,38,11,59,358,38,06,43,070,34,05,42,260,42*7F
$GPGSV,3,2,11,42,42,228,30,19,37,147,35,12,25,256,32,20,16,193,25*76
$GPGSV,3,3,11,13,16,184,28,25,12,293,31,17,,,19*7B
$GPRMC,091107.000,A,3018.4209,N,12004.6560,E,0.02,88.52,110806,,,A*5C
$GPVTG,88.52,T,,M,0.02,N,0.05,K,A*0D
$GPGGA,091108.000,3018.4209,N,12004.6560,E,1,9,1.07,16.0,M,7.0,M,,*55
$GPGLL,3018.4209,N,12004.6560,E,091108.000,A,A*5F
$GPGSA,A,3,19,21,11,05,25,20,06,13,12,,,,2.07,1.07,1.77*0C
$GPGSV,3,1,11,21,68,290,38,11,59,358,38,06,43,070,34,05,42,260,42*7F
$GPGSV,3,2,11,42,42,228,30,19,37,147,35,12,25,256,32,20,16,193,25*76
$GPGSV,3,3,11,13,16,184,28,25,12,293,31,17,,,19*7B
$GPRMC,091108.000,A,3018.4209,N,12004.6560,E,0.01,134.90,110806,,,A*68
$GPVTG,134.90,T,,M,0.01,N,0.03,K,A*30
$GPGGA,091109.000,3018.4209,N,12004.6559,E,1,9,1.07,15.9,M,7.0,M,,*54
$GPGLL,3018.4209,N,12004.6559,E,091109.000,A,A*54
$GPGSA,A,3,19,21,11,05,25,20,06,13,12,,,,2.07,1.07,1.77*0C
$GPGSV,3,1,11,21,68,290,38,11,59,358,38,06,43,070,34,05,42,260,42*7F
$GPGSV,3,2,11,42,42,228,30,19,37,147,35,12,25,256,32,20,16,193,25*76
$GPGSV,3,3,11,13,16,184,28,25,12,293,31,17,,,19*7B
$GPRMC,091109.000,A,3018.4209,N,12004.6559,E,0.01,117.46,110806,,,A*69
$GPVTG,117.46,T,,M,0.01,N,0.02,K,A*3B
$GPGGA,091110.000,3018.4209,N,12004.6559,E,1,9,1.07,15.8,M,7.0,M,,*5D
$GPGLL,3018.4209,N,12004.6559,E,091110.000,A,A*5C
$GPGSA,A,3,19,21,11,05,25,20,06,13,12,,,,2.07,1.07,1.77*0C
$GPGSV,3,1,11,21,68,290,38,11,59,358,38,06,43,070,34,05,42,260,42*7F
$GPGSV,3,2,11,42,42,228,30,19,37,147,35,12,25,256,32,20,16,193,25*76
$GPGSV,3,3,11,13,16,184,28,25,12,293,31,17,,,19*7B
$GPRMC,091110.000,A,3018.4209,N,12004.6559,E,0.01,357.86,110806,,,A*6B
$GPVTG,357.86,T,,M,0.01,N,0.03,K,A*30
$GPGGA,091111.000,3018.4209,N,12004.6559,E,1,9,1.07,15.9,M,7.0,M,,*5D
$GPGLL,3018.4209,N,12004.6559,E,091111.000,A,A*5D
$GPGSA,A,3,19,21,11,05,25,20,06,13,12,,,,2.07,1.07,1.77*0C
$GPGSV,3,1,11,21,68,290,38,11,59,358,38,06,43,070,34,05,42,260,42*7F
$GPGSV,3,2,11,42,42,228,30,19,37,147,35,12,25,256,32,20,16,193,25*76
$GPGSV,3,3,11,13,16,184,29,25,12,293,31,17,,,19*7A
$GPRMC,091111.000,A,3018.4209,N,12004.6559,E,0.00,171.19,110806,,,A*6B
$GPVTG,171.19,T,,M,0.00,N,0.00,K,A*32
$GPGGA,091112.000,3018.4209,N,12004.6559,E,1,9,1.07,15.8,M,7.0,M,,*5F
$GPGLL,3018.4209,N,12004.6559,E,091112.000,A,A*5E
$GPGSA,A,3,19,21,11,05,25,20,06,13,12,,,,2.07,1.07,1.77*0C
$GPGSV,3,1,11,21,68,290,38,11,59,358,38,06,43,070,34,05,42,260,42*7F
$GPGSV,3,2,11,42,42,228,30,19,36,148,35,12,25,256,32,20,16,193,26*7B
$GPGSV,3,3,11,13,16,184,29,25,12,293,31,17,,,18*7B
$GPRMC,091112.000,A,3018.4209,N,12004.6559,E,0.01,26.56,110806,,,A*51
$GPVTG,26.56,T,,M,0.01,N,0.02,K,A*09
$GPGGA,091113.000,3018.4209,N,12004.6559,E,1,9,1.07,15.9,M,7.0,M,,*5F
$GPGLL,3018.4209,N,12004.6559,E,091113.000,A,A*5F
$GPGSA,A,3,19,21,11,05,25,20,06,13,12,,,,2.07,1.07,1.77*0C
$GPGSV,3,1,11,21,68,290,38,11,59,358,38,06,43,070,34,05,42,260,42*7F
$GPGSV,3,2,11,42,42,228,30,19,36,148,35,12,25,256,32,20,16,193,26*7B
$GPGSV,3,3,11,13,16,184,29,25,12,293,31,17,,,18*7B
$GPRMC,091113.000,A,3018.4209,N,12004.6559,E,0.01,94.02,110806,,,A*58
$GPVTG,94.02,T,,M,0.01,N,0.02,K,A*01
$GPGGA,091114.000,3018.4209,N,12004.6558,E,1,9,1.07,15.8,M,7.0,M,,*58
$GPGLL,3018.4209,N,12004.6558,E,091114.000,A,A*59
$GPGSA,A,3,19,21,11,05,25,20,06,13,12,,,,2.07,1.07,1.78*03
$GPGSV,3,1,11,21,68,290,38,11,59,358,38,06,43,070,34,05,42,260,42*7F
$GPGSV,3,2,11,42,42,228,30,19,36,148,35,12,25,256,32,20,17,193,26*7A
$GPGSV,3,3,11,13,16,184,29,25,12,293,31,17,,,18*7B
$GPRMC,091114.000,A,3018.4209,N,12004.6558,E,0.01,116.13,110806,,,A*65
$GPVTG,116.13,T,,M,0.01,N,0.02,K,A*3A
$GPGGA,091115.000,3018.4209,N,12004.6558,E,1,9,1.07,15.8,M,7.0,M,,*59
$GPGLL,3018.4209,N,12004.6558,E,091115.000,A,A*58
$GPGSA,A,3,19,21,11,05,25,20,06,13,12,,,,2.07,1.07,1.77*0C
$GPGSV,3,1,11,21,68,292,39,11,59,358,38,06,43,070,34,05,42,260,42*7C
$GPGSV,3,2,11,42,42,228,31,19,36,148,35,12,25,256,32,20,17,193,26*7B
$GPGSV,3,3,11,13,16,184,29,25,12,293,31,17,,,18*7B
$GPRMC,091115.000,A,3018.4209,N,12004.6558,E,0.01,68.89,110806,,,A*5F
$GPVTG,68.89,T,,M,0.01,N,0.03,K,A*00
$GPGGA,091116.000,3018.4209,N,12004.6558,E,1,9,1.07,15.9,M,7.0,M,,*5B
$GPGLL,3018.4209,N,12004.6558,E,091116.000,A,A*5B
$GPGSA,A,3,19,21,11,05,25,20,06,13,12,,,,2.07,1.07,1.78*03
$GPGSV,3,1,11,21,68,292,39,11,59,358,38,06,43,070,34,05,42,260,42*7C
$GPGSV,3,2,11,42,42,228,30,19,36,148,35,12,25,256,32,20,17,193,26*7A
$GPGSV,3,3,11,13,16,184,29,25,12,293,31,17,,,18*7B
$GPRMC,091116.000,A,3018.4209,N,12004.6558,E,0.01,340.46,110806,,,A*66
$GPVTG,340.46,T,,M,0.01,N,0.01,K,A*38
$GPGGA,091117.000,3018.4210,N,12004.6558,E,1,9,1.07,15.9,M,7.0,M,,*52
$GPGLL,3018.4210,N,12004.6558,E,091117.000,A,A*52
$GPGSA,A,3,19,21,11,05,25,20,06,13,12,,,,2.07,1.07,1.78*03
$GPGSV,3,1,11,21,68,292,39,11,59,358,38,06,43,070,34,05,42,260,42*7C
$GPGSV,3,2,11,42,42,228,31,19,36,148,35,12,25,256,31,20,17,193,26*78
$GPGSV,3,3,11,13,16,184,30,25,12,293,31,17,,,17*7C
$GPRMC,091117.000,A,3018.4210,N,12004.6558,E,0.01,230.00,110806,,,A*6B
$GPVTG,230.00,T,,M,0.01,N,0.02,K,A*3F
$GPGGA,091118.000,3018.4210,N,12004.6557,E,1,9,1.07,16.0,M,7.0,M,,*58
$GPGLL,3018.4210,N,12004.6557,E,091118.000,A,A*52
$GPGSA,A,3,19,21,11,05,25,20,06,13,12,,,,2.07,1.07,1.78*03
$GPGSV,3,1,11,21,68,292,39,11,59,358,38,06,43,070,34,05,42,260,42*7C
$GPGSV,3,2,11,42,42,228,31,19,36,148,34,12,25,256,31,20,17,193,26*79
$GPGSV,3,3,11,13,16,184,30,25,12,293,31,17,,,17*7C
$GPRMC,091118.000,A,3018.4210,N,12004.6557,E,0.02,60.24,110806,,,A*59
$GPVTG,60.24,T,,M,0.02,N,0.03,K,A*0C
$GPGGA,091119.000,3018.4210,N,12004.6557,E,1,9,1.07,16.1,M,7.0,M,,*58
$GPGLL,3018.4210,N,12004.6557,E,091119.000,A,A*53
$GPGSA,A,3,19,21,11,05,25,20,06,13,12,,,,2.07,1.07,1.78*03
$GPGSV,3,1,11,21,68,292,39,11,59,358,38,06,43,070,34,05,42,260,42*7C
$GPGSV,3,2,11,42,42,228,31,19,36,148,34,12,25,256,31,20,17,193,27*78
$GPGSV,3,3,11,13,16,184,30,25,12,293,31,17,,,17*7C
$GPRMC,091119.000,A,3018.4210,N,12004.6557,E,0.02,19.31,110806,,,A*52
$GPVTG,19.31,T,,M,0.02,N,0.03,K,A*06
$GPGGA,091120.000,3018.4210,N,12004.6557,E,1,9,1.07,16.0,M,7.0,M,,*53
$GPGLL,3018.4210,N,12004.6557,E,091120.000,A,A*59
$GPGSA,A,3,19,21,11,05,25,20,06,13,12,,,,2.07,1.07,1.78*03
$GPGSV,3,1,11,21,68,292,39,11,59,358,38,06,43,070,34,05,42,260,42*7C
$GPGSV,3,2,11,42,42,228,31,19,36,148,34,12,25,256,31,20,17,193,27*78
$GPGSV,3,3,11,13,16,184,31,25,12,293,31,17,,,17*7D
$GPRMC,091120.000,A,3018.4210,N,12004.6557,E,0.02,128.53,110806,,,A*6F
$GPVTG,128.53,T,,M,0.02,N,0.03,K,A*31
$GPGGA,091121.000,3018.4210,N,12004.6557,E,1,9,1.07,16.0,M,7.0,M,,*52
$GPGLL,3018.4210,N,12004.6557,E,091121.000,A,A*58
$GPGSA,A,3,19,21,11,05,25,20,06,13,12,,,,2.07,1.07,1.78*03
$GPGSV,3,1,11,21,68,292,39,11,59,358,38,06,43,070,34,05,42,260,42*7C
$GPGSV,3,2,11,42,42,228,31,19,36,148,34,12,25,256,31,20,17,193,27*78
$GPGSV,3,3,11,13,16,184,31,25,12,293,31,17,,,17*7D
$GPRMC,091121.000,A,3018.4210,N,12004.6557,E,0.00,0.00,110806,,,A*61
$GPVTG,0.00,T,,M,0.00,N,0.00,K,A*3D
$GPGGA,091122.000,3018.4210,N,12004.6557,E,1,9,1.07,16.0,M,7.0,M,,*51
$GPGLL,3018.4210,N,12004.6557,E,091122.000,A,A*5B
$GPGSA,A,3,19,21,11,05,25,20,06,13,12,,,,2.07,1.07,1.78*03
$GPGSV,3,1,11,21,68,292,39,11,59,358,38,06,43,070,34,05,42,260,42*7C
$GPGSV,3,2,11,42,42,228,31,19,36,148,34,12,25,256,31,20,17,193,27*78
$GPGSV,3,3,11,13,16,184,31,25,12,293,30,17,,,17*7C
$GPRMC,091122.000,A,3018.4210,N,12004.6557,E,0.01,139.38,110806,,,A*63
$GPVTG,139.38,T,,M,0.01,N,0.01,K,A*3D
$GPGGA,091123.000,3018.4210,N,12004.6556,E,1,9,1.07,16.0,M,7.0,M,,*51
$GPGLL,3018.4210,N,12004.6556,E,091123.000,A,A*5B
$GPGSA,A,3,19,21,11,05,25,20,06,13,12,,,,2.07,1.07,1.78*03
$GPGSV,3,1,11,21,68,292,39,11,59,358,38,06,43,070,34,05,42,260,42*7C
$GPGSV,3,2,11,42,42,228,31,19,36,148,34,12,25,256,31,20,17,193,27*78
$GPGSV,3,3,11,13,16,184,31,25,12,293,30,17,,,17*7C
$GPRMC,091123.000,A,3018.4210,N,12004.6556,E,0.00,337.95,110806,,,A*69
$GPVTG,337.95,T,,M,0.00,N,0.00,K,A*36
$GPGGA,091124.000,3018.4210,N,12004.6556,E,1,9,1.07,16.1,M,7.0,M,,*57
$GPGLL,3018.4210,N,12004.6556,E,091124.000,A,A*5C
$GPGSA,A,3,19,21,11,05,25,20,06,13,12,,,,2.07,1.07,1.78*03
$GPGSV,3,1,11,21,68,292,39,11,59,358,38,06,43,070,34,05,42,260,42*7C
$GPGSV,3,2,11,42,42,228,31,19,36,148,34,12,25,256,31,20,17,193,27*78
$GPGSV,3,3,11,13,16,184,31,25,12,293,30,17,,,16*7D
$GPRMC,091124.000,A,3018.4210,N,12004.6556,E,0.02,77.23,110806,,,A*56
$GPVTG,77.23,T,,M,0.02,N,0.05,K,A*0B
$GPGGA,091125.000,3018.4210,N,12004.6556,E,1,9,1.07,16.0,M,7.0,M,,*57
$GPGLL,3018.4210,N,12004.6556,E,091125.000,A,A*5D
$GPGSA,A,3,19,21,11,05,25,20,06,13,12,,,,2.07,1.07,1.78*03
$GPGSV,3,1,11,21,68,292,39,11,59,358,38,06,43,070,34,05,42,260,42*7C
$GPGSV,3,2,11,42,42,228,31,19,36,148,34,12,25,256,31,20,17,193,27*78
$GPGSV,3,3,11,13,16,184,31,25,12,293,30,17,,,16*7D
$GPRMC,091125.000,A,3018.4210,N,12004.6556,E,0.00,40.81,110806,,,A*59
$GPVTG,40.81,T,,M,0.00,N,0.01,K,A*01
$GPGGA,091126.000,3018.4210,N,12004.6556,E,1,9,1.07,16.1,M,7.0,M,,*55
$GPGLL,3018.4210,N,12004.6556,E,091126.000,A,A*5E
$GPGSA,A,3,19,21,11,05,25,20,06,13,12,,,,2.07,1.07,1.78*03
$GPGSV,3,1,11,21,68,292,39,11,59,358,38,06,43,070,34,05,42,260,42*7C
$GPGSV,3,2,11,42,42,228,31,19,36,148,34,12,25,256,32,20,17,193,27*7B
$GPGSV,3,3,11,13,16,184,31,25,12,293,30,17,,,16*7D
$GPRMC,091126.000,A,3018.4210,N,12004.6556,E,0.01,196.89,110806,,,A*69
$GPVTG,196.89,T,,M,0.01,N,0.01,K,A*32
$GPGGA,091127.000,3018.4210,N,12004.6555,E,1,9,1.07,16.1,M,7.0,M,,*57
$GPGLL,3018.4210,N,12004.6555,E,091127.000,A,A*5C
$GPGSA,A,3,19,21,11,05,25,20,06,13,12,,,,2.07,1.07,1.78*03
$GPGSV,3,1,11,21,68,292,39,11,59,358,38,06,43,070,34,05,42,260,42*7C
$GPGSV,3,2,11,42,42,228,31,19,36,148,34,12,25,256,32,20,17,193,27*7B
$GPGSV,3,3,11,13,16,184,31,25,12,293,30,17,,,16*7D
$GPRMC,091127.000,A,3018.4210,N,12004.6555,E,0.03,94.10,110806,,,A*5A
$GPVTG,94.10,T,,M,0.03,N,0.05,K,A*07
$GPGGA,091128.000,3018.4210,N,12004.6555,E,1,9,1.07,16.1,M,7.0,M,,*58
$GPGLL,3018.4210,N,12004.6555,E,091128.000,A,A*53
$GPGSA,A,3,19,21,11,05,25,20,06,13,12,,,,2.08,1.07,1.78*0C
$GPGSV,3,1,11,21,68,292,39,11,59,358,38,06,43,070,34,05,42,260,42*7C
$GPGSV,3,2,11,42,42,228,31,19,36,148,34,12,25,256,32,20,17,193,27*7B
$GPGSV,3,3,11,13,16,184,31,25,12,293,30,17,,,16*7D
$GPRMC,091128.000,A,3018.4210,N,12004.6555,E,0.01,27.55,110806,,,A*5E
$GPVTG,27.55,T,,M,0.01,N,0.02,K,A*0B
$GPGGA,091129.000,3018.4210,N,12004.6555,E,1,9,1.07,16.1,M,7.0,M,,*59
$GPGLL,3018.4210,N,12004.6555,E,091129.000,A,A*52
$GPGSA,A,3,19,21,11,05,25,20,06,13,12,,,,2.07,1.07,1.78*03
$GPGSV,3,1,11,21,68,292,39,11,59,358,38,06,43,070,34,05,42,260,42*7C
$GPGSV,3,2,11,42,42,228,31,19,36,148,34,12,25,256,32,20,17,193,27*7B
$GPGSV,3,3,11,13,16,184,31,25,12,293,30,17,,,16*7D
$GPRMC,091129.000,A,3018.4210,N,12004.6555,E,0.01,186.55,110806,,,A*65
$GPVTG,186.55,T,,M,0.01,N,0.01,K,A*32
$GPGGA,091130.000,3018.4211,N,12004.6555,E,1,9,1.07,16.2,M,7.0,M,,*53
$GPGLL,3018.4211,N,12004.6555,E,091130.000,A,A*5B
$GPGSA,A,3,19,21,11,05,25,20,06,13,12,,,,2.08,1.07,1.78*0C
$GPGSV,3,1,11,21,68,292,39,11,59,358,37,06,43,070,34,05,42,260,42*73
$GPGSV,3,2,11,42,42,228,31,19,36,148,34,12,25,256,33,20,17,193,27*7A
$GPGSV,3,3,11,13,16,184,31,25,12,293,30,17,,,16*7D
$GPRMC,091130.000,A,3018.4211,N,12004.6555,E,0.01,46.63,110806,,,A*54
$GPVTG,46.63,T,,M,0.01,N,0.02,K,A*09
$GPGGA,091131.000,3018.4211,N,12004.6555,E,1,9,1.07,16.2,M,7.0,M,,*52
$GPGLL,3018.4211,N,12004.6555,E,091131.000,A,A*5A
$GPGSA,A,3,19,21,11,05,25,20,06,13,12,,,,2.08,1.07,1.78*0C
$GPGSV,3,1,11,21,68,292,39,11,59,358,37,06,43,070,34,05,42,260,42*73
$GPGSV,3,2,11,42,42,228,31,19,36,148,34,12,25,256,33,20,17,193,27*7A
$GPGSV,3,3,11,13,16,184,31,25,12,293,30,17,,,16*7D
$GPRMC,091131.000,A,3018.4211,N,12004.6555,E,0.00,265.57,110806,,,A*60
$GPVTG,265.57,T,,M,0.00,N,0.00,K,A*3E
$GPGGA,091132.000,3018.4211,N,12004.6555,E,1,9,1.07,16.2,M,7.0,M,,*51
$GPGLL,3018.4211,N,12004.6555,E,091132.000,A,A*59
$GPGSA,A,3,19,21,11,05,25,20,06,13,12,,,,2.08,1.07,1.78*0C
$GPGSV,3,1,11,21,68,292,39,11,59,358,37,06,43,070,34,05,42,260,42*73
$GPGSV,3,2,11,42,42,228,31,19,36,148,34,12,25,256,33,20,17,193,27*7A
$GPGSV,3,3,11,13,16,184,31,25,12,293,30,17,,,16*7D
$GPRMC,091132.000,A,3018.4211,N,12004.6555,E,0.01,38.91,110806,,,A*52
$GPVTG,38.91,T,,M,0.01,N,0.02,K,A*0D
$GPGGA,091133.000,3018.4211,N,12004.6555,E,1,9,1.07,16.1,M,7.0,M,,*53
$GPGLL,3018.4211,N,12004.6555,E,091133.000,A,A*58
$GPGSA,A,3,19,21,11,05,25,20,06,13,12,,,,2.07,1.07,1.78*03
$GPGSV,3,1,11,21,68,292,39,11,59,358,37,06,43,070,34,05,42,260,42*73
$GPGSV,3,2,11,42,42,228,30,19,36,148,34,12,25,256,33,20,17,193,27*7B
$GPGSV,3,3,11,13,16,184,32,25,12,293,30,17,,,16*7E
$GPRMC,091133.000,A,3018.4211,N,12004.6555,E,0.01,86.01,110806,,,A*5F
$GPVTG,86.01,T,,M,0.01,N,0.02,K,A*01
$GPGGA,091134.000,3018.4212,N,12004.6555,E,1,9,1.07,16.1,M,7.0,M,,*57
$GPGLL,3018.4212,N,12004.6555,E,091134.000,A,A*5C
$GPGSA,A,3,19,21,11,05,25,20,06,13,12,,,,2.08,1.07,1.78*0C
$GPGSV,3,1,11,21,68,292,39,11,59,358,37,06,43,070,34,05,42,260,42*73
$GPGSV,3,2,11,42,42,228,31,19,36,148,34,12,25,256,34,20,17,193,27*7D
$GPGSV,3,3,11,13,16,184,32,25,12,293,30,17,,,16*7E
$GPRMC,091134.000,A,3018.4212,N,12004.6555,E,0.01,115.01,110806,,,A*60
$GPVTG,115.01,T,,M,0.01,N,0.02,K,A*3A
$GPGGA,091135.000,3018.4212,N,12004.6555,E,1,9,1.07,16.0,M,7.0,M,,*57
$GPGLL,3018.4212,N,12004.6555,E,091135.000,A,A*5D
$GPGSA,A,3,19,21,11,05,25,20,06,13,12,,,,2.08,1.07,1.78*0C
$GPGSV,3,1,11,21,68,292,39,11,59,358,37,06,43,070,34,05,42,260,42*73
$GPGSV,3,2,11,42,42,228,31,19,36,148,34,12,25,256,34,20,17,193,27*7D
$GPGSV,3,3,11,13,16,184,32,25,12,293,29,17,,,15*75
$GPRMC,091135.000,A,3018.4212,N,12004.6555,E,0.01,130.82,110806,,,A*6D
$GPVTG,130.82,T,,M,0.01,N,0.03,K,A*37
$GPGGA,091136.000,3018.4212,N,12004.6556,E,1,9,1.07,16.0,M,7.0,M,,*57
$GPGLL,3018.4212,N,12004.6556,E,091136.000,A,A*5D
$GPGSA,A,3,19,21,11,05,25,20,06,13,12,,,,2.08,1.07,1.78*0C
$GPGSV,3,1,11,21,68,292,39,11,59,358,37,06,43,070,34,05,42,260,42*73
$GPGSV,3,2,11,42,42,228,31,19,36,148,34,12,25,256,35,20,17,193,27*7C
$GPGSV,3,3,11,13,16,184,32,25,12,293,29,17,,,15*75
$GPRMC,091136.000,A,3018.4212,N,12004.6556,E,0.01,151.25,110806,,,A*67
$GPVTG,151.25,T,,M,0.01,N,0.01,K,A*3F
$GPGGA,091137.000,3018.4213,N,12004.6556,E,1,9,1.07,15.9,M,7.0,M,,*5D
$GPGLL,3018.4213,N,12004.6556,E,091137.000,A,A*5D
$GPGSA,A,3,19,21,11,05,25,20,06,13,12,,,,2.08,1.07,1.78*0C
$GPGSV,3,1,11,21,68,292,39,11,59,358,37,06,43,070,34,05,42,260,42*73
$GPGSV,3,2,11,42,42,228,31,19,36,148,34,12,25,256,35,20,17,193,27*7C
$GPGSV,3,3,11,13,16,184,32,25,12,293,29,17,,,15*75
$GPRMC,091137.000,A,3018.4213,N,12004.6556,E,0.02,104.95,110806,,,A*6F
$GPVTG,104.95,T,,M,0.02,N,0.04,K,A*32
$GPGGA,091138.000,3018.4213,N,12004.6556,E,1,9,1.07,15.9,M,7.0,M,,*52
$GPGLL,3018.4213,N,12004.6556,E,091138.000,A,A*52
$GPGSA,A,3,19,21,11,05,25,20,06,13,12,,,,2.08,1.07,1.78*0C
$GPGSV,3,1,11,21,68,292,39,11,59,358,37,06,43,070,34,05,42,260,42*73
$GPGSV,3,2,11,42,42,228,31,19,36,148,34,12,25,256,35,20,17,193,27*7C
$GPGSV,3,3,11,13,16,184,32,25,12,293,29,17,,,15*75
$GPRMC,091138.000,A,3018.4213,N,12004.6556,E,0.01,38.12,110806,,,A*52
$GPVTG,38.12,T,,M,0.01,N,0.01,K,A*05
$GPGGA,091139.000,3018.4213,N,12004.6556,E,1,9,1.07,15.9,M,7.0,M,,*53
$GPGLL,3018.4213,N,12004.6556,E,091139.000,A,A*53
$GPGSA,A,3,19,21,11,05,25,20,06,13,12,,,,2.08,1.07,1.78*0C
$GPGSV,3,1,11,21,68,292,38,11,59,358,37,06,43,070,34,05,42,260,42*72
$GPGSV,3,2,11,42,42,228,32,19,36,148,34,12,25,256,35,20,17,193,27*7F
$GPGSV,3,3,11,13,16,184,32,25,12,293,29,17,,,14*74
$GPRMC,091139.000,A,3018.4213,N,12004.6556,E,0.02,97.89,110806,,,A*57
$GPVTG,97.89,T,,M,0.02,N,0.03,K,A*03
$GPGGA,091140.000,3018.4213,N,12004.6557,E,1,9,1.07,16.0,M,7.0,M,,*56
$GPGLL,3018.4213,N,12004.6557,E,091140.000,A,A*5C
$GPGSA,A,3,19,21,11,05,25,20,06,13,12,,,,2.08,1.07,1.78*0C
$GPGSV,3,1,11,21,68,292,38,11,59,358,37,06,43,070,34,05,42,260,42*72
$GPGSV,3,2,11,42,42,228,32,19,36,148,35,12,25,256,35,20,17,193,27*7E
$GPGSV,3,3,11,13,16,184,32,25,12,293,29,17,,,15*75
$GPRMC,091140.000,A,3018.4213,N,12004.6557,E,0.01,181.82,110806,,,A*66
$GPVTG,181.82,T,,M,0.01,N,0.02,K,A*3C
$GPGGA,091141.000,3018.4214,N,12004.6557,E,1,9,1.07,16.0,M,7.0,M,,*50
$GPGLL,3018.4214,N,12004.6557,E,091141.000,A,A*5A
$GPGSA,A,3,19,21,11,05,25,20,06,13,12,,,,2.08,1.07,1.78*0C
$GPGSV,3,1,11,21,68,292,38,11,59,358,37,06,43,070,34,05,42,260,42*72
$GPGSV,3,2,11,42,42,228,32,19,36,148,35,12,25,256,35,20,17,193,27*7E
$GPGSV,3,3,11,13,16,184,32,25,12,293,29,17,,,15*75
$GPRMC,091141.000,A,3018.4214,N,12004.6557,E,0.02,73.46,110806,,,A*57
$GPVTG,73.46,T,,M,0.02,N,0.03,K,A*0A
$GPGGA,091142.000,3018.4214,N,12004.6557,E,1,9,1.07,16.0,M,7.0,M,,*53
$GPGLL,3018.4214,N,12004.6557,E,091142.000,A,A*59
$GPGSA,A,3,19,21,11,05,25,20,06,13,12,,,,2.08,1.07,1.78*0C
$GPGSV,3,1,11,21,68,292,38,11,59,358,37,06,43,070,35,05,42,260,42*73
$GPGSV,3,2,11,42,42,228,31,19,36,148,35,12,25,256,35,20,17,193,27*7D
$GPGSV,3,3,11,13,16,184,32,25,12,293,29,17,,,15*75
$GPRMC,091142.000,A,3018.4214,N,12004.6557,E,0.01,124.16,110806,,,A*61
$GPVTG,124.16,T,,M,0.01,N,0.02,K,A*3E
$GPGGA,091143.000,3018.4214,N,12004.6557,E,1,9,1.07,16.1,M,7.0,M,,*53
$GPGLL,3018.4214,N,12004.6557,E,091143.000,A,A*58
$GPGSA,A,3,19,21,11,05,25,20,06,13,12,,,,2.08,1.07,1.78*0C
$GPGSV,3,1,11,21,68,292,38,11,59,358,37,06,43,070,35,05,42,260,42*73
$GPGSV,3,2,11,42,42,228,31,19,36,148,35,12,25,256,35,20,17,193,27*7D
$GPGSV,3,3,11,13,16,184,31,25,12,293,29,17,,,15*76
$GPRMC,091143.000,A,3018.4214,N,12004.6557,E,0.01,8.58,110806,,,A*65
$GPVTG,8.58,T,,M,0.01,N,0.01,K,A*38
$GPGGA,091144.000,3018.4215,N,12004.6557,E,1,9,1.07,16.0,M,7.0,M,,*54
$GPGLL,3018.4215,N,12004.6557,E,091144.000,A,A*5E
$GPGSA,A,3,19,21,11,05,25,20,06,13,12,,,,2.08,1.07,1.78*0C
$GPGSV,3,1,11,21,68,292,38,11,59,358,37,06,43,070,35,05,42,260,42*73
$GPGSV,3,2,11,42,42,228,31,19,36,148,35,12,25,256,35,20,17,193,27*7D
$GPGSV,3,3,11,13,16,184,31,25,12,293,29,17,,,15*76
$GPRMC,091144.000,A,3018.4215,N,12004.6557,E,0.01,98.99,110806,,,A*57
$GPVTG,98.99,T,,M,0.01,N,0.02,K,A*0F
$GPGGA,091145.000,3018.4215,N,12004.6558,E,1,9,1.07,16.1,M,7.0,M,,*5B
$GPGLL,3018.4215,N,12004.6558,E,091145.000,A,A*50
$GPGSA,A,3,19,21,11,05,25,20,06,13,12,,,,2.08,1.07,1.78*0C
$GPGSV,3,1,11,21,68,292,38,11,59,358,37,06,43,070,35,05,42,260,42*73
$GPGSV,3,2,11,42,42,228,31,19,36,148,35,12,25,256,35,20,17,193,27*7D
$GPGSV,3,3,11,13,16,184,31,25,12,293,29,17,,,15*76
$GPRMC,091145.000,A,3018.4215,N,12004.6558,E,0.01,199.26,110806,,,A*6D
$GPVTG,199.26,T,,M,0.01,N,0.02,K,A*3B
$GPGGA,091146.000,3018.4214,N,12004.6558,E,1,9,1.07,16.1,M,7.0,M,,*59
$GPGLL,3018.4214,N,12004.6558,E,091146.000,A,A*52
$GPGSA,A,3,19,21,11,05,25,20,06,13,12,,,,2.08,1.07,1.78*0C
$GPGSV,3,1,11,21,68,292,38,11,59,358,37,06,43,070,35,05,42,260,42*73
$GPGSV,3,2,11,42,42,228,31,19,36,148,35,12,25,256,35,20,17,193,27*7D
$GPGSV,3,3,11,13,16,184,31,25,12,293,29,17,,,15*76
$GPRMC,091146.000,A,3018.4214,N,12004.6558,E,0.02,68.31,110806,,,A*55
$GPVTG,68.31,T,,M,0.02,N,0.04,K,A*07
$GPGGA,091147.000,3018.4215,N,12004.6558,E,1,9,1.07,16.2,M,7.0,M,,*5A
$GPGLL,3018.4215,N,12004.6558,E,091147.000,A,A*52
$GPGSA,A,3,19,21,11,05,25,20,06,13,12,,,,2.08,1.07,1.78*0C
$GPGSV,3,1,11,21,68,292,38,11,59,358,37,06,43,070,35,05,42,260,42*73
$GPGSV,3,2,11,42,42,228,31,19,36,148,35,12,25,256,35,20,17,193,27*7D
$GPGSV,3,3,11,13,16,184,31,25,12,293,29,17,,,14*77
$GPRMC,091147.000,A,3018.4215,N,12004.6558,E,0.02,130.94,110806,,,A*66
$GPVTG,130.94,T,,M,0.02,N,0.04,K,A*34
$GPGGA,091148.000,3018.4215,N,12004.6558,E,1,9,1.07,16.2,M,7.0,M,,*55
$GPGLL,3018.4215,N,12004.6558,E,091148.000,A,A*5D
$GPGSA,A,3,19,21,11,05,25,20,06,13,12,,,,2.08,1.07,1.78*0C
$GPGSV,3,1,11,21,68,292,38,11,59,358,37,06,43,070,35,05,42,260,42*73
$GPGSV,3,2,11,42,42,228,31,19,36,148,35,12,25,256,35,20,17,193,27*7D
$GPGSV,3,3,11,13,16,184,31,25,12,293,29,17,,,14*77
$GPRMC,091148.000,A,3018.4215,N,12004.6558,E,0.01,180.09,110806,,,A*65
$GPVTG,180.09,T,,M,0.01,N,0.01,K,A*3D
$GPGGA,091149.000,3018.4216,N,12004.6558,E,1,9,1.07,16.3,M,7.0,M,,*56
$GPGLL,3018.4216,N,12004.6558,E,091149.000,A,A*5F
$GPGSA,A,3,19,21,11,05,25,20,06,13,12,,,,2.08,1.07,1.78*0C
$GPGSV,3,1,11,21,68,292,38,11,59,358,37,06,43,070,35,05,42,260,42*73
$GPGSV,3,2,11,42,42,228,31,19,36,148,35,12,25,256,35,20,17,193,27*7D
$GPGSV,3,3,11,13,16,184,31,25,12,293,30,17,,,14*7F
