$BDGSV,4,1,13,27,76,119,41,10,64,235,,07,62,208,40,08,58,292,35*67
$BDGSV,4,2,13,03,54,199,40,13,50,276,39,01,47,137,37,30,43,318,41*6D
$BDGSV,4,3,13,02,37,234,28,04,37,1$BDGGA,101835.000,3018.4750,N,12004.6500,E,1,11,1.12,16.6,M,7.0,M,,*7F
$BDGLL,3018.4750,N,12004.6500,E,101835.000,A,A*4E
$BDGSA,A,3,02,01,30,13,03,08,07,27,04,28,20,,1.43,1.12,0.88*10
$BDGSV,4,1,13,27,71,134,41,10,61,232,,07,59,208,38,08,57,297,39*6C
$BDGSV,4,2,13,03,54,199,36,13,50,282,39,30,48,317,44,01,47,137,32*63
$BDGSV,4,3,13,02,37,234,32,04,37,118,36,28,27,136,31,20,17,230,33*6E
$BDGSV,4,4,13,05,15,253,26*5B
$BDRMC,101835.000,A,3018.4750,N,12004.6500,E,0.19,347.32,270326,,,A*72
$BDVTG,347.32,T,,M,0.19,N,0.35,K,A*23
$BDGGA,101836.000,3018.4750,N,12004.6500,E,1,11,1.12,16.5,M,7.0,M,,*7F
$BDGLL,3018.4750,N,12004.6500,E,101836.000,A,A*4D
$BDGSA,A,3,02,01,30,13,03,08,07,27,04,28,20,,1.43,1.12,0.88*10
$BDGSV,4,1,13,27,71,134,41,10,61,232,,07,59,208,38,08,57,297,39*6C
$BDGSV,4,2,13,03,54,199,36,13,50,282,39,30,48,317,44,01,47,137,32*63
$BDGSV,4,3,13,02,37,234,32,04,37,118,36,28,27,136,31,20,17,230,34*69
$BDGSV,4,4,13,05,15,253,26*5B
$BDRMC,101836.000,A,3018.4750,N,12004.6500,E,0.16,347.32,270326,,,A*7E
$BDVTG,347.32,T,,M,0.16,N,0.29,K,A*21
$BDGGA,101837.000,3018.4750,N,12004.6500,E,1,11,1.12,16.5,M,7.0,M,,*7E
$BDGLL,3018.4750,N,12004.6500,E,101837.000,A,A*4C
$BDGSA,A,3,02,01,30,13,03,08,07,27,04,28,20,,1.43,1.12,0.88*10
$BDGSV,4,1,13,27,71,134,41,10,61,232,,07,59,208,38,08,57,297,38*6D
$BDGSV,4,2,13,03,54,199,36,13,50,282,39,30,48,317,44,01,47,137,32*63
$BDGSV,4,3,13,02,37,234,32,04,37,118,36,28,27,136,31,20,17,230,34*69
$BDGSV,4,4,13,05,15,253,26*5B
$BDRMC,101837.000,A,3018.4750,N,12004.6500,E,0.06,347.32,270326,,,A*7E
$BDVTG,347.32,T,,M,0.06,N,0.12,K,A*28
$BDGGA,101838.000,3018.4750,N,12004.6500,E,1,11,1.12,16.5,M,7.0,M,,*71
$BDGLL,3018.4750,N,12004.6500,E,101838.000,A,A*43
$BDGSA,A,3,02,01,30,13,03,08,07,27,04,28,20,,1.43,1.12,0.89*11
$BDGSV,4,1,13,27,71,134,41,10,61,232,,07,59,208,38,08,57,297,38*6D
$BDGSV,4,2,13,03,54,199,35,13,50,282,40,30,48,317,44,01,47,137,31*6D
$BDGSV,4,3,13,02,37,234,33,04,37,118,36,28,27,136,31,20,17,230,34*68
$BDGSV,4,4,13,05,15,253,26*5B
$BDRMC,101838.000,A,3018.4750,N,12004.6500,E,0.22,347.32,270326,,,A*77
$BDVTG,347.32,T,,M,0.22,N,0.40,K,A*29
$BDGGA,101839.000,3018.4750,N,12004.6500,E,1,11,1.12,16.5,M,7.0,M,,*70
$BDGLL,3018.4750,N,12004.6500,E,101839.000,A,A*42
$BDGSA,A,3,02,01,30,13,03,08,07,27,04,28,20,,1.43,1.12,0.89*11
$BDGSV,4,1,13,27,70,135,42,10,61,232,,07,59,208,38,08,57,297,38*6E
$BDGSV,4,2,13,03,54,199,34,13,50,282,40,30,48,317,44,01,47,137,32*6F
$BDGSV,4,3,13,02,37,234,33,04,37,118,36,28,27,136,31,20,17,230,32*6E
$BDGSV,4,4,13,05,15,253,26*5B
$BDRMC,101839.000,A,3018.4750,N,12004.6500,E,0.07,347.32,270326,,,A*71
$BDVTG,347.32,T,,M,0.07,N,0.13,K,A*28
$BDGGA,101840.000,3018.4751,N,12004.6500,E,1,11,1.12,16.5,M,7.0,M,,*7F
$BDGLL,3018.4751,N,12004.6500,E,101840.000,A,A*4D
$BDGSA,A,3,02,01,30,13,03,08,07,27,04,28,20,,1.43,1.12,0.89*11
$BDGSV,4,1,13,27,70,135,42,10,61,232,,07,59,208,38,08,57,297,38*6E
$BDGSV,4,2,13,03,54,199,34,13,50,282,40,30,48,317,45,01,47,137,32*6E
$BDGSV,4,3,13,02,37,234,33,04,37,118,36,28,26,137,32,20,17,230,33*6C
$BDGSV,4,4,13,05,15,253,26*5B
$BDRMC,101840.000,A,3018.4751,N,12004.6500,E,0.20,347.32,270326,,,A*7B
$BDVTG,347.32,T,,M,0.20,N,0.37,K,A*2B
$BDGGA,101841.000,3018.4751,N,12004.6500,E,1,11,1.12,16.5,M,7.0,M,,*7E
$BDGLL,3018.4751,N,12004.6500,E,101841.000,A,A*4C
$BDGSA,A,3,02,01,30,13,03,08,07,27,04,28,20,,1.43,1.12,0.89*11
$BDGSV,4,1,14,27,70,135,42,10,61,232,,07,59,208,38,08,57,297,38*69
$BDGSV,4,2,14,03,54,199,35,13,50,282,40,30,48,317,45,01,47,137,32*68
$BDGSV,4,3,14,02,37,234,33,04,37,118,36,28,26,137,32,20,17,230,34*6C
$BDGSV,4,4,14,05,15,253,27,29,01,318,*6D
$BDRMC,101841.000,A,3018.4751,N,12004.6500,E,0.09,347.32,270326,,,A*71
$BDVTG,347.32,T,,M,0.09,N,0.17,K,A*22
$BDGGA,101842.000,3018.4751,N,12004.6500,E,1,11,1.12,16.6,M,7.0,M,,*7E
$BDGLL,3018.4751,N,12004.6500,E,101842.000,A,A*4F
$BDGSA,A,3,02,01,30,13,03,08,07,27,04,28,20,,1.43,1.12,0.89*11
$BDGSV,4,1,14,27,70,135,42,10,61,232,,07,59,208,38,08,57,297,38*69
$BDGSV,4,2,14,03,54,199,35,13,50,282,40,30,49,317,45,01,47,137,33*68
$BDGSV,4,3,14,02,37,234,33,04,37,118,36,28,26,137,31,20,17,230,34*6F
$BDGSV,4,4,14,05,15,253,27,29,01,318,*6D
$BDRMC,101842.000,A,3018.4751,N,12004.6500,E,0.12,347.32,270326,,,A*78
$BDVTG,347.32,T,,M,0.12,N,0.23,K,A*2F
$BDGGA,101843.000,3018.4751,N,12004.6500,E,1,11,1.12,16.5,M,7.0,M,,*7C
$BDGLL,3018.4751,N,12004.6500,E,101843.000,A,A*4E
$BDGSA,A,3,02,01,30,13,03,08,07,27,04,28,20,,1.43,1.12,0.89*11
$BDGSV,4,1,14,27,70,135,42,10,61,232,,07,59,208,37,08,57,297,38*66
$BDGSV,4,2,14,03,54,199,34,13,50,282,40,30,49,317,45,01,47,137,33*69
$BDGSV,4,3,14,02,37,234,33,04,37,118,36,28,26,137,30,20,17,230,35*6F
$BDGSV,4,4,14,05,15,253,27,29,01,318,*6D
$BDRMC,101843.000,A,3018.4751,N,12004.6500,E,0.07,347.32,270326,,,A*7D
$BDVTG,347.32,T,,M,0.07,N,0.13,K,A*28
$BDGGA,101844.000,3018.4751,N,12004.6500,E,1,11,1.12,16.5,M,7.0,M,,*7B
$BDGLL,3018.4751,N,12004.6500,E,101844.000,A,A*49
$BDGSA,A,3,02,01,30,13,03,08,07,27,04,28,20,,1.43,1.12,0.89*11
$BDGSV,4,1,14,27,70,135,41,10,61,232,,07,59,208,37,08,57,297,38*65
$BDGSV,4,2,14,03,54,199,33,13,50,282,40,30,49,317,44,01,47,137,33*6F
$BDGSV,4,3,14,02,37,234,33,04,37,118,36,28,26,137,30,20,17,230,36*6C
$BDGSV,4,4,14,05,15,253,27,29,01,318,*6D
$BDRMC,101844.000,A,3018.4751,N,12004.6500,E,0.01,347.32,270326,,,A*7C
$BDVTG,347.32,T,,M,0.01,N,0.02,K,A*2E
$BDGGA,101845.000,3018.4751,N,12004.6500,E,1,11,1.12,16.5,M,7.0,M,,*7A
$BDGLL,3018.4751,N,12004.6500,E,101845.000,A,A*48
$BDGSA,A,3,02,01,30,13,03,08,07,27,04,28,20,,1.43,1.12,0.89*11
$BDGSV,4,1,14,27,70,135,40,10,61,232,,07,59,208,37,08,57,297,39*65
$BDGSV,4,2,14,03,54,199,40,13,50,282,40,30,49,317,43,01,47,137,34*6B
$BDGSV,4,3,14,02,37,234,33,04,37,118,36,28,26,137,30,20,17,230,36*6C
$BDGSV,4,4,14,05,15,253,27,29,01,318,*6D
$BDRMC,101845.000,A,3018.4751,N,12004.6500,E,0.12,347.32,270326,,,A*7F
$BDVTG,347.32,T,,M,0.12,N,0.23,K,A*2F
$BDGGA,101846.000,3018.4751,N,12004.6500,E,1,11,1.12,16.5,M,7.0,M,,*79
$BDGLL,3018.4751,N,12004.6500,E,101846.000,A,A*4B
$BDGSA,A,3,02,01,30,13,03,08,07,27,04,28,20,,1.43,1.12,0.89*11
$BDGSV,4,1,14,27,70,135,40,10,61,232,,07,59,208,38,08,57,297,39*6A
$BDGSV,4,2,14,03,54,199,40,13,50,282,39,30,49,317,43,01,47,137,34*65
$BDGSV,4,3,14,02,37,234,32,04,37,118,36,28,26,137,31,20,17,230,36*6C
$BDGSV,4,4,14,05,15,253,27,29,01,318,*6D
$BDRMC,101846.000,A,3018.4751,N,12004.6500,E,0.03,347.32,270326,,,A*7C
$BDVTG,347.32,T,,M,0.03,N,0.06,K,A*28
$BDGGA,101847.000,3018.4751,N,12004.6500,E,1,11,1.12,16.5,M,7.0,M,,*78
$BDGLL,3018.4751,N,12004.6500,E,101847.000,A,A*4A
$BDGSA,A,3,02,01,30,13,03,08,07,27,04,28,20,,1.43,1.12,0.89*11
$BDGSV,4,1,14,27,70,135,39,10,61,232,,07,59,208,38,08,57,297,39*64
$BDGSV,4,2,14,03,54,199,39,13,50,282,40,30,49,317,43,01,47,137,34*65
$BDGSV,4,3,14,02,37,234,33,04,37,118,37,28,26,137,32,20,17,230,37*6E
$BDGSV,4,4,14,05,15,253,27,29,01,318,*6D
$BDRMC,101847.000,A,3018.4751,N,12004.6500,E,0.04,347.32,270326,,,A*7A
$BDVTG,347.32,T,,M,0.04,N,0.08,K,A*21
$BDGGA,101848.000,3018.4751,N,12004.6500,E,1,11,1.12,16.5,M,7.0,M,,*77
$BDGLL,3018.4751,N,12004.6500,E,101848.000,A,A*45
$BDGSA,A,3,02,01,30,13,03,08,07,27,04,28,20,,1.43,1.12,0.89*11
$BDGSV,4,1,14,27,70,135,39,10,61,232,,07,59,208,38,08,57,297,39*64
$BDGSV,4,2,14,03,54,199,38,13,50,282,40,30,49,317,43,01,47,137,34*64
$BDGSV,4,3,14,02,37,234,33,04,37,118,37,28,26,137,32,20,17,230,37*6E
$BDGSV,4,4,14,05,15,253,27,29,01,318,*6D
$BDRMC,101848.000,A,3018.4751,N,12004.6500,E,0.10,347.32,270326,,,A*70
$BDVTG,347.32,T,,M,0.10,N,0.19,K,A*24
$BDGGA,101849.000,3018.4750,N,12004.6500,E,1,11,1.12,16.5,M,7.0,M,,*77
$BDGLL,3018.4750,N,12004.6500,E,101849.000,A,A*45
$BDGSA,A,3,02,01,30,13,03,08,07,27,04,28,20,,1.43,1.12,0.89*11
$BDGSV,4,1,14,27,70,135,39,10,61,232,,07,59,208,38,08,57,297,39*64
$BDGSV,4,2,14,03,54,199,38,13,50,282,40,30,49,317,42,01,47,137,34*65
$BDGSV,4,3,14,02,37,234,33,04,37,118,37,28,26,137,31,20,17,230,37*6D
$BDGSV,4,4,14,05,15,253,27,29,01,318,*6D
$BDRMC,101849.000,A,3018.4750,N,12004.6500,E,0.03,347.32,270326,,,A*72
$BDVTG,347.32,T,,M,0.03,N,0.05,K,A*2B
$BDGGA,101850.000,3018.4751,N,12004.6501,E,1,11,1.12,16.5,M,7.0,M,,*7F
$BDGLL,3018.4751,N,12004.6501,E,101850.000,A,A*4D
$BDGSA,A,3,02,01,30,13,03,08,07,27,04,28,20,,1.43,1.12,0.89*11
$BDGSV,4,1,14,27,70,135,39,10,61,232,,07,59,208,38,08,57,297,39*64
$BDGSV,4,2,14,03,54,199,38,13,50,282,40,30,49,317,42,01,47,137,34*65
$BDGSV,4,3,14,02,37,234,33,04,37,118,37,28,26,137,31,20,17,230,37*6D
$BDGSV,4,4,14,05,15,253,27,29,01,318,*6D
$BDRMC,101850.000,A,3018.4751,N,12004.6501,E,0.04,347.32,270326,,,A*7D
$BDVTG,347.32,T,,M,0.04,N,0.07,K,A*2E
$BDGGA,101851.000,3018.4751,N,12004.6501,E,1,11,1.12,16.5,M,7.0,M,,*7E
$BDGLL,3018.4751,N,12004.6501,E,101851.000,A,A*4C
$BDGSA,A,3,02,01,30,13,03,08,07,27,04,28,20,,1.43,1.12,0.89*11
$BDGSV,4,1,14,27,70,135,39,10,61,232,,07,59,208,38,08,57,297,39*64
$BDGSV,4,2,14,03,54,199,38,13,50,282,40,30,49,317,42,01,47,137,34*65
$BDGSV,4,3,14,02,37,234,33,04,37,118,37,28,26,137,31,20,17,230,37*6D
$BDGSV,4,4,14,05,15,253,27,29,01,318,*6D
$BDRMC,101851.000,A,3018.4751,N,12004.6501,E,0.03,347.32,270326,,,A*7B
$BDVTG,347.32,T,,M,0.03,N,0.05,K,A*2B
$BDGGA,101852.000,3018.4751,N,12004.6500,E,1,11,1.12,16.5,M,7.0,M,,*7C
$BDGLL,3018.4751,N,12004.6500,E,101852.000,A,A*4E
$BDGSA,A,3,02,01,30,13,03,08,07,27,04,28,20,,1.43,1.12,0.89*11
$BDGSV,4,1,14,27,70,135,39,10,61,232,,07,59,208,38,08,57,297,39*64
$BDGSV,4,2,14,03,54,199,38,13,50,282,40,30,49,317,42,01,47,137,34*65
$BDGSV,4,3,14,02,37,234,32,04,37,118,37,28,26,137,31,20,17,230,37*6C
$BDGSV,4,4,14,05,15,253,27,29,01,318,*6D
$BDRMC,101852.000,A,3018.4751,N,12004.6500,E,0.10,347.32,270326,,,A*7B
$BDVTG,347.32,T,,M,0.10,N,0.18,K,A*25
$BDGGA,101853.000,3018.4751,N,12004.6500,E,1,11,1.12,16.5,M,7.0,M,,*7D
$BDGLL,3018.4751,N,12004.6500,E,101853.000,A,A*4F
$BDGSA,A,3,02,01,30,13,03,08,07,27,04,28,20,,1.43,1.12,0.89*11
$BDGSV,4,1,14,27,70,135,40,10,61,232,,07,59,208,37,08,57,297,39*65
$BDGSV,4,2,14,03,54,199,38,13,50,282,40,30,49,317,42,01,47,137,35*64
$BDGSV,4,3,14,02,37,234,32,04,37,118,37,28,26,137,31,20,17,230,37*6C
$BDGSV,4,4,14,05,15,253,27,29,01,318,*6D
$BDRMC,101853.000,A,3018.4751,N,12004.6500,E,0.06,347.32,270326,,,A*7D
$BDVTG,347.32,T,,M,0.06,N,0.11,K,A*2B
$BDGGA,101854.000,3018.4751,N,12004.6500,E,1,11,1.12,16.5,M,7.0,M,,*7A
$BDGLL,3018.4751,N,12004.6500,E,101854.000,A,A*48
$BDGSA,A,3,02,01,30,13,03,08,07,27,04,28,20,,1.43,1.12,0.89*11
$BDGSV,4,1,14,27,70,135,40,10,61,232,,07,59,208,37,08,57,297,39*65
$BDGSV,4,2,14,03,54,199,38,13,50,282,40,30,49,317,42,01,47,137,35*64
$BDGSV,4,3,14,02,37,234,32,04,37,118,37,28,26,137,31,20,17,230,37*6C
$BDGSV,4,4,14,05,15,253,27,29,01,318,*6D
$BDRMC,101854.000,A,3018.4751,N,12004.6500,E,0.08,347.32,270326,,,A*74
$BDVTG,347.32,T,,M,0.08,N,0.15,K,A*21
$BDGGA,101855.000,3018.4751,N,12004.6500,E,1,11,1.12,16.5,M,7.0,M,,*7B
$BDGLL,3018.4751,N,12004.6500,E,101855.000,A,A*49
$BDGSA,A,3,02,01,30,13,03,08,07,27,04,28,20,,1.43,1.12,0.89*11
$BDGSV,4,1,14,27,70,135,40,10,61,232,,07,59,208,37,08,57,297,39*65
$BDGSV,4,2,14,03,54,199,38,13,50,282,40,30,49,317,42,01,47,137,35*64
$BDGSV,4,3,14,02,37,234,32,04,37,118,37,28,26,137,31,20,17,230,37*6C
$BDGSV,4,4,14,05,15,253,27,29,01,318,*6D
$BDRMC,101855.000,A,3018.4751,N,12004.6500,E,0.06,347.32,270326,,,A*7B
$BDVTG,347.32,T,,M,0.06,N,0.11,K,A*2B
$BDGGA,101856.000,3018.4751,N,12004.6500,E,1,11,1.12,16.5,M,7.0,M,,*78
$BDGLL,3018.4751,N,12004.6500,E,101856.000,A,A*4A
$BDGSA,A,3,02,01,30,13,03,08,07,27,04,28,20,,1.43,1.12,0.89*11
$BDGSV,4,1,14,27,70,135,40,10,61,232,,07,59,208,37,08,57,297,39*65
$BDGSV,4,2,14,03,54,199,38,13,50,282,40,30,49,317,42,01,47,137,35*64
$BDGSV,4,3,14,02,37,234,32,04,37,118,37,28,26,137,31,20,17,230,37*6C
$BDGSV,4,4,14,05,15,253,27,29,01,318,*6D
$BDRMC,101856.000,A,3018.4751,N,12004.6500,E,0.09,347.32,270326,,,A*77
$BDVTG,347.32,T,,M,0.09,N,0.16,K,A*23
$BDGGA,101857.000,3018.4751,N,12004.6500,E,1,11,1.12,16.5,M,7.0,M,,*79
$BDGLL,3018.4751,N,12004.6500,E,101857.000,A,A*4B
$BDGSA,A,3,02,01,30,13,03,08,07,27,04,28,20,,1.43,1.12,0.89*11
$BDGSV,4,1,14,27,70,135,41,10,61,232,,07,59,208,37,08,57,297,39*64
$BDGSV,4,2,14,03,54,199,38,13,50,282,40,30,49,317,42,01,47,137,35*64
$BDGSV,4,3,14,02,37,234,31,04,37,118,37,28,26,137,31,20,17,230,37*6F
$BDGSV,4,4,14,05,15,253,27,29,01,318,*6D
$BDRMC,101857.000,A,3018.4751,N,12004.6500,E,0.14,347.32,270326,,,A*7A
$BDVTG,347.32,T,,M,0.14,N,0.25,K,A*2F
$BDGGA,101858.000,3018.4751,N,12004.6501,E,1,11,1.12,16.5,M,7.0,M,,*77
$BDGLL,3018.4751,N,12004.6501,E,101858.000,A,A*45
$BDGSA,A,3,02,01,30,13,03,08,07,27,04,28,20,,1.43,1.12,0.89*11
$BDGSV,4,1,14,27,70,135,41,10,61,232,,07,59,208,37,08,57,297,38*65
$BDGSV,4,2,14,03,54,199,37,13,50,282,41,30,49,317,43,01,47,137,34*6A
$BDGSV,4,3,14,02,37,234,31,04,37,118,36,28,26,137,32,20,17,230,37*6D
$BDGSV,4,4,14,05,15,253,27,29,01,318,*6D
$BDRMC,101858.000,A,3018.4751,N,12004.6501,E,0.24,347.32,270326,,,A*77
$BDVTG,347.32,T,,M,0.24,N,0.45,K,A*2A
$BDGGA,101859.000,3018.4751,N,12004.6500,E,1,11,1.12,16.5,M,7.0,M,,*77
$BDGLL,3018.4751,N,12004.6500,E,101859.000,A,A*45
$BDGSA,A,3,02,01,30,13,03,08,07,27,04,28,20,,1.43,1.12,0.89*11
$BDGSV,4,1,14,27,70,135,41,10,61,232,,07,59,208,37,08,57,297,38*65
$BDGSV,4,2,14,03,54,199,37,13,50,282,41,30,49,317,43,01,47,137,34*6A
$BDGSV,4,3,14,02,37,234,31,04,37,118,36,28,26,137,31,20,17,230,37*6E
$BDGSV,4,4,14,05,15,253,27,29,01,318,*6D
$BDRMC,101859.000,A,3018.4751,N,12004.6500,E,0.07,347.32,270326,,,A*76
$BDVTG,347.32,T,,M,0.07,N,0.12,K,A*29
$BDGGA,101900.000,3018.4751,N,12004.6500,E,1,11,1.12,16.5,M,7.0,M,,*7A
$BDGLL,3018.4751,N,12004.6500,E,101900.000,A,A*48
$BDGSA,A,3,02,01,30,13,03,08,07,27,04,28,20,,1.43,1.12,0.89*11
$BDGSV,4,1,14,27,70,135,41,10,61,232,,07,59,208,37,08,57,297,38*65
$BDGSV,4,2,14,03,54,199,37,13,50,282,41,30,49,317,43,01,47,137,34*6A
$BDGSV,4,3,14,02,37,234,31,04,37,118,36,28,26,137,31,20,17,230,37*6E
$BDGSV,4,4,14,05,15,253,27,29,01,318,*6D
$BDRMC,101900.000,A,3018.4751,N,12004.6500,E,0.04,347.32,270326,,,A*78
$BDVTG,347.32,T,,M,0.04,N,0.08,K,A*21
$BDGGA,101901.000,3018.4751,N,12004.6500,E,1,11,1.12,16.5,M,7.0,M,,*7B
$BDGLL,3018.4751,N,12004.6500,E,101901.000,A,A*49
$BDGSA,A,3,02,01,30,13,03,08,07,27,04,28,20,,1.43,1.12,0.89*11
$BDGSV,4,1,14,27,70,135,41,10,61,232,,07,59,208,37,08,57,297,38*65
$BDGSV,4,2,14,03,54,199,37,13,50,282,41,30,49,317,44,01,47,137,34*6D
$BDGSV,4,3,14,02,37,234,31,04,37,118,35,28,26,137,30,20,17,230,37*6C
$BDGSV,4,4,14,05,15,253,28,29,01,318,*62
$BDRMC,101901.000,A,3018.4751,N,12004.6500,E,0.03,347.32,270326,,,A*7E
$BDVTG,347.32,T,,M,0.03,N,0.05,K,A*2B
$BDGGA,101902.000,3018.4751,N,12004.6500,E,1,11,1.12,16.5,M,7.0,M,,*78
$BDGLL,3018.4751,N,12004.6500,E,101902.000,A,A*4A
$BDGSA,A,3,02,01,30,13,03,08,07,27,04,28,20,,1.43,1.12,0.89*11
$BDGSV,4,1,14,27,70,135,41,10,61,232,,07,59,208,37,08,57,297,38*65
$BDGSV,4,2,14,03,54,199,37,13,50,282,41,30,49,317,44,01,47,137,34*6D
$BDGSV,4,3,14,02,37,234,31,04,37,118,35,28,26,137,29,20,17,230,38*6B
$BDGSV,4,4,14,05,15,253,28,29,01,318,*62
$BDRMC,101902.000,A,3018.4751,N,12004.6500,E,0.06,347.32,270326,,,A*78
$BDVTG,347.32,T,,M,0.06,N,0.10,K,A*2A
$BDGGA,101903.000,3018.4751,N,12004.6501,E,1,11,1.12,16.5,M,7.0,M,,*78
$BDGLL,3018.4751,N,12004.6501,E,101903.000,A,A*4A
$BDGSA,A,3,02,01,30,13,03,08,07,27,04,28,20,,1.43,1.12,0.89*11
$BDGSV,4,1,14,27,70,135,41,10,61,232,,07,59,208,37,08,57,297,38*65
$BDGSV,4,2,14,03,54,199,37,13,50,282,41,30,49,317,44,01,47,137,34*6D
$BDGSV,4,3,14,02,37,234,30,04,37,118,35,28,26,137,29,20,17,230,38*6A
$BDGSV,4,4,14,05,15,253,28,29,01,318,*62
$BDRMC,101903.000,A,3018.4751,N,12004.6501,E,0.27,347.32,270326,,,A*7B
$BDVTG,347.32,T,,M,0.27,N,0.49,K,A*25
$BDGGA,101904.000,3018.4751,N,12004.6501,E,1,11,1.12,16.5,M,7.0,M,,*7F
$BDGLL,3018.4751,N,12004.6501,E,101904.000,A,A*4D
$BDGSA,A,3,02,01,30,13,03,08,07,27,04,28,20,,1.43,1.12,0.89*11
$BDGSV,4,1,14,27,70,135,41,10,61,232,,07,59,208,37,08,57,297,38*65
$BDGSV,4,2,14,03,54,199,36,13,50,282,41,30,49,317,44,01,47,137,34*6C
$BDGSV,4,3,14,02,37,234,29,04,37,118,35,28,26,137,28,20,17,230,38*63
$BDGSV,4,4,14,05,15,253,28,29,01,318,*62
$BDRMC,101904.000,A,3018.4751,N,12004.6501,E,0.12,347.32,270326,,,A*7A
$BDVTG,347.32,T,,M,0.12,N,0.22,K,A*2E
$BDGGA,101905.000,3018.4751,N,12004.6501,E,1,11,1.12,16.5,M,7.0,M,,*7E
$BDGLL,3018.4751,N,12004.6501,E,101905.000,A,A*4C
$BDGSA,A,3,02,01,30,13,03,08,07,27,04,28,20,,1.43,1.12,0.89*11
$BDGSV,4,1,14,27,70,135,42,10,61,232,,07,59,208,38,08,57,297,38*69
$BDGSV,4,2,14,03,54,199,36,13,50,282,41,30,49,317,44,01,47,137,34*6C
$BDGSV,4,3,14,02,37,234,29,04,37,118,35,28,26,137,28,20,17,230,38*63
$BDGSV,4,4,14,05,15,253,28,29,01,318,*62
$BDRMC,101905.000,A,3018.4751,N,12004.6501,E,0.09,347.32,270326,,,A*71
$BDVTG,347.32,T,,M,0.09,N,0.17,K,A*22
$BDGGA,101906.000,3018.4751,N,12004.6501,E,1,11,1.12,16.5,M,7.0,M,,*7D
$BDGLL,3018.4751,N,12004.6501,E,101906.000,A,A*4F
$BDGSA,A,3,02,01,30,13,03,08,07,27,04,28,20,,1.43,1.12,0.89*11
$BDGSV,4,1,14,27,70,135,42,10,61,232,,07,59,208,38,08,57,297,38*69
$BDGSV,4,2,14,03,54,199,36,13,50,282,41,30,49,317,44,01,47,137,34*6C
$BDGSV,4,3,14,02,37,234,29,04,37,118,35,28,26,137,28,20,17,230,38*63
$BDGSV,4,4,14,05,15,253,28,29,01,318,*62
$BDRMC,101906.000,A,3018.4751,N,12004.6501,E,0.07,347.32,270326,,,A*7C
$BDVTG,347.32,T,,M,0.07,N,0.12,K,A*29
$BDGGA,101907.000,3018.4751,N,12004.6501,E,1,11,1.12,16.5,M,7.0,M,,*7C
$BDGLL,3018.4751,N,12004.6501,E,101907.000,A,A*4E
$BDGSA,A,3,02,01,30,13,03,08,07,27,04,28,20,,1.43,1.12,0.89*11
$BDGSV,4,1,14,27,70,135,42,10,61,232,,07,59,208,38,08,57,297,38*69
$BDGSV,4,2,14,03,54,199,35,13,50,282,41,30,49,317,44,01,47,137,34*6F
$BDGSV,4,3,14,02,37,234,30,04,37,118,35,28,26,137,28,20,17,230,39*6A
$BDGSV,4,4,14,05,15,253,28,29,01,318,*62
$BDRMC,101907.000,A,3018.4751,N,12004.6501,E,0.03,347.32,270326,,,A*79
$BDVTG,347.32,T,,M,0.03,N,0.06,K,A*28
$BDGGA,101908.000,3018.4751,N,12004.6501,E,1,11,1.12,16.5,M,7.0,M,,*73
$BDGLL,3018.4751,N,12004.6501,E,101908.000,A,A*41
$BDGSA,A,3,02,01,30,13,03,08,07,27,04,28,20,,1.43,1.12,0.89*11
$BDGSV,4,1,14,27,70,135,42,10,61,232,,07,59,208,38,08,57,297,38*69
$BDGSV,4,2,14,03,54,199,36,13,50,282,41,30,49,317,44,01,47,137,34*6C
$BDGSV,4,3,14,02,37,234,31,04,37,118,35,28,26,137,28,20,17,230,39*6B
$BDGSV,4,4,14,05,15,253,28,29,01,318,*62
$BDRMC,101908.000,A,3018.4751,N,12004.6501,E,0.05,347.32,270326,,,A*70
$BDVTG,347.32,T,,M,0.05,N,0.08,K,A*20
$BDGGA,101909.000,3018.4751,N,12004.6501,E,1,11,1.12,16.5,M,7.0,M,,*72
$BDGLL,3018.4751,N,12004.6501,E,101909.000,A,A*40
$BDGSA,A,3,02,01,30,13,03,08,07,27,04,28,20,,1.43,1.12,0.89*11
$BDGSV,4,1,14,27,70,135,42,10,61,232,,07,59,208,38,08,57,297,38*69
$BDGSV,4,2,14,03,54,199,36,13,50,282,41,30,49,317,44,01,47,137,34*6C
$BDGSV,4,3,14,02,37,234,31,04,37,118,35,28,26,137,28,20,17,230,38*6A
$BDGSV,4,4,14,05,15,253,27,29,01,318,*6D
$BDRMC,101909.000,A,3018.4751,N,12004.6501,E,0.21,347.32,270326,,,A*77
$BDVTG,347.32,T,,M,0.21,N,0.38,K,A*25
$BDGGA,101910.000,3018.4751,N,12004.6502,E,1,11,1.12,16.4,M,7.0,M,,*78
$BDGLL,3018.4751,N,12004.6502,E,101910.000,A,A*4B
$BDGSA,A,3,02,01,30,13,03,08,07,27,04,28,20,,1.43,1.12,0.89*11
$BDGSV,4,1,14,27,70,135,42,10,61,232,,07,59,208,38,08,57,297,38*69
$BDGSV,4,2,14,03,54,199,36,13,50,282,41,30,49,317,44,01,47,137,34*6C
$BDGSV,4,3,14,02,37,234,31,04,37,118,35,28,26,137,29,20,17,230,38*6B
$BDGSV,4,4,14,05,15,253,27,29,01,318,*6D
$BDRMC,101910.000,A,3018.4751,N,12004.6502,E,0.09,347.32,270326,,,A*76
$BDVTG,347.32,T,,M,0.09,N,0.17,K,A*22
$BDGGA,101911.000,3018.4751,N,12004.6502,E,1,11,1.12,16.4,M,7.0,M,,*79
$BDGLL,3018.4751,N,12004.6502,E,101911.000,A,A*4A
$BDGSA,A,3,02,01,30,13,03,08,07,27,04,28,20,,1.43,1.12,0.89*11
$BDGSV,4,1,14,27,70,135,42,10,61,232,,07,59,208,38,08,57,297,38*69
$BDGSV,4,2,14,03,54,199,36,13,50,282,41,30,49,317,44,01,47,137,34*6C
$BDGSV,4,3,14,02,37,234,30,04,37,118,35,28,26,137,29,20,17,230,38*6A
$BDGSV,4,4,14,05,15,253,27,29,01,318,*6D
$BDRMC,101911.000,A,3018.4751,N,12004.6502,E,0.17,347.32,270326,,,A*78
$BDVTG,347.32,T,,M,0.17,N,0.32,K,A*2A
$BDGGA,101912.000,3018.4751,N,12004.6501,E,1,11,1.12,16.4,M,7.0,M,,*79
$BDGLL,3018.4751,N,12004.6501,E,101912.000,A,A*4A
$BDGSA,A,3,02,01,30,13,03,08,07,27,04,28,20,,1.43,1.12,0.89*11
$BDGSV,4,1,14,27,70,135,42,10,61,232,,07,59,208,38,08,57,297,37*66
$BDGSV,4,2,14,03,54,199,37,13,50,282,41,30,49,317,44,01,47,137,34*6D
$BDGSV,4,3,14,02,37,234,30,04,37,118,35,28,26,137,29,20,17,230,38*6A
$BDGSV,4,4,14,05,15,253,27,29,01,318,*6D
$BDRMC,101912.000,A,3018.4751,N,12004.6501,E,0.01,347.32,270326,,,A*7F
$BDVTG,347.32,T,,M,0.01,N,0.02,K,A*2E
$BDGGA,101913.000,3018.4752,N,12004.6502,E,1,11,1.12,16.4,M,7.0,M,,*78
$BDGLL,3018.4752,N,12004.6502,E,101913.000,A,A*4B
$BDGSA,A,3,02,01,30,13,03,08,07,27,04,28,20,,1.43,1.12,0.89*11
$BDGSV,4,1,14,27,70,135,42,10,61,232,,07,59,208,38,08,57,297,37*66
$BDGSV,4,2,14,03,54,199,37,13,50,282,41,30,49,317,44,01,47,137,34*6D
$BDGSV,4,3,14,02,37,234,31,04,37,118,35,28,26,137,30,20,17,230,37*6C
$BDGSV,4,4,14,05,15,253,27,29,01,318,*6D
$BDRMC,101913.000,A,3018.4752,N,12004.6502,E,0.06,347.32,270326,,,A*79
$BDVTG,347.32,T,,M,0.06,N,0.11,K,A*2B
$BDGGA,101914.000,3018.4752,N,12004.6501,E,1,11,1.12,16.4,M,7.0,M,,*7C
$BDGLL,3018.4752,N,12004.6501,E,101914.000,A,A*4F
$BDGSA,A,3,02,01,30,13,03,08,07,27,04,28,20,,1.43,1.12,0.89*11
$BDGSV,4,1,14,27,70,135,42,10,61,232,,07,59,208,38,08,57,297,38*69
$BDGSV,4,2,14,03,54,199,37,13,50,282,40,30,49,317,44,01,47,137,34*6C
$BDGSV,4,3,14,02,37,234,31,04,37,118,36,28,26,137,30,20,17,230,36*6E
$BDGSV,4,4,14,05,15,253,27,29,01,318,*6D
$BDRMC,101914.000,A,3018.4752,N,12004.6501,E,0.00,347.32,270326,,,A*7B
$BDVTG,347.32,T,,M,0.00,N,0.01,K,A*2C
$BDGGA,101915.000,3018.4752,N,12004.6501,E,1,11,1.12,16.4,M,7.0,M,,*7D
$BDGLL,3018.4752,N,12004.6501,E,101915.000,A,A*4E
$BDGSA,A,3,02,01,30,13,03,08,07,27,04,28,20,,1.43,1.12,0.89*11
$BDGSV,4,1,14,27,70,135,42,10,61,232,,07,59,208,38,08,57,297,38*69
$BDGSV,4,2,14,03,54,199,37,13,50,282,39,30,49,317,44,01,47,137,34*62
$BDGSV,4,3,14,02,37,234,31,04,37,118,36,28,26,137,31,20,17,230,36*6F
$BDGSV,4,4,14,05,15,253,27,29,01,318,*6D
$BDRMC,101915.000,A,3018.4752,N,12004.6501,E,0.12,347.32,270326,,,A*79
$BDVTG,347.32,T,,M,0.12,N,0.22,K,A*2E
$BDGGA,101916.000,3018.4751,N,12004.6501,E,1,11,1.12,16.4,M,7.0,M,,*7D
$BDGLL,3018.4751,N,12004.6501,E,101916.000,A,A*4E
$BDGSA,A,3,02,01,30,13,03,08,07,27,04,28,20,,1.43,1.12,0.89*11
$BDGSV,4,1,14,27,70,135,42,10,61,232,,07,59,208,38,08,57,297,38*69
$BDGSV,4,2,14,03,54,199,37,13,50,282,39,30,49,317,44,01,47,137,34*62
$BDGSV,4,3,14,02,37,234,31,04,37,118,36,28,26,137,32,20,17,230,36*6C
$BDGSV,4,4,14,05,15,253,27,29,01,318,*6D
$BDRMC,101916.000,A,3018.4751,N,12004.6501,E,0.03,347.32,270326,,,A*79
$BDVTG,347.32,T,,M,0.03,N,0.05,K,A*2B
$BDGGA,101917.000,3018.4751,N,12004.6502,E,1,11,1.12,16.4,M,7.0,M,,*7F
$BDGLL,3018.4751,N,12004.6502,E,101917.000,A,A*4C
$BDGSA,A,3,02,01,30,13,03,08,07,27,04,28,20,,1.43,1.12,0.89*11
$BDGSV,4,1,14,27,70,135,42,10,61,232,,07,59,208,38,08,57,297,38*69
$BDGSV,4,2,14,03,54,199,37,13,50,282,39,30,49,317,44,01,47,137,34*62
$BDGSV,4,3,14,02,37,234,32,04,37,118,36,28,26,137,32,20,17,230,36*6F
$BDGSV,4,4,14,05,15,253,27,29,01,318,*6D
$BDRMC,101917.000,A,3018.4751,N,12004.6502,E,0.04,347.32,270326,,,A*7C
$BDVTG,347.32,T,,M,0.04,N,0.08,K,A*21
$BDGGA,101918.000,3018.4751,N,12004.6502,E,1,11,1.12,16.4,M,7.0,M,,*70
$BDGLL,3018.4751,N,12004.6502,E,101918.000,A,A*43
$BDGSA,A,3,02,01,30,13,03,08,07,27,04,28,20,,1.43,1.12,0.89*11
$BDGSV,4,1,14,27,70,135,42,10,61,232,,07,59,208,38,08,57,297,38*69
$BDGSV,4,2,14,03,54,199,37,13,50,282,39,30,49,317,44,01,47,137,34*62
$BDGSV,4,3,14,02,37,234,32,04,37,118,36,28,26,137,31,20,17,230,36*6C
$BDGSV,4,4,14,05,15,253,27,29,01,318,*6D
$BDRMC,101918.000,A,3018.4751,N,12004.6502,E,0.06,347.32,270326,,,A*71
$BDVTG,347.32,T,,M,0.06,N,0.11,K,A*2B
$BDGGA,101919.000,3018.4751,N,12004.6502,E,1,11,1.12,16.4,M,7.0,M,,*71
$BDGLL,3018.4751,N,12004.6502,E,101919.000,A,A*42
$BDGSA,A,3,02,01,30,13,03,08,07,27,04,28,20,,1.43,1.12,0.89*11
$BDGSV,4,1,14,27,70,135,42,10,61,232,,07,59,208,38,08,57,297,38*69
$BDGSV,4,2,14,03,54,199,37,13,50,282,39,30,49,317,44,01,47,137,34*62
$BDGSV,4,3,14,02,37,234,32,04,37,118,36,28,26,137,31,20,17,230,36*6C
$BDGSV,4,4,14,05,15,253,27,29,01,318,*6D
$BDRMC,101919.000,A,3018.4751,N,12004.6502,E,0.01,347.32,270326,,,A*77
$BDVTG,347.32,T,,M,0.01,N,0.02,K,A*2E
$BDGGA,101920.000,3018.4751,N,12004.6501,E,1,11,1.12,16.4,M,7.0,M,,*78
$BDGLL,3018.4751,N,12004.6501,E,101920.000,A,A*4B
$BDGSA,A,3,02,01,30,13,03,08,07,27,04,28,20,,1.43,1.12,0.89*11
$BDGSV,4,1,14,27,70,135,42,10,61,232,,07,59,208,38,08,57,297,38*69
$BDGSV,4,2,14,03,54,199,37,13,50,282,39,30,49,317,44,01,47,137,34*62
$BDGSV,4,3,14,02,37,234,31,04,37,118,36,28,26,137,31,20,17,230,36*6F
$BDGSV,4,4,14,05,15,253,26,29,01,318,*6C
$BDRMC,101920.000,A,3018.4751,N,12004.6501,E,0.13,347.32,270326,,,A*7D
$BDVTG,347.32,T,,M,0.13,N,0.24,K,A*29
$BDGGA,101921.000,3018.4751,N,12004.6501,E,1,11,1.12,16.4,M,7.0,M,,*79
$BDGLL,3018.4751,N,12004.6501,E,101921.000,A,A*4A
$BDGSA,A,3,02,01,30,13,03,08,07,27,04,28,20,,1.43,1.12,0.89*11
$BDGSV,4,1,14,27,70,135,42,10,61,232,,07,59,208,38,08,57,297,38*69
$BDGSV,4,2,14,03,54,199,37,13,50,282,39,30,49,317,44,01,47,137,34*62
$BDGSV,4,3,14,02,37,234,31,04,37,118,36,28,26,137,31,20,17,230,36*6F
$BDGSV,4,4,14,05,15,253,25,29,01,318,*6F
$BDRMC,101921.000,A,3018.4751,N,12004.6501,E,0.07,347.32,270326,,,A*79
$BDVTG,347.32,T,,M,0.07,N,0.12,K,A*29
$BDGGA,101922.000,3018.4751,N,12004.6501,E,1,11,1.12,16.4,M,7.0,M,,*7A
$BDGLL,3018.4751,N,12004.6501,E,101922.000,A,A*49
$BDGSA,A,3,02,01,30,13,03,08,07,27,04,28,20,,1.43,1.12,0.89*11
$BDGSV,4,1,14,27,70,135,42,10,61,232,,07,59,208,38,08,57,297,38*69
$BDGSV,4,2,14,03,54,199,37,13,50,282,40,30,49,317,44,01,47,137,34*6C
$BDGSV,4,3,14,02,37,234,31,04,37,118,36,28,26,137,31,20,17,230,36*6F
$BDGSV,4,4,14,05,15,253,24,29,01,318,*6E
$BDRMC,101922.000,A,3018.4751,N,12004.6501,E,0.11,347.32,270326,,,A*7D
$BDVTG,347.32,T,,M,0.11,N,0.21,K,A*2E
$BDGGA,101923.000,3018.4751,N,12004.6501,E,1,11,1.12,16.4,M,7.0,M,,*7B
$BDGLL,3018.4751,N,12004.6501,E,101923.000,A,A*48
$BDGSA,A,3,02,01,30,13,03,08,07,27,04,28,20,,1.43,1.12,0.89*11
$BDGSV,4,1,14,27,70,135,42,10,61,232,,07,59,208,38,08,57,297,38*69
$BDGSV,4,2,14,03,54,199,37,13,50,282,40,30,49,317,44,01,47,137,34*6C
$BDGSV,4,3,14,02,37,234,30,04,37,118,36,28,26,137,31,20,17,230,36*6E
$BDGSV,4,4,14,05,15,253,24,29,01,318,*6E
$BDRMC,101923.000,A,3018.4751,N,12004.6501,E,0.05,347.32,270326,,,A*79
$BDVTG,347.32,T,,M,0.05,N,0.10,K,A*29
$BDGGA,101924.000,3018.4751,N,12004.6501,E,1,11,1.12,16.4,M,7.0,M,,*7C
$BDGLL,3018.4751,N,12004.6501,E,101924.000,A,A*4F
$BDGSA,A,3,02,01,30,13,03,08,07,27,04,28,20,,1.43,1.12,0.89*11
$BDGSV,4,1,14,27,70,135,42,10,61,232,,07,59,208,38,08,57,297,38*69
$BDGSV,4,2,14,03,54,199,37,13,50,282,40,30,49,317,44,01,47,137,34*6C
$BDGSV,4,3,14,02,37,234,31,04,37,118,36,28,26,137,31,20,17,230,36*6F
$BDGSV,4,4,14,05,15,253,,29,01,318,*68
$BDRMC,101924.000,A,3018.4751,N,12004.6501,E,0.06,347.32,270326,,,A*7D
$BDVTG,347.32,T,,M,0.06,N,0.11,K,A*2B
$BDGGA,101925.000,3018.4751,N,12004.6501,E,1,11,1.12,16.4,M,7.0,M,,*7D
$BDGLL,3018.4751,N,12004.6501,E,101925.000,A,A*4E
$BDGSA,A,3,02,01,30,13,03,08,07,27,04,28,20,,1.43,1.12,0.89*11
$BDGSV,4,1,14,27,70,135,42,10,61,232,,07,59,208,38,08,57,297,38*69
$BDGSV,4,2,14,03,54,199,37,13,50,282,40,30,49,317,44,01,47,137,34*6C
$BDGSV,4,3,14,02,37,234,31,04,37,118,36,28,26,137,31,20,17,230,36*6F
$BDGSV,4,4,14,05,15,253,,29,01,318,*68
$BDRMC,101925.000,A,3018.4751,N,12004.6501,E,0.14,347.32,270326,,,A*7F
$BDVTG,347.32,T,,M,0.14,N,0.27,K,A*2D
$BDGGA,101926.000,3018.4750,N,12004.6501,E,1,11,1.12,16.4,M,7.0,M,,*7F
$BDGLL,3018.4750,N,12004.6501,E,101926.000,A,A*4C
$BDGSA,A,3,02,01,30,13,03,08,07,27,04,28,20,,1.43,1.12,0.89*11
$BDGSV,4,1,14,27,70,135,42,10,61,232,,07,59,208,38,08,57,297,38*69
$BDGSV,4,2,14,03,54,199,37,13,50,282,40,30,49,317,44,01,47,137,34*6C
$BDGSV,4,3,14,02,37,234,31,04,37,118,36,28,26,137,30,20,17,230,35*6D
$BDGSV,4,4,14,05,15,253,,29,01,318,*68
$BDRMC,101926.000,A,3018.4750,N,12004.6501,E,0.03,347.32,270326,,,A*7B
$BDVTG,347.32,T,,M,0.03,N,0.06,K,A*28
$BDGGA,101927.000,3018.4750,N,12004.6501,E,1,11,1.12,16.4,M,7.0,M,,*7E
$BDGLL,3018.4750,N,12004.6501,E,101927.000,A,A*4D
$BDGSA,A,3,02,01,30,13,03,08,07,27,04,28,20,,1.43,1.12,0.89*11
$BDGSV,4,1,14,27,70,135,42,10,61,232,,07,59,208,38,08,57,297,37*66
$BDGSV,4,2,14,03,54,199,37,13,50,282,40,30,49,317,36,01,47,137,34*69
$BDGSV,4,3,14,02,37,234,31,04,37,118,36,28,26,137,29,20,17,230,35*65
$BDGSV,4,4,14,05,15,253,,29,01,318,*68
$BDRMC,101927.000,A,3018.4750,N,12004.6501,E,0.02,347.32,270326,,,A*7B
$BDVTG,347.32,T,,M,0.02,N,0.05,K,A*2A
$BDGGA,101928.000,3018.4750,N,12004.6501,E,1,11,1.12,16.4,M,7.0,M,,*71
$BDGLL,3018.4750,N,12004.6501,E,101928.000,A,A*42
$BDGSA,A,3,02,01,30,13,03,08,07,27,04,28,20,,1.43,1.12,0.89*11
$BDGSV,4,1,14,27,70,135,42,10,61,232,,07,59,208,38,08,57,297,36*67
$BDGSV,4,2,14,03,54,199,37,13,50,282,40,30,49,317,36,01,47,137,34*69
$BDGSV,4,3,14,02,37,234,32,04,37,118,36,28,26,137,29,20,17,230,35*66
$BDGSV,4,4,14,05,15,253,,29,01,318,*68
$BDRMC,101928.000,A,3018.4750,N,12004.6501,E,0.03,347.32,270326,,,A*75
$BDVTG,347.32,T,,M,0.03,N,0.06,K,A*28
$BDGGA,101929.000,3018.4750,N,12004.6501,E,1,11,1.12,16.4,M,7.0,M,,*70
$BDGLL,3018.4750,N,12004.6501,E,101929.000,A,A*43
$BDGSA,A,3,02,01,30,13,03,08,07,27,04,28,20,,1.43,1.12,0.89*11
$BDGSV,4,1,14,27,70,135,43,10,61,232,,07,59,208,38,08,57,297,36*66
$BDGSV,4,2,14,03,54,199,37,13,50,282,40,30,49,317,43,01,47,137,34*6B
$BDGSV,4,3,14,02,37,234,32,04,37,118,36,28,26,137,29,20,17,230,35*66
$BDGSV,4,4,14,05,15,253,26,29,01,318,*6C
$BDRMC,101929.000,A,3018.4750,N,12004.6501,E,0.04,347.32,270326,,,A*73
$BDVTG,347.32,T,,M,0.04,N,0.08,K,A*21
$BDGGA,101930.000,3018.4750,N,12004.6501,E,1,11,1.12,16.3,M,7.0,M,,*7F
$BDGLL,3018.4750,N,12004.6501,E,101930.000,A,A*4B
$BDGSA,A,3,02,01,30,13,03,08,07,27,04,28,20,,1.43,1.12,0.89*11
$BDGSV,4,1,14,27,70,135,43,10,61,232,,07,59,208,38,08,57,297,36*66
$BDGSV,4,2,14,03,54,199,37,13,50,282,40,30,49,317,43,01,47,137,34*6B
$BDGSV,4,3,14,02,37,234,32,04,37,118,36,28,26,137,28,20,17,230,35*67
$BDGSV,4,4,14,05,15,253,29,29,01,318,*63
$BDRMC,101930.000,A,3018.4750,N,12004.6501,E,0.04,347.32,270326,,,A*7B
$BDVTG,347.32,T,,M,0.04,N,0.07,K,A*2E
$BDGGA,101931.000,3018.4750,N,12004.6501,E,1,11,1.12,16.3,M,7.0,M,,*7E
$BDGLL,3018.4750,N,12004.6501,E,101931.000,A,A*4A
$BDGSA,A,3,02,01,30,13,03,08,07,27,04,28,20,,1.43,1.12,0.89*11
$BDGSV,4,1,14,27,70,135,43,10,61,232,,07,59,208,38,08,57,297,36*66
$BDGSV,4,2,14,03,54,199,37,13,50,282,40,30,49,317,43,01,47,137,34*6B
$BDGSV,4,3,14,02,37,234,32,04,37,118,36,28,26,137,28,20,17,230,35*67
$BDGSV,4,4,14,05,15,253,28,29,01,318,*62
$BDRMC,101931.000,A,3018.4750,N,12004.6501,E,0.07,347.32,270326,,,A*79
$BDVTG,347.32,T,,M,0.07,N,0.14,K,A*2F
$BDGGA,101932.000,3018.4750,N,12004.6500,E,1,11,1.12,16.4,M,7.0,M,,*7B
$BDGLL,3018.4750,N,12004.6500,E,101932.000,A,A*48
$BDGSA,A,3,02,01,30,13,03,08,07,27,04,28,20,,1.43,1.12,0.89*11
$BDGSV,4,1,14,27,70,135,43,10,61,232,,07,59,208,38,08,57,297,36*66
$BDGSV,4,2,14,03,54,199,37,13,50,282,40,30,49,317,44,01,47,137,34*6C
$BDGSV,4,3,14,02,37,234,32,04,37,118,36,28,26,137,28,20,17,230,36*64
$BDGSV,4,4,14,05,15,253,27,29,01,318,*6D
$BDRMC,101932.000,A,3018.4750,N,12004.6500,E,0.13,347.32,270326,,,A*7E
$BDVTG,347.32,T,,M,0.13,N,0.24,K,A*29
$BDGGA,101933.000,3018.4750,N,12004.6500,E,1,10,1.16,16.4,M,7.0,M,,*7F
$BDGLL,3018.4750,N,12004.6500,E,101933.000,A,A*49
$BDGSA,A,3,02,01,30,13,03,08,07,27,04,20,,,1.47,1.16,0.91*12
$BDGSV,4,1,14,27,70,135,43,10,61,232,,07,59,208,38,08,57,297,36*66
$BDGSV,4,2,14,03,54,199,37,13,50,282,40,30,49,317,44,01,47,137,34*6C
$BDGSV,4,3,14,02,37,234,31,04,37,118,36,28,26,137,29,20,17,230,36*66
$BDGSV,4,4,14,05,15,253,27,29,01,318,*6D
$BDRMC,101933.000,A,3018.4750,N,12004.6500,E,0.20,347.32,270326,,,A*7F
$BDVTG,347.32,T,,M,0.20,N,0.38,K,A*24
$BDGGA,101934.000,3018.4750,N,12004.6500,E,1,11,1.12,16.4,M,7.0,M,,*7D
$BDGLL,3018.4750,N,12004.6500,E,101934.000,A,A*4E
$BDGSA,A,3,02,01,30,13,03,08,07,28,27,04,20,,1.43,1.12,0.89*11
$BDGSV,4,1,14,27,70,135,43,10,61,232,,07,59,208,38,08,57,297,36*66
$BDGSV,4,2,14,03,54,199,37,13,50,282,40,30,49,317,44,01,47,137,34*6C
$BDGSV,4,3,14,02,37,234,31,04,37,118,36,28,26,137,29,20,17,230,36*66
$BDGSV,4,4,14,05,15,253,27,29,01,318,*6D
$BDRMC,101934.000,A,3018.4750,N,12004.6500,E,0.04,347.32,270326,,,A*7E
$BDVTG,347.32,T,,M,0.04,N,0.08,K,A*21
$BDGGA,101935.000,3018.4750,N,12004.6500,E,1,11,1.12,16.3,M,7.0,M,,*7B
$BDGLL,3018.4750,N,12004.6500,E,101935.000,A,A*4F
$BDGSA,A,3,02,01,30,13,03,08,07,28,27,04,20,,1.43,1.12,0.89*11
$BDGSV,4,1,14,27,70,135,42,10,61,232,,07,59,208,38,08,57,297,37*66
$BDGSV,4,2,14,03,54,199,37,13,50,282,40,30,49,317,44,01,47,137,34*6C
$BDGSV,4,3,14,02,37,234,31,04,37,118,36,28,26,137,27,20,17,230,36*68
$BDGSV,4,4,14,05,15,253,27,29,01,318,*6D
$BDRMC,101935.000,A,3018.4750,N,12004.6500,E,0.05,347.32,270326,,,A*7E
$BDVTG,347.32,T,,M,0.05,N,0.09,K,A*21
$BDGGA,101936.000,3018.4750,N,12004.6500,E,1,11,1.12,16.3,M,7.0,M,,*78
$BDGLL,3018.4750,N,12004.6500,E,101936.000,A,A*4C
$BDGSA,A,3,02,01,30,13,03,08,07,28,27,04,20,,1.43,1.12,0.89*11
$BDGSV,4,1,14,27,70,135,42,10,61,232,,07,59,208,38,08,57,297,37*66
$BDGSV,4,2,14,03,54,199,37,13,50,282,40,30,49,317,44,01,47,137,34*6C
$BDGSV,4,3,14,02,37,234,31,04,37,118,36,28,26,137,29,20,17,230,36*66
$BDGSV,4,4,14,05,15,253,27,29,01,318,*6D
$BDRMC,101936.000,A,3018.4750,N,12004.6500,E,0.04,347.32,270326,,,A*7C
$BDVTG,347.32,T,,M,0.04,N,0.07,K,A*2E
$BDGGA,101937.000,3018.4750,N,12004.6500,E,1,11,1.12,16.3,M,7.0,M,,*79
$BDGLL,3018.4750,N,12004.6500,E,101937.000,A,A*4D
$BDGSA,A,3,02,01,30,13,03,08,07,28,27,04,20,,1.43,1.12,0.89*11
$BDGSV,4,1,14,27,70,135,42,10,61,232,,07,59,208,38,08,57,297,37*66
$BDGSV,4,2,14,03,54,199,36,13,50,282,40,30,49,317,44,01,47,137,34*6D
$BDGSV,4,3,14,02,37,234,31,04,37,118,36,28,26,137,27,20,17,230,36*68
$BDGSV,4,4,14,05,15,253,26,29,01,318,*6C
$BDRMC,101937.000,A,3018.4750,N,12004.6500,E,0.08,347.32,270326,,,A*71
$BDVTG,347.32,T,,M,0.08,N,0.15,K,A*21
$BDGGA,101938.000,3018.4750,N,12004.6500,E,1,10,1.16,16.3,M,7.0,M,,*73
$BDGLL,3018.4750,N,12004.6500,E,101938.000,A,A*42
$BDGSA,A,3,02,01,30,13,03,08,07,27,04,20,,,1.47,1.16,0.91*12
$BDGSV,4,1,14,27,70,135,42,10,61,232,,07,59,208,38,08,57,297,37*66
$BDGSV,4,2,14,03,54,199,36,13,50,282,40,30,49,317,44,01,47,137,35*6C
$BDGSV,4,3,14,02,37,234,32,04,37,118,36,28,26,137,28,20,17,230,36*64
$BDGSV,4,4,14,05,15,253,26,29,01,318,*6C
$BDRMC,101938.000,A,3018.4750,N,12004.6500,E,0.08,347.32,270326,,,A*7E
$BDVTG,347.32,T,,M,0.08,N,0.14,K,A*20
$BDGGA,101939.000,3018.4751,N,12004.6501,E,1,11,1.12,16.3,M,7.0,M,,*77
$BDGLL,3018.4751,N,12004.6501,E,101939.000,A,A*43
$BDGSA,A,3,02,01,30,13,03,08,07,28,27,04,20,,1.43,1.12,0.89*11
$BDGSV,4,1,14,27,70,135,42,10,61,232,,07,59,208,38,08,57,297,37*66
$BDGSV,4,2,14,03,54,199,36,13,50,282,40,30,49,317,44,01,47,137,35*6C
$BDGSV,4,3,14,02,37,234,33,04,37,118,36,28,26,137,28,20,17,230,36*65
$BDGSV,4,4,14,05,15,253,26,29,01,318,*6C
$BDRMC,101939.000,A,3018.4751,N,12004.6501,E,0.10,347.32,270326,,,A*76
$BDVTG,347.32,T,,M,0.10,N,0.19,K,A*24
$BDGGA,101940.000,3018.4751,N,12004.6501,E,1,11,1.12,16.3,M,7.0,M,,*79
$BDGLL,3018.4751,N,12004.6501,E,101940.000,A,A*4D
$BDGSA,A,3,02,01,30,13,03,08,07,28,27,04,20,,1.43,1.12,0.89*11
$BDGSV,4,1,14,27,70,135,42,10,61,232,,07,59,208,38,08,57,297,37*66
$BDGSV,4,2,14,03,54,199,36,13,50,282,40,30,49,317,44,01,47,137,35*6C
$BDGSV,4,3,14,02,37,234,33,04,37,118,36,28,26,137,28,20,17,230,36*65
$BDGSV,4,4,14,05,15,253,26,29,01,318,*6C
$BDRMC,101940.000,A,3018.4751,N,12004.6501,E,0.17,347.32,270326,,,A*7F
$BDVTG,347.32,T,,M,0.17,N,0.32,K,A*2A
$BDGGA,101941.000,3018.4751,N,12004.6501,E,1,11,1.12,16.3,M,7.0,M,,*78
$BDGLL,3018.4751,N,12004.6501,E,101941.000,A,A*4C
$BDGSA,A,3,02,01,30,13,03,08,07,28,27,04,20,,1.43,1.12,0.89*11
$BDGSV,4,1,14,27,70,135,42,10,61,232,,07,59,208,38,08,57,297,37*66
$BDGSV,4,2,14,03,54,199,36,13,50,282,40,30,49,317,44,01,47,137,35*6C
$BDGSV,4,3,14,02,37,234,33,04,37,118,36,28,26,137,28,20,17,230,36*65
$BDGSV,4,4,14,05,15,253,26,29,01,318,*6C
$BDRMC,101941.000,A,3018.4751,N,12004.6501,E,0.17,347.32,270326,,,A*7E
$BDVTG,347.32,T,,M,0.17,N,0.32,K,A*2A
$BDGGA,101942.000,3018.4750,N,12004.6501,E,1,11,1.12,16.3,M,7.0,M,,*7A
$BDGLL,3018.4750,N,12004.6501,E,101942.000,A,A*4E
$BDGSA,A,3,02,01,30,13,03,08,07,28,27,04,20,,1.43,1.12,0.89*11
$BDGSV,4,1,14,27,70,135,42,10,61,232,,07,59,208,38,08,57,297,37*66
$BDGSV,4,2,14,03,54,199,36,13,50,282,40,30,49,317,44,01,47,137,35*6C
$BDGSV,4,3,14,02,37,234,33,04,37,118,36,28,26,137,28,20,17,230,36*65
$BDGSV,4,4,14,05,15,253,26,29,01,318,*6C
$BDRMC,101942.000,A,3018.4750,N,12004.6501,E,0.14,347.32,270326,,,A*7F
$BDVTG,347.32,T,,M,0.14,N,0.26,K,A*2C
$BDGGA,101943.000,3018.4750,N,12004.6502,E,1,11,1.12,16.3,M,7.0,M,,*78
$BDGLL,3018.4750,N,12004.6502,E,101943.000,A,A*4C
$BDGSA,A,3,02,01,30,13,03,08,07,28,27,04,20,,1.43,1.12,0.89*11
$BDGSV,4,1,14,27,70,135,42,10,61,232,,07,59,208,38,08,57,297,37*66
$BDGSV,4,2,14,03,54,199,36,13,50,282,40,30,49,317,44,01,47,137,35*6C
$BDGSV,4,3,14,02,37,234,33,04,37,118,36,28,26,137,27,20,17,230,36*6A
$BDGSV,4,4,14,05,15,253,26,29,01,318,*6C
$BDRMC,101943.000,A,3018.4750,N,12004.6502,E,0.13,347.32,270326,,,A*7A
$BDVTG,347.32,T,,M,0.13,N,0.23,K,A*2E
$BDGGA,101944.000,3018.4750,N,12004.6502,E,1,11,1.12,16.4,M,7.0,M,,*78
$BDGLL,3018.4750,N,12004.6502,E,101944.000,A,A*4B
$BDGSA,A,3,02,01,30,13,03,08,07,28,27,04,20,,1.43,1.12,0.89*11
$BDGSV,4,1,14,27,70,135,42,10,61,232,,07,59,208,38,08,57,297,37*66
$BDGSV,4,2,14,03,54,199,36,13,50,282,40,30,49,317,44,01,47,137,35*6C
$BDGSV,4,3,14,02,37,234,33,04,37,118,36,28,26,137,27,20,17,230,36*6A
$BDGSV,4,4,14,05,15,253,26,29,01,318,*6C
$BDRMC,101944.000,A,3018.4750,N,12004.6502,E,0.07,347.32,270326,,,A*78
$BDVTG,347.32,T,,M,0.07,N,0.13,K,A*28
$BDGGA,101945.000,3018.4750,N,12004.6502,E,1,11,1.12,16.4,M,7.0,M,,*79
$BDGLL,3018.4750,N,12004.6502,E,101945.000,A,A*4A
$BDGSA,A,3,02,01,30,13,03,08,07,28,27,04,20,,1.43,1.12,0.89*11
$BDGSV,4,1,14,27,70,135,42,10,61,232,,07,59,208,38,08,57,297,37*66
$BDGSV,4,2,14,03,54,199,36,13,50,282,40,30,49,317,44,01,47,137,35*6C
$BDGSV,4,3,14,02,37,234,33,04,37,118,36,28,26,137,27,20,17,230,36*6A
$BDGSV,4,4,14,05,15,253,26,29,01,318,*6C
$BDRMC,101945.000,A,3018.4750,N,12004.6502,E,0.11,347.32,270326,,,A*7E
$BDVTG,347.32,T,,M,0.11,N,0.21,K,A*2E
$BDGGA,101946.000,3018.4750,N,12004.6502,E,1,11,1.12,16.4,M,7.0,M,,*7A
$BDGLL,3018.4750,N,12004.6502,E,101946.000,A,A*49
$BDGSA,A,3,02,01,30,13,03,08,07,28,27,04,20,,1.43,1.12,0.89*11
$BDGSV,4,1,14,27,70,135,42,10,61,232,,07,59,208,38,08,57,297,37*66
$BDGSV,4,2,14,03,54,199,36,13,50,282,40,30,49,317,44,01,47,137,35*6C
$BDGSV,4,3,14,02,37,234,32,04,37,118,36,28,26,137,27,20,17,230,36*6B
$BDGSV,4,4,14,05,15,253,26,29,01,318,*6C
$BDRMC,101946.000,A,3018.4750,N,12004.6502,E,0.11,347.32,270326,,,A*7D
$BDVTG,347.32,T,,M,0.11,N,0.20,K,A*2F
$BDGGA,101947.000,3018.4750,N,12004.6502,E,1,11,1.12,16.4,M,7.0,M,,*7B
$BDGLL,3018.4750,N,12004.6502,E,101947.000,A,A*48
$BDGSA,A,3,02,01,30,13,03,08,07,28,27,04,20,,1.43,1.12,0.89*11
$BDGSV,4,1,14,27,70,135,42,10,61,232,,07,59,208,38,08,57,297,37*66
$BDGSV,4,2,14,03,54,199,36,13,50,282,40,30,49,317,44,01,47,137,35*6C
$BDGSV,4,3,14,02,37,234,32,04,37,118,36,28,26,137,27,20,17,230,37*6A
$BDGSV,4,4,14,05,15,253,26,29,01,318,*6C
$BDRMC,101947.000,A,3018.4750,N,12004.6502,E,0.11,347.32,270326,,,A*7C
$BDVTG,347.32,T,,M,0.11,N,0.21,K,A*2E
$BDGGA,101948.000,3018.4751,N,12004.6502,E,1,11,1.12,16.4,M,7.0,M,,*75
$BDGLL,3018.4751,N,12004.6502,E,101948.000,A,A*46
$BDGSA,A,3,02,01,30,13,03,08,07,28,27,04,20,,1.43,1.12,0.89*11
$BDGSV,4,1,14,27,70,135,42,10,61,232,,07,59,208,38,08,57,297,37*66
$BDGSV,4,2,14,03,54,199,36,13,50,282,40,30,49,317,44,01,47,137,35*6C
$BDGSV,4,3,14,02,37,234,32,04,37,118,36,28,26,137,27,20,17,230,37*6A
$BDGSV,4,4,14,05,15,253,26,29,01,318,*6C
$BDRMC,101948.000,A,3018.4751,N,12004.6502,E,0.10,347.32,270326,,,A*73
$BDVTG,347.32,T,,M,0.10,N,0.19,K,A*24
$BDGGA,101949.000,3018.4751,N,12004.6502,E,1,11,1.12,16.4,M,7.0,M,,*74
$BDGLL,3018.4751,N,12004.6502,E,101949.000,A,A*47
$BDGSA,A,3,02,01,30,13,03,08,07,28,27,04,20,,1.43,1.12,0.89*11
$BDGSV,4,1,14,27,70,135,42,10,61,232,,07,59,208,38,08,57,297,37*66
$BDGSV,4,2,14,03,54,199,36,13,50,282,40,30,49,317,44,01,47,137,35*6C
$BDGSV,4,3,14,02,37,234,32,04,37,118,36,28,26,137,27,20,17,230,37*6A
$BDGSV,4,4,14,05,15,253,,29,01,318,*68
$BDRMC,101949.000,A,3018.4751,N,12004.6502,E,0.10,347.32,270326,,,A*72
$BDVTG,347.32,T,,M,0.10,N,0.19,K,A*24
$BDGGA,101950.000,3018.4751,N,12004.6502,E,1,11,1.12,16.4,M,7.0,M,,*7C
$BDGLL,3018.4751,N,12004.6502,E,101950.000,A,A*4F
$BDGSA,A,3,02,01,30,13,03,08,07,28,27,04,20,,1.43,1.12,0.89*11
$BDGSV,4,1,14,27,70,135,42,10,61,232,,07,59,208,38,08,57,297,37*66
$BDGSV,4,2,14,03,54,199,37,13,50,282,40,30,49,317,44,01,47,137,35*6D
$BDGSV,4,3,14,02,37,234,32,04,37,118,36,28,26,137,28,20,17,230,36*64
$BDGSV,4,4,14,05,15,253,26,29,01,318,*6C
$BDRMC,101950.000,A,3018.4751,N,12004.6502,E,0.07,347.32,270326,,,A*7C
$BDVTG,347.32,T,,M,0.07,N,0.13,K,A*28
$BDGGA,101951.000,3018.4751,N,12004.6502,E,1,11,1.12,16.4,M,7.0,M,,*7D
$BDGLL,3018.4751,N,12004.6502,E,101951.000,A,A*4E
$BDGSA,A,3,02,01,30,13,03,08,07,28,27,04,20,,1.43,1.12,0.89*11
$BDGSV,4,1,14,27,70,135,41,10,61,232,,07,59,208,38,08,57,297,38*6A
$BDGSV,4,2,14,03,54,199,37,13,50,282,40,30,49,317,43,01,47,137,35*6A
$BDGSV,4,3,14,02,37,234,32,04,37,118,36,28,26,137,28,20,17,230,35*67
$BDGSV,4,4,14,05,15,253,,29,01,318,*68
$BDRMC,101951.000,A,3018.4751,N,12004.6502,E,0.04,347.32,270326,,,A*7E
$BDVTG,347.32,T,,M,0.04,N,0.07,K,A*2E
$BDGGA,101952.000,3018.4751,N,12004.6502,E,1,11,1.12,16.4,M,7.0,M,,*7E
$BDGLL,3018.4751,N,12004.6502,E,101952.000,A,A*4D
$BDGSA,A,3,02,01,30,13,03,08,07,28,27,04,20,,1.43,1.12,0.89*11
$BDGSV,4,1,14,27,70,135,42,10,61,232,,07,59,208,38,08,57,297,37*66
$BDGSV,4,2,14,03,54,199,38,13,50,282,41,30,49,317,42,01,47,137,35*65
$BDGSV,4,3,14,02,37,234,32,04,37,118,36,28,26,137,29,20,17,230,34*67
$BDGSV,4,4,14,05,15,253,,29,01,318,*68
$BDRMC,101952.000,A,3018.4751,N,12004.6502,E,0.03,347.32,270326,,,A*7A
$BDVTG,347.32,T,,M,0.03,N,0.05,K,A*2B
$BDGGA,101953.000,3018.4751,N,12004.6502,E,1,11,1.12,16.4,M,7.0,M,,*7F
$BDGLL,3018.4751,N,12004.6502,E,101953.000,A,A*4C
$BDGSA,A,3,02,01,30,13,03,08,07,28,27,04,20,,1.43,1.12,0.89*11
$BDGSV,4,1,14,27,70,135,42,10,61,232,,07,59,208,38,08,57,297,37*66
$BDGSV,4,2,14,03,54,199,38,13,50,282,41,30,49,317,42,01,47,137,35*65
$BDGSV,4,3,14,02,37,234,32,04,37,118,36,28,26,137,29,20,17,230,33*60
$BDGSV,4,4,14,05,15,253,,29,01,318,*68
$BDRMC,101953.000,A,3018.4751,N,12004.6502,E,0.02,347.32,270326,,,A*7A
$BDVTG,347.32,T,,M,0.02,N,0.04,K,A*2B
$BDGGA,101954.000,3018.4751,N,12004.6502,E,1,11,1.12,16.4,M,7.0,M,,*78
$BDGLL,3018.4751,N,12004.6502,E,101954.000,A,A*4B
$BDGSA,A,3,02,01,30,13,03,08,07,28,27,04,20,,1.43,1.12,0.89*11
$BDGSV,4,1,14,27,70,135,42,10,61,232,,07,59,208,38,08,57,297,36*67
$BDGSV,4,2,14,03,54,199,38,13,50,282,42,30,49,317,42,01,47,137,35*66
$BDGSV,4,3,14,02,37,234,32,04,37,118,36,28,26,137,29,20,17,230,32*61
$BDGSV,4,4,14,05,15,253,,29,01,318,*68
$BDRMC,101954.000,A,3018.4751,N,12004.6502,E,0.03,347.32,270326,,,A*7C
$BDVTG,347.32,T,,M,0.03,N,0.05,K,A*2B
$BDGGA,101955.000,3018.4751,N,12004.6502,E,1,11,1.12,16.4,M,7.0,M,,*79
$BDGLL,3018.4751,N,12004.6502,E,101955.000,A,A*4A
$BDGSA,A,3,02,01,30,13,03,08,07,28,27,04,20,,1.43,1.12,0.89*11
$BDGSV,4,1,14,27,70,135,42,10,61,232,,07,59,208,38,08,57,297,37*66
$BDGSV,4,2,14,03,54,199,38,13,50,282,41,30,49,317,42,01,47,137,35*65
$BDGSV,4,3,14,02,37,234,32,04,37,118,36,28,26,137,29,20,17,230,33*60
$BDGSV,4,4,14,05,15,253,,29,01,318,*68
$BDRMC,101955.000,A,3018.4751,N,12004.6502,E,0.10,347.32,270326,,,A*7F
$BDVTG,347.32,T,,M,0.10,N,0.18,K,A*25
$BDGGA,101956.000,3018.4751,N,12004.6502,E,1,11,1.12,16.4,M,7.0,M,,*7A
$BDGLL,3018.4751,N,12004.6502,E,101956.000,A,A*49
$BDGSA,A,3,02,01,30,13,03,08,07,28,27,04,20,,1.43,1.12,0.89*11
$BDGSV,4,1,14,27,70,135,42,10,61,232,,07,59,208,37,08,57,297,38*66
$BDGSV,4,2,14,03,54,199,38,13,50,282,40,30,49,317,43,01,47,137,35*65
$BDGSV,4,3,14,02,37,234,32,04,37,118,36,28,26,137,29,20,17,230,34*67
$BDGSV,4,4,14,05,15,253,27,29,01,318,*6D
$BDRMC,101956.000,A,3018.4751,N,12004.6502,E,0.05,347.32,270326,,,A*78
$BDVTG,347.32,T,,M,0.05,N,0.10,K,A*29
$BDGGA,101957.000,3018.4751,N,12004.6502,E,1,11,1.12,16.4,M,7.0,M,,*7B
$BDGLL,3018.4751,N,12004.6502,E,101957.000,A,A*48
$BDGSA,A,3,02,01,30,13,03,08,07,28,27,04,20,,1.43,1.12,0.89*11
$BDGSV,4,1,14,27,70,135,42,10,61,232,,07,59,208,37,08,57,297,38*66
$BDGSV,4,2,14,03,54,199,37,13,50,282,40,30,49,317,43,01,47,137,35*6A
$BDGSV,4,3,14,02,37,234,32,04,37,118,36,28,26,137,29,20,17,230,34*67
$BDGSV,4,4,14,05,15,253,28,29,01,318,*62
$BDRMC,101957.000,A,3018.4751,N,12004.6502,E,0.22,347.32,270326,,,A*7C
$BDVTG,347.32,T,,M,0.22,N,0.40,K,A*29
$BDGGA,101958.000,3018.4751,N,12004.6502,E,1,11,1.12,16.3,M,7.0,M,,*73
$BDGLL,3018.4751,N,12004.6502,E,101958.000,A,A*47
$BDGSA,A,3,02,01,30,13,03,08,07,28,27,04,20,,1.43,1.12,0.89*11
$BDGSV,4,1,14,27,70,135,42,10,61,232,,07,59,208,38,08,57,297,38*69
$BDGSV,4,2,14,03,54,199,36,13,50,282,41,30,49,317,43,01,47,137,35*6A
$BDGSV,4,3,14,02,37,234,31,04,37,118,36,28,26,137,29,20,17,230,33*63
$BDGSV,4,4,14,05,15,253,25,29,01,318,*6F
$BDRMC,101958.000,A,3018.4751,N,12004.6502,E,0.08,347.32,270326,,,A*7B
$BDVTG,347.32,T,,M,0.08,N,0.15,K,A*21
$BDGGA,101959.000,3018.4751,N,12004.6502,E,1,11,1.12,16.3,M,7.0,M,,*72
$BDGLL,3018.4751,N,12004.6502,E,101959.000,A,A*46
$BDGSA,A,3,02,01,30,13,03,08,07,28,27,04,20,,1.43,1.12,0.89*11
$BDGSV,4,1,14,27,70,135,42,10,61,232,,07,59,208,38,08,57,297,37*66
$BDGSV,4,2,14,03,54,199,36,13,50,282,42,30,49,317,42,01,47,137,35*68
$BDGSV,4,3,14,02,37,234,31,04,37,118,36,28,26,137,28,20,17,230,34*65
$BDGSV,4,4,14,05,15,253,27,29,01,318,*6D
$BDRMC,101959.000,A,3018.4751,N,12004.6502,E,0.12,347.32,270326,,,A*71
$BDVTG,347.32,T,,M,0.12,N,0.22,K,A*2E
$BDGGA,102000.000,3018.4751,N,12004.6502,E,1,11,1.12,16.3,M,7.0,M,,*74
$BDGLL,3018.4751,N,12004.6502,E,102000.000,A,A*40
$BDGSA,A,3,02,01,30,13,03,08,07,28,27,04,20,,1.43,1.12,0.89*11
$BDGSV,4,1,14,27,70,135,42,10,61,232,,07,59,208,38,08,57,297,37*66
$BDGSV,4,2,14,03,54,199,36,13,50,282,41,30,49,317,42,01,47,137,35*6B
$BDGSV,4,3,14,02,37,234,31,04,37,118,36,28,26,137,28,20,17,230,34*65
$BDGSV,4,4,14,05,15,253,27,29,01,318,*6D
$BDRMC,102000.000,A,3018.4751,N,12004.6502,E,0.08,347.32,270326,,,A*7C
$BDVTG,347.32,T,,M,0.08,N,0.14,K,A*20
$BDGGA,102001.000,3018.4751,N,12004.6503,E,1,11,1.12,16.3,M,7.0,M,,*74
$BDGLL,3018.4751,N,12004.6503,E,102001.000,A,A*40
$BDGSA,A,3,02,01,30,13,03,08,07,28,27,04,20,,1.43,1.12,0.89*11
$BDGSV,4,1,14,27,70,135,42,10,61,232,,07,59,208,38,08,57,297,37*66
$BDGSV,4,2,14,03,54,199,36,13,50,282,40,30,49,317,43,01,47,137,36*68
$BDGSV,4,3,14,02,37,234,31,04,37,118,36,28,26,137,27,20,17,230,34*6A
$BDGSV,4,4,14,05,15,253,28,29,01,318,*62
$BDRMC,102001.000,A,3018.4751,N,12004.6503,E,0.16,347.32,270326,,,A*73
$BDVTG,347.32,T,,M,0.16,N,0.30,K,A*29
$BDGGA,102002.000,3018.4751,N,12004.6503,E,1,11,1.12,16.3,M,7.0,M,,*77
$BDGLL,3018.4751,N,12004.6503,E,102002.000,A,A*43
$BDGSA,A,3,02,01,30,13,03,08,07,28,27,04,20,,1.43,1.12,0.89*11
$BDGSV,4,1,14,27,70,135,42,10,61,232,,07,59,208,38,08,57,297,37*66
$BDGSV,4,2,14,03,54,199,37,13,50,282,40,30,49,317,43,01,47,137,36*69
$BDGSV,4,3,14,02,37,234,31,04,37,118,36,28,26,137,26,20,17,230,35*6A
$BDGSV,4,4,14,05,15,253,29,29,01,318,*63
$BDRMC,102002.000,A,3018.4751,N,12004.6503,E,0.12,347.32,270326,,,A*74
$BDVTG,347.32,T,,M,0.12,N,0.23,K,A*2F
$BDGGA,102003.000,3018.4751,N,12004.6503,E,1,11,1.12,16.3,M,7.0,M,,*76
$BDGLL,3018.4751,N,12004.6503,E,102003.000,A,A*42
$BDGSA,A,3,02,01,30,13,03,08,07,28,27,04,20,,1.43,1.12,0.89*11
$BDGSV,4,1,14,27,70,135,42,10,61,232,,07,59,208,38,08,57,297,37*66
$BDGSV,4,2,14,03,54,199,37,13,50,282,40,30,49,317,43,01,47,137,36*69
$BDGSV,4,3,14,02,37,234,31,04,37,118,36,28,26,137,26,20,17,230,35*6A
$BDGSV,4,4,14,05,15,253,29,29,01,318,*63
$BDRMC,102003.000,A,3018.4751,N,12004.6503,E,0.10,347.32,270326,,,A*77
$BDVTG,347.32,T,,M,0.10,N,0.19,K,A*24
$BDGGA,102004.000,3018.4751,N,12004.6503,E,1,11,1.12,16.3,M,7.0,M,,*71
$BDGLL,3018.4751,N,12004.6503,E,102004.000,A,A*45
$BDGSA,A,3,02,01,30,13,03,08,07,28,27,04,20,,1.43,1.12,0.89*11
$BDGSV,4,1,14,27,70,135,42,10,61,232,,07,59,208,38,08,57,297,37*66
$BDGSV,4,2,14,03,54,199,37,13,50,282,40,30,49,317,42,01,47,137,36*68
$BDGSV,4,3,14,02,37,234,30,04,37,118,36,28,26,137,26,20,17,230,35*6B
$BDGSV,4,4,14,05,15,253,28,29,01,318,*62
$BDRMC,102004.000,A,3018.4751,N,12004.6503,E,0.05,347.32,270326,,,A*74
$BDVTG,347.32,T,,M,0.05,N,0.10,K,A*29
$BDGGA,102005.000,3018.4751,N,12004.6503,E,1,11,1.12,16.4,M,7.0,M,,*77
$BDGLL,3018.4751,N,12004.6503,E,102005.000,A,A*44
$BDGSA,A,3,02,01,30,13,03,08,07,28,27,04,20,,1.43,1.12,0.89*11
$BDGSV,4,1,14,27,70,135,42,10,61,232,,07,59,208,39,08,57,297,37*67
$BDGSV,4,2,14,03,54,199,37,13,50,282,40,30,49,317,42,01,47,137,35*6B
$BDGSV,4,3,14,02,37,234,30,04,37,118,36,28,26,137,26,20,17,230,34*6A
$BDGSV,4,4,14,05,15,253,28,29,01,318,*62
$BDRMC,102005.000,A,3018.4751,N,12004.6503,E,0.02,347.32,270326,,,A*72
$BDVTG,347.32,T,,M,0.02,N,0.04,K,A*2B
$BDGGA,102006.000,3018.4751,N,12004.6503,E,1,11,1.12,16.4,M,7.0,M,,*74
$BDGLL,3018.4751,N,12004.6503,E,102006.000,A,A*47
$BDGSA,A,3,02,01,30,13,03,08,07,28,27,04,20,,1.43,1.12,0.89*11
$BDGSV,4,1,14,27,70,135,42,10,61,232,,07,59,208,39,08,57,297,37*67
$BDGSV,4,2,14,03,54,199,37,13,50,282,41,30,49,317,43,01,47,137,35*6B
$BDGSV,4,3,14,02,37,234,30,04,37,118,36,28,26,137,27,20,17,230,34*6B
$BDGSV,4,4,14,05,15,253,28,29,01,318,*62
$BDRMC,102006.000,A,3018.4751,N,12004.6503,E,0.06,347.32,270326,,,A*75
$BDVTG,347.32,T,,M,0.06,N,0.12,K,A*28
$BDGGA,102007.000,3018.4751,N,12004.6503,E,1,11,1.12,16.3,M,7.0,M,,*72
$BDGLL,3018.4751,N,12004.6503,E,102007.000,A,A*46
$BDGSA,A,3,02,01,30,13,03,08,07,28,27,04,20,,1.43,1.12,0.89*11
$BDGSV,4,1,14,27,70,135,42,10,61,232,,07,59,208,39,08,57,297,37*67
$BDGSV,4,2,14,03,54,199,37,13,50,282,41,30,49,317,42,01,47,137,35*6A
$BDGSV,4,3,14,02,37,234,30,04,37,118,36,28,26,137,26,20,17,230,34*6A
$BDGSV,4,4,14,05,15,253,28,29,01,318,*62
$BDRMC,102007.000,A,3018.4751,N,12004.6503,E,0.23,347.32,270326,,,A*73
$BDVTG,347.32,T,,M,0.23,N,0.43,K,A*2B
$BDGGA,102008.000,3018.4750,N,12004.6503,E,1,11,1.12,16.4,M,7.0,M,,*7B
$BDGLL,3018.4750,N,12004.6503,E,102008.000,A,A*48
$BDGSA,A,3,02,01,30,13,03,08,07,28,27,04,20,,1.43,1.12,0.89*11
$BDGSV,4,1,14,27,70,135,42,10,61,232,,07,59,208,39,08,57,297,37*67
$BDGSV,4,2,14,03,54,199,38,13,50,282,41,30,49,317,43,01,47,137,35*64
$BDGSV,4,3,14,02,37,234,30,04,37,118,36,28,26,137,25,20,17,230,34*69
$BDGSV,4,4,14,05,15,253,29,29,01,318,*63
$BDRMC,102008.000,A,3018.4750,N,12004.6503,E,0.05,347.32,270326,,,A*79
$BDVTG,347.32,T,,M,0.05,N,0.10,K,A*29
$BDGGA,102009.000,3018.4750,N,12004.6503,E,1,11,1.12,16.4,M,7.0,M,,*7A
$BDGLL,3018.4750,N,12004.6503,E,102009.000,A,A*49
$BDGSA,A,3,02,01,30,13,03,08,07,28,27,04,20,,1.43,1.12,0.89*11
$BDGSV,4,1,14,27,70,135,42,10,61,232,,07,59,208,39,08,57,297,37*67
$BDGSV,4,2,14,03,54,199,38,13,50,282,41,30,49,317,43,01,47,137,35*64
$BDGSV,4,3,14,02,37,234,30,04,37,118,36,28,26,137,24,20,17,230,34*68
$BDGSV,4,4,14,05,15,253,29,29,01,318,*63
$BDRMC,102009.000,A,3018.4750,N,12004.6503,E,0.12,347.32,270326,,,A*7E
$BDVTG,347.32,T,,M,0.12,N,0.22,K,A*2E
$BDGGA,102010.000,3018.4750,N,12004.6503,E,1,11,1.12,16.4,M,7.0,M,,*72
$BDGLL,3018.4750,N,12004.6503,E,102010.000,A,A*41
$BDGSA,A,3,02,01,30,13,03,08,07,28,27,04,20,,1.43,1.12,0.89*11
$BDGSV,4,1,14,27,70,135,42,10,61,232,,07,59,208,39,08,57,297,37*67
$BDGSV,4,2,14,03,54,199,38,13,50,282,41,30,49,317,43,01,47,137,35*64
$BDGSV,4,3,14,02,37,234,30,04,37,118,36,28,26,137,23,20,17,230,34*6F
$BDGSV,4,4,14,05,15,253,29,29,01,318,*63
$BDRMC,102010.000,A,3018.4750,N,12004.6503,E,0.08,347.32,270326,,,A*7D
$BDVTG,347.32,T,,M,0.08,N,0.14,K,A*20
$BDGGA,102011.000,3018.4750,N,12004.6503,E,1,11,1.12,16.4,M,7.0,M,,*73
$BDGLL,3018.4750,N,12004.6503,E,102011.000,A,A*40
$BDGSA,A,3,02,01,30,13,03,08,07,28,27,04,20,,1.43,1.12,0.89*11
$BDGSV,4,1,14,27,70,135,42,10,61,232,,07,59,208,39,08,57,297,38*68
$BDGSV,4,2,14,03,54,199,38,13,50,282,41,30,49,317,42,01,47,137,35*65
$BDGSV,4,3,14,02,37,234,30,04,37,118,36,28,26,137,24,20,17,230,35*69
$BDGSV,4,4,14,05,15,253,29,29,01,318,*63
$BDRMC,102011.000,A,3018.4750,N,12004.6503,E,0.01,347.32,270326,,,A*75
$BDVTG,347.32,T,,M,0.01,N,0.02,K,A*2E
$BDGGA,102012.000,3018.4750,N,12004.6503,E,1,11,1.12,16.4,M,7.0,M,,*70
$BDGLL,3018.4750,N,12004.6503,E,102012.000,A,A*43
$BDGSA,A,3,02,01,30,13,03,08,07,28,27,04,20,,1.43,1.12,0.89*11
$BDGSV,4,1,14,27,70,135,42,10,61,232,,07,59,208,39,08,57,297,37*67
$BDGSV,4,2,14,03,54,199,38,13,50,282,41,30,49,317,43,01,47,137,35*64
$BDGSV,4,3,14,02,37,234,30,04,37,118,36,28,26,137,24,20,17,230,34*68
$BDGSV,4,4,14,05,15,253,29,29,01,318,*63
$BDRMC,102012.000,A,3018.4750,N,12004.6503,E,0.04,347.32,270326,,,A*73
$BDVTG,347.32,T,,M,0.04,N,0.08,K,A*21
$BDGGA,102013.000,3018.4750,N,12004.6503,E,1,11,1.12,16.4,M,7.0,M,,*71
$BDGLL,3018.4750,N,12004.6503,E,102013.000,A,A*42
$BDGSA,A,3,02,01,30,13,03,08,07,28,27,04,20,,1.43,1.12,0.89*11
$BDGSV,4,1,14,27,70,135,42,10,61,232,,07,59,208,39,08,57,297,37*67
$BDGSV,4,2,14,03,54,199,38,13,50,282,41,30,49,317,43,01,47,137,35*64
$BDGSV,4,3,14,02,37,234,30,04,37,118,36,28,26,137,23,20,17,230,34*6F
$BDGSV,4,4,14,05,15,253,30,29,01,318,*6B
$BDRMC,102013.000,A,3018.4750,N,12004.6503,E,0.07,347.32,270326,,,A*71
$BDVTG,347.32,T,,M,0.07,N,0.13,K,A*28
$BDGGA,102014.000,3018.4750,N,12004.6503,E,1,11,1.12,16.4,M,7.0,M,,*76
$BDGLL,3018.4750,N,12004.6503,E,102014.000,A,A*45
$BDGSA,A,3,02,01,30,13,03,08,07,28,27,04,20,,1.43,1.12,0.89*11
$BDGSV,4,1,14,27,70,135,42,10,61,232,,07,59,208,39,08,57,297,38*68
$BDGSV,4,2,14,03,54,199,38,13,50,282,40,30,49,317,43,01,47,137,35*65
$BDGSV,4,3,14,02,37,234,30,04,37,118,36,28,26,137,23,20,17,230,33*68
$BDGSV,4,4,14,05,15,253,30,29,01,318,*6B
$BDRMC,102014.000,A,3018.4750,N,12004.6503,E,0.03,347.32,270326,,,A*72
$BDVTG,347.32,T,,M,0.03,N,0.06,K,A*28
$BDGGA,102015.000,3018.4750,N,12004.6503,E,1,11,1.12,16.4,M,7.0,M,,*77
$BDGLL,3018.4750,N,12004.6503,E,102015.000,A,A*44
$BDGSA,A,3,02,01,30,13,03,08,07,28,27,04,20,,1.43,1.12,0.89*11
$BDGSV,4,1,14,27,70,135,42,10,61,232,,07,59,208,39,08,57,297,38*68
$BDGSV,4,2,14,03,54,199,37,13,50,282,40,30,49,317,43,01,47,137,35*6A
$BDGSV,4,3,14,02,37,234,31,04,37,118,36,28,26,137,24,20,17,230,33*6E
$BDGSV,4,4,14,05,15,253,30,29,01,318,*6B
$BDRMC,102015.000,A,3018.4750,N,12004.6503,E,0.10,347.32,270326,,,A*71
$BDVTG,347.32,T,,M,0.10,N,0.18,K,A*25
$BDGGA,102016.000,3018.4750,N,12004.6503,E,1,11,1.12,16.4,M,7.0,M,,*74
$BDGLL,3018.4750,N,12004.6503,E,102016.000,A,A*47
$BDGSA,A,3,02,01,30,13,03,08,07,28,27,04,20,,1.43,1.12,0.89*11
$BDGSV,4,1,14,27,70,135,42,10,61,232,,07,59,208,39,08,57,297,38*68
$BDGSV,4,2,14,03,54,199,37,13,50,282,40,30,49,317,43,01,47,137,35*6A
$BDGSV,4,3,14,02,37,234,31,04,37,118,36,28,26,137,24,20,17,230,33*6E
$BDGSV,4,4,14,05,15,253,29,29,01,318,*63
$BDRMC,102016.000,A,3018.4750,N,12004.6503,E,0.03,347.32,270326,,,A*70
$BDVTG,347.32,T,,M,0.03,N,0.05,K,A*2B
$BDGGA,102017.000,3018.4750,N,12004.6503,E,1,11,1.12,16.4,M,7.0,M,,*75
$BDGLL,3018.4750,N,12004.6503,E,102017.000,A,A*46
$BDGSA,A,3,02,01,30,13,03,08,07,28,27,04,20,,1.43,1.12,0.89*11
$BDGSV,4,1,14,27,70,135,42,10,61,232,,07,59,208,39,08,57,297,38*68
$BDGSV,4,2,14,03,54,199,37,13,50,282,40,30,49,317,43,01,47,137,35*6A
$BDGSV,4,3,14,02,37,234,31,04,37,118,36,28,26,137,24,20,17,230,32*6F
$BDGSV,4,4,14,05,15,253,29,29,01,318,*63
$BDRMC,102017.000,A,3018.4750,N,12004.6503,E,0.06,347.32,270326,,,A*74
$BDVTG,347.32,T,,M,0.06,N,0.12,K,A*28
$BDGGA,102018.000,3018.4750,N,12004.6503,E,1,11,1.12,16.4,M,7.0,M,,*7A
$BDGLL,3018.4750,N,12004.6503,E,102018.000,A,A*49
$BDGSA,A,3,02,01,30,13,03,08,07,28,27,04,20,,1.43,1.12,0.89*11
$BDGSV,4,1,14,27,70,135,42,10,61,232,,07,58,208,39,08,57,297,38*69
$BDGSV,4,2,14,03,54,199,37,13,50,282,40,30,49,317,43,01,47,137,35*6A
$BDGSV,4,3,14,02,37,234,31,04,37,118,36,28,26,137,24,20,17,230,32*6F
$BDGSV,4,4,14,05,15,253,29,29,01,318,*63
$BDRMC,102018.000,A,3018.4750,N,12004.6503,E,0.04,347.32,270326,,,A*79
$BDVTG,347.32,T,,M,0.04,N,0.07,K,A*2E
$BDGGA,102019.000,3018.4750,N,12004.6503,E,1,11,1.12,16.4,M,7.0,M,,*7B
$BDGLL,3018.4750,N,12004.6503,E,102019.000,A,A*48
$BDGSA,A,3,02,01,30,13,03,08,07,28,27,04,20,,1.43,1.12,0.89*11
$BDGSV,4,1,14,27,70,135,42,10,61,232,,07,58,208,39,08,57,298,38*66
$BDGSV,4,2,14,03,54,199,36,13,50,282,40,30,49,317,43,01,47,137,35*6B
$BDGSV,4,3,14,02,37,234,31,04,37,118,36,28,26,137,24,20,17,230,32*6F
$BDGSV,4,4,14,05,15,253,29,29,01,318,*63
$BDRMC,102019.000,A,3018.4750,N,12004.6503,E,0.09,347.32,270326,,,A*75
$BDVTG,347.32,T,,M,0.09,N,0.16,K,A*23
$BDGGA,102020.000,3018.4750,N,12004.6503,E,1,11,1.12,16.4,M,7.0,M,,*71
$BDGLL,3018.4750,N,12004.6503,E,102020.000,A,A*42
$BDGSA,A,3,02,01,30,13,03,08,07,28,27,04,20,,1.43,1.12,0.89*11
$BDGSV,4,1,14,27,70,135,42,10,61,232,,07,58,208,39,08,57,298,38*66
$BDGSV,4,2,14,03,54,199,36,13,50,282,40,30,49,317,43,01,47,137,35*6B
$BDGSV,4,3,14,02,37,234,31,04,37,118,36,28,26,137,25,20,17,230,32*6E
$BDGSV,4,4,14,05,15,253,28,29,01,318,*62
$BDRMC,102020.000,A,3018.4750,N,12004.6503,E,0.05,347.32,270326,,,A*73
$BDVTG,347.32,T,,M,0.05,N,0.08,K,A*20
$BDGGA,102021.000,3018.4749,N,12004.6503,E,1,11,1.12,16.3,M,7.0,M,,*7F
$BDGLL,3018.4749,N,12004.6503,E,102021.000,A,A*4B
$BDGSA,A,3,02,01,30,13,03,08,07,28,27,04,20,,1.43,1.12,0.89*11
$BDGSV,4,1,14,27,70,135,42,10,61,231,,07,58,208,39,08,57,298,38*65
$BDGSV,4,2,14,03,54,199,36,13,50,282,40,30,49,317,43,01,47,137,35*6B
$BDGSV,4,3,14,02,37,234,31,04,37,118,36,28,26,137,23,20,17,230,32*68
$BDGSV,4,4,14,05,15,253,28,29,01,318,*62
$BDRMC,102021.000,A,3018.4749,N,12004.6503,E,0.08,347.32,270326,,,A*77
$BDVTG,347.32,T,,M,0.08,N,0.14,K,A*20
$BDGGA,102022.000,3018.4749,N,12004.6503,E,1,11,1.12,16.3,M,7.0,M,,*7C
$BDGLL,3018.4749,N,12004.6503,E,102022.000,A,A*48
$BDGSA,A,3,02,01,30,13,03,08,07,28,27,04,20,,1.43,1.12,0.89*11
$BDGSV,4,1,14,27,70,135,42,10,61,231,,07,58,208,39,08,57,298,38*65
$BDGSV,4,2,14,03,54,199,36,13,50,282,40,30,49,317,43,01,47,137,35*6B
$BDGSV,4,3,14,02,37,234,31,04,37,118,36,28,26,137,24,20,17,230,32*6F
$BDGSV,4,4,14,05,15,253,28,29,01,318,*62
$BDRMC,102022.000,A,3018.4749,N,12004.6503,E,0.04,347.32,270326,,,A*78
$BDVTG,347.32,T,,M,0.04,N,0.07,K,A*2E
$BDGGA,102023.000,3018.4749,N,12004.6503,E,1,11,1.12,16.3,M,7.0,M,,*7D
$BDGLL,3018.4749,N,12004.6503,E,102023.000,A,A*49
$BDGSA,A,3,02,01,30,13,03,08,07,28,27,04,20,,1.43,1.12,0.89*11
$BDGSV,4,1,14,27,70,135,42,10,61,231,,07,58,208,39,08,57,298,38*65
$BDGSV,4,2,14,03,54,199,36,13,50,282,40,30,49,317,43,01,47,137,35*6B
$BDGSV,4,3,14,02,37,234,31,04,37,118,36,28,26,137,23,20,17,230,33*69
$BDGSV,4,4,14,05,15,253,28,29,01,318,*62
$BDRMC,102023.000,A,3018.4749,N,12004.6503,E,0.05,347.32,270326,,,A*78
$BDVTG,347.32,T,,M,0.05,N,0.08,K,A*20
$BDGGA,102024.000,3018.4749,N,12004.6503,E,1,11,1.12,16.3,M,7.0,M,,*7A
$BDGLL,3018.4749,N,12004.6503,E,102024.000,A,A*4E
$BDGSA,A,3,02,01,30,13,03,08,07,28,27,04,20,,1.43,1.12,0.89*11
$BDGSV,4,1,14,27,70,135,42,10,61,231,,07,58,208,39,08,57,298,38*65
$BDGSV,4,2,14,03,54,199,36,13,50,283,40,30,49,317,43,01,47,137,35*6A
$BDGSV,4,3,14,02,37,234,31,04,37,118,36,28,26,137,24,20,17,230,33*6E
$BDGSV,4,4,14,05,15,253,28,29,01,318,*62
$BDRMC,102024.000,A,3018.4749,N,12004.6503,E,0.10,347.32,270326,,,A*7B
$BDVTG,347.32,T,,M,0.10,N,0.18,K,A*25
$BDGGA,102025.000,3018.4749,N,12004.6503,E,1,11,1.12,16.3,M,7.0,M,,*7B
$BDGLL,3018.4749,N,12004.6503,E,102025.000,A,A*4F
$BDGSA,A,3,02,01,30,13,03,08,07,28,27,04,20,,1.43,1.12,0.89*11
$BDGSV,4,1,14,27,70,135,42,10,61,231,,07,58,208,39,08,57,298,38*65
$BDGSV,4,2,14,03,54,199,35,13,50,283,40,30,49,317,43,01,47,137,35*69
$BDGSV,4,3,14,02,37,234,31,04,37,118,36,28,26,137,24,20,17,230,34*69
$BDGSV,4,4,14,05,15,253,28,29,01,318,*62
$BDRMC,102025.000,A,3018.4749,N,12004.6503,E,0.05,347.32,270326,,,A*7E
$BDVTG,347.32,T,,M,0.05,N,0.10,K,A*29
$BDGGA,102026.000,3018.4749,N,12004.6503,E,1,11,1.12,16.3,M,7.0,M,,*78
