$GPGGA,083927.000,3018.4751,N,12004.6475,E,1,10,0.84,35.0,M,7.0,M,,*6D
$GPGLL,3018.4751,N,12004.6475,E,083927.000,A,A*54
$GPGSA,A,3,11,19,06,05,09,12,25,21,04,17,,,1.16,0.84,0.81*06
$GPGSV,4,1,13,21,62,256,36,11,53,335,37,19,51,138,40,06,48,050,39*7D
$GPGSV,4,2,13,05,32,245,37,09,32,058,38,12,30,272,38,17,25,141,23*78
$GPGSV,4,3,13,25,11,306,39,40,11,255,35,04,07,038,23,20,04,195,28*7C
$GPGSV,4,4,13,13,04,188,26*48
$GPRMC,083927.000,A,3018.4751,N,12004.6475,E,0.09,187.51,110806,,,A*6E
$GPVTG,187.51,T,,M,0.09,N,0.17,K,A*38
$GPGGA,083928.000,3018.4751,N,12004.6475,E,1,10,0.84,34.9,M,7.0,M,,*6A
$GPGLL,3018.4751,N,12004.6475,E,083928.000,A,A*5B
$GPGSA,A,3,11,19,06,05,09,12,25,21,04,17,,,1.16,0.84,0.81*06
$GPGSV,4,1,13,21,62,256,36,11,53,335,37,19,51,138,40,06,48,050,39*7D
$GPGSV,4,2,13,05,32,245,37,09,32,058,38,12,30,272,38,17,25,141,23*78
$GPGSV,4,3,13,25,11,306,39,40,11,255,35,04,07,038,23,20,04,195,29*7D
$GPGSV,4,4,13,13,04,188,27*49
$GPRMC,083928.000,A,3018.4751,N,12004.6475,E,0.07,51.39,110806,,,A*5B
$GPVTG,51.39,T,,M,0.07,N,0.14,K,A*01
$GPGGA,083929.000,3018.4752,N,12004.6475,E,1,10,0.84,34.9,M,7.0,M,,*68
$GPGLL,3018.4752,N,12004.6475,E,083929.000,A,A*59
$GPGSA,A,3,11,19,06,05,09,12,25,21,04,17,,,1.16,0.84,0.81*06
$GPGSV,4,1,13,21,62,256,36,11,53,335,36,19,51,138,40,06,48,050,39*7C
$GPGSV,4,2,13,05,32,245,37,09,32,058,38,12,30,272,38,17,25,141,23*78
$GPGSV,4,3,13,25,11,306,39,40,11,255,34,04,07,038,23,20,04,195,29*7C
$GPGSV,4,4,13,13,04,188,27*49
$GPRMC,083929.000,A,3018.4752,N,12004.6475,E,0.05,257.81,110806,,,A*6C
$GPVTG,257.81,T,,M,0.05,N,0.10,K,A*30
$GPGGA,083930.000,3018.4752,N,12004.6476,E,1,10,0.84,34.8,M,7.0,M,,*62
$GPGLL,3018.4752,N,12004.6476,E,083930.000,A,A*52
$GPGSA,A,3,11,19,06,05,09,12,25,21,04,17,,,1.16,0.84,0.81*06
$GPGSV,4,1,13,21,62,256,36,11,53,335,36,19,51,138,40,06,48,050,39*7C
$GPGSV,4,2,13,05,32,245,36,09,32,058,38,12,30,272,39,17,25,141,23*78
$GPGSV,4,3,13,25,11,306,39,40,11,255,34,04,07,038,22,20,04,195,28*7C
$GPGSV,4,4,13,13,04,188,28*46
$GPRMC,083930.000,A,3018.4752,N,12004.6476,E,0.03,130.47,110806,,,A*69
$GPVTG,130.47,T,,M,0.03,N,0.06,K,A*39
$GPGGA,083931.000,3018.4753,N,12004.6476,E,1,10,0.84,34.7,M,7.0,M,,*6D
$GPGLL,3018.4753,N,12004.6476,E,083931.000,A,A*52
$GPGSA,A,3,11,19,06,05,09,12,25,21,04,17,,,1.16,0.84,0.81*06
$GPGSV,4,1,13,21,62,256,36,11,53,335,37,19,51,138,41,06,48,050,39*7C
$GPGSV,4,2,13,05,32,245,36,09,32,058,38,12,30,272,40,17,25,141,23*76
$GPGSV,4,3,13,25,11,306,39,40,11,255,34,04,07,038,22,20,04,195,27*73
$GPGSV,4,4,13,13,04,188,28*46
$GPRMC,083931.000,A,3018.4753,N,12004.6476,E,0.03,123.03,110806,,,A*6B
$GPVTG,123.03,T,,M,0.03,N,0.05,K,A*38
$GPGGA,083932.000,3018.4754,N,12004.6476,E,1,10,0.84,34.6,M,7.0,M,,*68
$GPGLL,3018.4754,N,12004.6476,E,083932.000,A,A*56
$GPGSA,A,3,11,19,06,05,09,12,25,21,04,17,,,1.16,0.84,0.81*06
$GPGSV,4,1,13,21,62,256,36,11,53,335,37,19,51,138,41,06,48,050,39*7C
$GPGSV,4,2,13,05,32,245,35,09,32,058,38,12,30,272,40,17,25,141,23*75
$GPGSV,4,3,13,25,11,306,39,40,11,255,34,04,07,038,22,20,04,195,26*72
$GPGSV,4,4,13,13,04,188,28*46
$GPRMC,083932.000,A,3018.4754,N,12004.6476,E,0.02,156.75,110806,,,A*6D
$GPVTG,156.75,T,,M,0.02,N,0.04,K,A*3B
$GPGGA,083933.000,3018.4754,N,12004.6476,E,1,10,0.84,34.6,M,7.0,M,,*69
$GPGLL,3018.4754,N,12004.6476,E,083933.000,A,A*57
$GPGSA,A,3,11,19,06,05,09,12,25,21,04,17,,,1.16,0.84,0.81*06
$GPGSV,4,1,13,21,62,256,36,11,53,335,37,19,51,138,41,06,48,050,39*7C
$GPGSV,4,2,13,05,32,245,35,09,32,058,38,12,30,272,40,17,25,141,23*75
$GPGSV,4,3,13,25,11,306,39,40,11,255,34,04,07,038,22,20,04,195,25*71
$GPGSV,4,4,13,13,04,188,28*46
$GPRMC,083933.000,A,3018.4754,N,12004.6476,E,0.01,127.99,110806,,,A*6B
$GPVTG,127.99,T,,M,0.01,N,0.02,K,A*3A
$GPGGA,083934.000,3018.4755,N,12004.6477,E,1,10,0.84,34.6,M,7.0,M,,*6E
$GPGLL,3018.4755,N,12004.6477,E,083934.000,A,A*50
$GPGSA,A,3,11,19,06,05,09,12,25,21,04,17,,,1.16,0.84,0.81*06
$GPGSV,4,1,13,21,62,256,36,11,53,335,37,19,51,138,41,06,48,050,39*7C
$GPGSV,4,2,13,05,32,245,35,09,32,058,38,12,30,272,40,17,25,141,23*75
$GPGSV,4,3,13,25,11,306,40,40,11,255,34,04,07,038,22,20,04,195,24*7E
$GPGSV,4,4,13,13,04,188,29*47
$GPRMC,083934.000,A,3018.4755,N,12004.6477,E,0.02,113.75,110806,,,A*6A
$GPVTG,113.75,T,,M,0.02,N,0.04,K,A*3A
$GPGGA,083935.000,3018.4755,N,12004.6478,E,1,10,0.84,34.5,M,7.0,M,,*63
$GPGLL,3018.4755,N,12004.6478,E,083935.000,A,A*5E
$GPGSA,A,3,11,19,06,05,09,12,25,21,04,17,,,1.16,0.84,0.81*06
$GPGSV,4,1,13,21,62,256,36,11,53,335,37,19,51,138,41,06,48,050,39*7C
$GPGSV,4,2,13,05,32,245,35,09,32,058,38,12,30,272,40,17,25,141,23*75
$GPGSV,4,3,13,25,11,306,40,40,11,255,34,04,07,038,22,20,04,195,28*72
$GPGSV,4,4,13,13,04,188,29*47
$GPRMC,083935.000,A,3018.4755,N,12004.6478,E,0.02,87.63,110806,,,A*5F
$GPVTG,87.63,T,,M,0.02,N,0.04,K,A*01
$GPGGA,083936.000,3018.4755,N,12004.6478,E,1,10,0.84,34.5,M,7.0,M,,*60
$GPGLL,3018.4755,N,12004.6478,E,083936.000,A,A*5D
$GPGSA,A,3,11,19,06,05,09,12,25,21,04,17,,,1.16,0.84,0.81*06
$GPGSV,4,1,13,21,62,256,36,11,53,335,37,19,51,138,41,06,48,050,39*7C
$GPGSV,4,2,13,05,32,245,36,09,32,058,38,12,30,272,40,17,25,141,23*76
$GPGSV,4,3,13,25,11,306,40,40,11,255,34,04,07,038,21,20,04,195,28*71
$GPGSV,4,4,13,13,04,188,29*47
$GPRMC,083936.000,A,3018.4755,N,12004.6478,E,0.02,96.23,110806,,,A*58
$GPVTG,96.23,T,,M,0.02,N,0.04,K,A*05
$GPGGA,083937.000,3018.4756,N,12004.6479,E,1,10,0.84,34.4,M,7.0,M,,*62
$GPGLL,3018.4756,N,12004.6479,E,083937.000,A,A*5E
$GPGSA,A,3,11,19,06,05,09,12,25,21,04,17,,,1.16,0.84,0.81*06
$GPGSV,4,1,13,21,62,256,36,11,53,335,37,19,51,138,41,06,48,050,39*7C
$GPGSV,4,2,13,05,32,245,37,09,32,058,38,12,30,272,40,17,25,141,22*76
$GPGSV,4,3,13,25,11,306,41,40,11,255,34,04,07,038,21,20,04,195,23*7B
$GPGSV,4,4,13,13,04,188,29*47
$GPRMC,083937.000,A,3018.4756,N,12004.6479,E,0.02,137.71,110806,,,A*66
$GPVTG,137.71,T,,M,0.02,N,0.04,K,A*38
$GPGGA,083938.000,3018.4755,N,12004.6479,E,1,10,0.84,34.4,M,7.0,M,,*6E
$GPGLL,3018.4755,N,12004.6479,E,083938.000,A,A*52
$GPGSA,A,3,11,19,06,05,09,12,25,21,04,17,,,1.16,0.84,0.81*06
$GPGSV,4,1,13,21,62,256,36,11,53,335,37,19,51,138,41,06,48,050,39*7C
$GPGSV,4,2,13,05,32,245,37,09,32,058,38,12,30,272,40,17,25,141,22*76
$GPGSV,4,3,13,25,11,306,41,40,11,255,34,04,07,038,21,20,04,195,24*7C
$GPGSV,4,4,13,13,04,188,29*47
$GPRMC,083938.000,A,3018.4755,N,12004.6479,E,0.02,137.47,110806,,,A*6F
$GPVTG,137.47,T,,M,0.02,N,0.04,K,A*3D
$GPGGA,083939.000,3018.4755,N,12004.6480,E,1,10,0.84,34.4,M,7.0,M,,*69
$GPGLL,3018.4755,N,12004.6480,E,083939.000,A,A*55
$GPGSA,A,3,11,19,06,05,09,12,25,21,04,17,,,1.16,0.84,0.81*06
$GPGSV,4,1,13,21,62,256,36,11,53,335,38,19,51,138,41,06,48,050,39*73
$GPGSV,4,2,13,05,32,245,37,09,32,058,38,12,30,272,40,17,25,141,22*76
$GPGSV,4,3,13,25,11,306,41,40,11,255,33,04,07,038,20,20,04,195,20*7E
$GPGSV,4,4,13,13,04,188,29*47
$GPRMC,083939.000,A,3018.4755,N,12004.6480,E,0.02,55.89,110806,,,A*5F
$GPVTG,55.89,T,,M,0.02,N,0.04,K,A*0A
$GPGGA,083940.000,3018.4755,N,12004.6480,E,1,10,0.84,34.3,M,7.0,M,,*60
$GPGLL,3018.4755,N,12004.6480,E,083940.000,A,A*5B
$GPGSA,A,3,11,19,06,05,09,12,25,21,04,17,,,1.16,0.84,0.81*06
$GPGSV,4,1,13,21,62,256,36,11,53,335,38,19,51,138,41,06,48,050,39*73
$GPGSV,4,2,13,05,32,245,37,09,32,058,38,12,30,272,40,17,25,141,20*74
$GPGSV,4,3,13,25,11,306,41,40,11,255,33,04,07,038,20,20,04,195,21*7F
$GPGSV,4,4,13,13,04,188,30*4F
$GPRMC,083940.000,A,3018.4755,N,12004.6480,E,0.02,141.02,110806,,,A*66
$GPVTG,141.02,T,,M,0.02,N,0.03,K,A*3A
$GPGGA,083941.000,3018.4754,N,12004.6481,E,1,10,0.84,34.3,M,7.0,M,,*61
$GPGLL,3018.4754,N,12004.6481,E,083941.000,A,A*5A
$GPGSA,A,3,11,19,06,05,09,12,25,21,04,17,,,1.16,0.84,0.81*06
$GPGSV,4,1,13,21,62,256,36,11,53,335,38,19,51,138,41,06,48,050,39*73
$GPGSV,4,2,13,05,32,245,37,09,32,058,38,12,30,272,39,17,25,141,19*70
$GPGSV,4,3,13,25,11,306,41,40,11,255,33,04,07,038,20,20,04,195,22*7C
$GPGSV,4,4,13,13,04,188,29*47
$GPRMC,083941.000,A,3018.4754,N,12004.6481,E,0.01,63.14,110806,,,A*52
$GPVTG,63.14,T,,M,0.01,N,0.02,K,A*0E
$GPGGA,083942.000,3018.4754,N,12004.6481,E,1,10,0.84,34.3,M,7.0,M,,*62
$GPGLL,3018.4754,N,12004.6481,E,083942.000,A,A*59
$GPGSA,A,3,11,19,06,05,09,12,25,21,04,17,,,1.16,0.84,0.81*06
$GPGSV,4,1,13,21,62,256,35,11,53,335,39,19,51,138,41,06,48,050,39*71
$GPGSV,4,2,13,05,32,245,37,09,32,058,38,12,30,272,40,17,25,141,21*75
$GPGSV,4,3,13,25,11,306,41,40,11,255,33,04,07,038,20,20,04,195,25*7B
$GPGSV,4,4,13,13,04,188,28*46
$GPRMC,083942.000,A,3018.4754,N,12004.6481,E,0.01,84.59,110806,,,A*51
$GPVTG,84.59,T,,M,0.01,N,0.03,K,A*0F
$GPGGA,083943.000,3018.4753,N,12004.6482,E,1,10,0.84,34.2,M,7.0,M,,*66
$GPGLL,3018.4753,N,12004.6482,E,083943.000,A,A*5C
$GPGSA,A,3,11,19,06,05,09,12,25,21,04,17,,,1.16,0.84,0.81*06
$GPGSV,4,1,13,21,62,256,36,11,53,335,40,19,51,138,41,06,48,050,39*7C
$GPGSV,4,2,13,05,32,245,37,09,32,058,38,12,30,272,39,17,25,141,20*7A
$GPGSV,4,3,13,25,11,306,41,40,11,255,33,04,07,038,20,20,04,195,28*76
$GPGSV,4,4,13,13,04,188,28*46
$GPRMC,083943.000,A,3018.4753,N,12004.6482,E,0.03,165.02,110806,,,A*66
$GPVTG,165.02,T,,M,0.03,N,0.05,K,A*3B
$GPGGA,083944.000,3018.4753,N,12004.6482,E,1,10,0.84,34.2,M,7.0,M,,*61
$GPGLL,3018.4753,N,12004.6482,E,083944.000,A,A*5B
$GPGSA,A,3,11,19,06,05,09,12,25,21,04,17,,,1.16,0.84,0.81*06
$GPGSV,4,1,13,21,62,256,37,11,53,335,40,19,51,138,41,06,48,050,39*7D
$GPGSV,4,2,13,05,32,245,38,09,32,058,38,12,30,272,39,17,25,141,19*7F
$GPGSV,4,3,13,25,11,306,41,40,11,255,34,04,07,038,20,20,04,195,29*70
$GPGSV,4,4,13,13,04,188,29*47
$GPRMC,083944.000,A,3018.4753,N,12004.6482,E,0.03,187.27,110806,,,A*6A
$GPVTG,187.27,T,,M,0.03,N,0.05,K,A*30
$GPGGA,083945.000,3018.4752,N,12004.6482,E,1,10,0.84,34.2,M,7.0,M,,*61
$GPGLL,3018.4752,N,12004.6482,E,083945.000,A,A*5B
$GPGSA,A,3,11,19,06,05,09,12,25,21,04,17,,,1.16,0.84,0.81*06
$GPGSV,4,1,13,21,62,256,37,11,53,335,40,19,51,138,41,06,48,050,39*7D
$GPGSV,4,2,13,05,32,245,37,09,32,058,37,12,30,272,39,17,25,141,20*75
$GPGSV,4,3,13,25,11,306,41,40,11,255,34,04,07,038,20,20,04,195,26*7F
$GPGSV,4,4,13,13,04,188,29*47
$GPRMC,083945.000,A,3018.4752,N,12004.6482,E,0.00,29.92,110806,,,A*52
$GPVTG,29.92,T,,M,0.00,N,0.00,K,A*0D
$GPGGA,083946.000,3018.4752,N,12004.6482,E,1,10,0.84,34.2,M,7.0,M,,*62
$GPGLL,3018.4752,N,12004.6482,E,083946.000,A,A*58
$GPGSA,A,3,11,19,06,05,09,12,25,21,04,17,,,1.16,0.84,0.81*06
$GPGSV,4,1,13,21,62,256,37,11,53,335,40,19,51,138,41,06,48,050,39*7D
$GPGSV,4,2,13,05,32,245,36,09,32,058,37,12,30,272,39,17,25,141,21*75
$GPGSV,4,3,13,25,11,306,41,40,11,255,34,04,07,038,20,20,04,195,23*7A
$GPGSV,4,4,13,13,04,188,22*4C
$GPRMC,083946.000,A,3018.4752,N,12004.6482,E,0.04,201.18,110806,,,A*6F
$GPVTG,201.18,T,,M,0.04,N,0.07,K,A*34
$GPGGA,083947.000,3018.4752,N,12004.6481,E,1,10,0.84,34.2,M,7.0,M,,*60
$GPGLL,3018.4752,N,12004.6481,E,083947.000,A,A*5A
$GPGSA,A,3,11,19,06,05,09,12,25,21,04,17,,,1.16,0.84,0.81*06
$GPGSV,4,1,13,21,62,256,37,11,53,335,41,19,51,138,41,06,48,050,39*7C
$GPGSV,4,2,13,05,32,245,36,09,32,058,37,12,30,272,39,17,25,141,22*76
$GPGSV,4,3,13,25,11,306,42,40,11,255,35,04,07,038,20,20,04,195,19*71
$GPGSV,4,4,13,13,04,188,*4C
$GPRMC,083947.000,A,3018.4752,N,12004.6481,E,0.01,203.25,110806,,,A*64
$GPVTG,203.25,T,,M,0.01,N,0.03,K,A*39
$GPGGA,083948.000,3018.4752,N,12004.6482,E,1,10,0.84,34.1,M,7.0,M,,*6F
$GPGLL,3018.4752,N,12004.6482,E,083948.000,A,A*56
$GPGSA,A,3,11,19,06,05,09,12,25,21,04,17,,,1.16,0.84,0.81*06
$GPGSV,4,1,13,21,62,256,38,11,53,335,41,19,51,138,41,06,48,050,39*73
$GPGSV,4,2,13,05,32,245,37,09,32,058,37,12,30,272,39,17,25,141,22*77
$GPGSV,4,3,13,25,11,306,42,40,11,255,35,04,07,038,22,20,04,195,21*78
$GPGSV,4,4,13,13,04,188,29*47
$GPRMC,083948.000,A,3018.4752,N,12004.6482,E,0.02,165.79,110806,,,A*61
$GPVTG,165.79,T,,M,0.02,N,0.03,K,A*30
$GPGGA,083949.000,3018.4752,N,12004.6481,E,1,10,0.84,34.1,M,7.0,M,,*6D
$GPGLL,3018.4752,N,12004.6481,E,083949.000,A,A*54
$GPGSA,A,3,11,19,06,05,09,12,25,21,04,17,,,1.16,0.84,0.81*06
$GPGSV,4,1,13,21,62,256,38,11,53,335,41,19,51,138,41,06,48,050,39*73
$GPGSV,4,2,13,05,32,245,38,09,32,058,37,12,30,272,39,17,25,141,22*78
$GPGSV,4,3,13,25,11,306,42,40,11,255,35,04,07,038,23,20,04,195,20*78
$GPGSV,4,4,13,13,04,188,26*48
$GPRMC,083949.000,A,3018.4752,N,12004.6481,E,0.02,133.90,110806,,,A*67
$GPVTG,133.90,T,,M,0.02,N,0.03,K,A*34
$GPGGA,083950.000,3018.4753,N,12004.6482,E,1,10,0.84,34.1,M,7.0,M,,*67
$GPGLL,3018.4753,N,12004.6482,E,083950.000,A,A*5E
$GPGSA,A,3,11,19,06,05,09,12,25,21,04,17,,,1.16,0.84,0.81*06
$GPGSV,4,1,13,21,62,256,38,11,53,335,41,19,51,138,41,06,48,050,40*7D
$GPGSV,4,2,13,05,32,245,39,09,32,058,38,12,30,272,39,17,25,141,23*77
$GPGSV,4,3,13,25,11,306,42,40,11,255,35,04,07,038,24,20,04,195,18*74
$GPGSV,4,4,13,13,04,188,24*4A
$GPRMC,083950.000,A,3018.4753,N,12004.6482,E,0.02,143.74,110806,,,A*60
$GPVTG,143.74,T,,M,0.02,N,0.04,K,A*3E
$GPGGA,083951.000,3018.4753,N,12004.6482,E,1,10,0.84,34.0,M,7.0,M,,*67
$GPGLL,3018.4753,N,12004.6482,E,083951.000,A,A*5F
$GPGSA,A,3,11,19,06,05,09,12,25,21,04,17,,,1.16,0.84,0.81*06
$GPGSV,4,1,13,21,62,256,38,11,53,335,41,19,51,138,41,06,48,050,40*7D
$GPGSV,4,2,13,05,32,245,39,09,32,058,38,12,30,272,39,17,25,141,25*71
$GPGSV,4,3,13,25,11,306,42,40,11,255,35,04,07,038,25,20,04,195,18*75
$GPGSV,4,4,13,13,04,188,24*4A
$GPRMC,083951.000,A,3018.4753,N,12004.6482,E,0.02,54.43,110806,,,A*52
$GPVTG,54.43,T,,M,0.02,N,0.04,K,A*0D
$GPGGA,083952.000,3018.4754,N,12004.6482,E,1,10,0.84,34.0,M,7.0,M,,*63
$GPGLL,3018.4754,N,12004.6482,E,083952.000,A,A*5B
$GPGSA,A,3,11,19,06,05,09,12,25,21,04,17,,,1.16,0.84,0.81*06
$GPGSV,4,1,13,21,62,256,37,11,53,335,41,19,51,138,41,06,48,050,40*72
$GPGSV,4,2,13,05,32,245,40,09,32,058,38,12,30,272,39,17,25,141,25*7F
$GPGSV,4,3,13,25,11,306,42,40,11,255,35,04,07,038,26,20,04,195,21*7C
$GPGSV,4,4,13,13,04,188,24*4A
$GPRMC,083952.000,A,3018.4754,N,12004.6482,E,0.02,142.29,110806,,,A*6C
$GPVTG,142.29,T,,M,0.02,N,0.04,K,A*37
$GPGGA,083953.000,3018.4754,N,12004.6483,E,1,10,0.84,34.0,M,7.0,M,,*63
$GPGLL,3018.4754,N,12004.6483,E,083953.000,A,A*5B
$GPGSA,A,3,11,19,06,05,09,12,25,21,04,17,,,1.16,0.84,0.81*06
$GPGSV,4,1,13,21,62,256,36,11,53,335,41,19,51,138,41,06,48,050,39*7D
$GPGSV,4,2,13,05,32,245,40,09,32,058,37,12,30,272,39,17,25,141,24*71
$GPGSV,4,3,13,25,11,306,42,40,11,255,35,04,07,038,26,20,04,195,20*7D
$GPGSV,4,4,13,13,04,188,23*4D
$GPRMC,083953.000,A,3018.4754,N,12004.6483,E,0.01,182.10,110806,,,A*69
$GPVTG,182.10,T,,M,0.01,N,0.01,K,A*37
$GPGGA,083954.000,3018.4754,N,12004.6483,E,1,10,0.84,33.9,M,7.0,M,,*6A
$GPGLL,3018.4754,N,12004.6483,E,083954.000,A,A*5C
$GPGSA,A,3,11,19,06,05,09,12,25,21,04,17,,,1.16,0.84,0.81*06
$GPGSV,4,1,13,21,62,256,35,11,53,335,41,19,51,138,41,06,48,050,39*7E
$GPGSV,4,2,13,05,32,245,40,09,32,058,37,12,30,272,39,17,25,141,23*76
$GPGSV,4,3,13,25,11,306,42,40,11,255,35,04,07,038,27,20,04,195,23*7F
$GPGSV,4,4,13,13,04,188,30*4F
$GPRMC,083954.000,A,3018.4754,N,12004.6483,E,0.02,162.43,110806,,,A*65
$GPVTG,162.43,T,,M,0.02,N,0.03,K,A*3E
$GPGGA,083955.000,3018.4754,N,12004.6483,E,1,10,0.84,33.9,M,7.0,M,,*6B
$GPGLL,3018.4754,N,12004.6483,E,083955.000,A,A*5D
$GPGSA,A,3,11,19,06,05,09,12,25,21,04,17,,,1.16,0.84,0.81*06
$GPGSV,4,1,13,21,62,256,35,11,53,335,41,19,51,138,42,06,48,050,39*7D
$GPGSV,4,2,13,05,32,245,41,09,32,058,37,12,30,272,40,17,25,141,21*7B
$GPGSV,4,3,13,25,11,306,42,40,11,255,34,04,07,038,27,20,04,195,26*7B
$GPGSV,4,4,13,13,04,188,29*47
$GPRMC,083955.000,A,3018.4754,N,12004.6483,E,0.03,144.12,110806,,,A*65
$GPVTG,144.12,T,,M,0.03,N,0.06,K,A*3A
$GPGGA,083956.000,3018.4754,N,12004.6484,E,1,10,0.84,33.9,M,7.0,M,,*6F
$GPGLL,3018.4754,N,12004.6484,E,083956.000,A,A*59
$GPGSA,A,3,11,19,06,05,09,12,25,21,04,17,,,1.16,0.84,0.81*06
$GPGSV,4,1,13,21,62,256,35,11,53,335,40,19,51,138,42,06,48,050,39*7C
$GPGSV,4,2,13,05,32,245,40,09,32,058,36,12,30,272,40,17,25,141,22*78
$GPGSV,4,3,13,25,11,306,42,40,11,255,32,04,07,038,27,20,04,195,27*7C
$GPGSV,4,4,13,13,04,188,29*47
$GPRMC,083956.000,A,3018.4754,N,12004.6484,E,0.03,21.50,110806,,,A*55
$GPVTG,21.50,T,,M,0.03,N,0.06,K,A*0E
$GPGGA,083957.000,3018.4754,N,12004.6484,E,1,10,0.84,33.9,M,7.0,M,,*6E
$GPGLL,3018.4754,N,12004.6484,E,083957.000,A,A*58
$GPGSA,A,3,11,19,06,05,09,12,25,21,04,17,,,1.16,0.84,0.81*06
$GPGSV,4,1,13,21,62,256,35,11,53,335,40,19,51,138,42,06,48,050,39*7C
$GPGSV,4,2,13,05,32,245,40,09,32,058,36,12,30,272,41,17,25,141,22*79
$GPGSV,4,3,13,25,11,306,42,40,11,255,30,04,07,038,27,20,04,195,31*79
$GPGSV,4,4,13,13,04,188,28*46
$GPRMC,083957.000,A,3018.4754,N,12004.6484,E,0.03,96.59,110806,,,A*51
$GPVTG,96.59,T,,M,0.03,N,0.06,K,A*0B
$GPGGA,083958.000,3018.4755,N,12004.6484,E,1,10,0.86,33.8,M,7.0,M,,*63
$GPGLL,3018.4755,N,12004.6484,E,083958.000,A,A*56
$GPGSA,A,3,11,19,06,05,09,12,25,21,04,17,,,1.61,0.86,1.37*08
$GPGSV,4,1,13,21,62,256,35,11,53,335,40,19,51,138,42,06,48,050,39*7C
$GPGSV,4,2,13,05,32,245,40,09,32,058,36,12,30,272,41,17,25,141,23*78
$GPGSV,4,3,13,25,11,306,42,40,11,255,28,04,07,038,27,20,04,195,31*70
$GPGSV,4,4,13,13,04,188,29*47
$GPRMC,083958.000,A,3018.4755,N,12004.6484,E,0.01,140.34,110806,,,A*6C
$GPVTG,140.34,T,,M,0.01,N,0.02,K,A*3C
$GPGGA,083959.000,3018.4755,N,12004.6485,E,1,10,0.86,33.8,M,7.0,M,,*63
$GPGLL,3018.4755,N,12004.6485,E,083959.000,A,A*56
$GPGSA,A,3,11,19,06,05,09,12,25,21,04,17,,,1.61,0.86,1.37*08
$GPGSV,4,1,13,21,62,256,35,11,53,335,40,19,51,138,42,06,48,050,40*72
$GPGSV,4,2,13,05,32,245,39,09,32,058,36,12,30,272,41,17,25,141,23*76
$GPGSV,4,3,13,25,11,306,42,40,11,255,27,04,07,038,27,20,04,195,31*7F
$GPGSV,4,4,13,13,04,188,29*47
$GPRMC,083959.000,A,3018.4755,N,12004.6485,E,0.01,101.46,110806,,,A*6C
$GPVTG,101.46,T,,M,0.01,N,0.02,K,A*3C
$GPGGA,084000.000,3018.4755,N,12004.6485,E,1,10,0.86,33.8,M,7.0,M,,*61
$GPGLL,3018.4755,N,12004.6485,E,084000.000,A,A*54
$GPGSA,A,3,11,19,06,05,09,12,25,21,04,17,,,1.61,0.86,1.37*08
$GPGSV,4,1,13,21,62,256,35,11,53,335,39,19,51,138,42,06,48,050,40*7C
$GPGSV,4,2,13,05,32,245,39,09,32,058,36,12,30,272,41,17,25,141,23*76
$GPGSV,4,3,13,25,11,306,42,40,11,255,26,04,07,038,27,20,04,195,30*7F
$GPGSV,4,4,13,13,04,188,29*47
$GPRMC,084000.000,A,3018.4755,N,12004.6485,E,0.01,75.75,110806,,,A*5C
$GPVTG,75.75,T,,M,0.01,N,0.02,K,A*0E
$GPGGA,084001.000,3018.4755,N,12004.6485,E,1,10,0.86,33.8,M,7.0,M,,*60
$GPGLL,3018.4755,N,12004.6485,E,084001.000,A,A*55
$GPGSA,A,3,11,19,06,05,09,12,25,21,04,17,,,1.61,0.86,1.37*08
$GPGSV,4,1,13,21,62,256,34,11,53,335,39,19,51,138,42,06,48,050,40*7D
$GPGSV,4,2,13,05,32,245,38,09,32,058,36,12,30,272,41,17,25,141,23*77
$GPGSV,4,3,13,25,11,306,42,40,11,255,26,04,07,038,27,20,04,195,29*77
$GPGSV,4,4,13,13,04,188,29*47
$GPRMC,084001.000,A,3018.4755,N,12004.6485,E,0.01,204.55,110806,,,A*6B
$GPVTG,204.55,T,,M,0.01,N,0.02,K,A*38
$GPGGA,084002.000,3018.4756,N,12004.6485,E,1,10,0.86,33.8,M,7.0,M,,*60
$GPGLL,3018.4756,N,12004.6485,E,084002.000,A,A*55
$GPGSA,A,3,11,19,06,05,09,12,25,21,04,17,,,1.61,0.86,1.37*08
$GPGSV,4,1,13,21,62,256,33,11,53,335,39,19,51,138,43,06,48,050,40*7B
$GPGSV,4,2,13,05,32,245,38,09,32,058,36,12,30,272,42,17,25,141,24*73
$GPGSV,4,3,13,25,11,306,42,40,11,255,28,04,07,038,27,20,04,195,29*79
$GPGSV,4,4,13,13,04,188,29*47
$GPRMC,084002.000,A,3018.4756,N,12004.6485,E,0.02,179.71,110806,,,A*67
$GPVTG,179.71,T,,M,0.02,N,0.03,K,A*35
$GPGGA,084003.000,3018.4756,N,12004.6485,E,1,10,0.86,33.8,M,7.0,M,,*61
$GPGLL,3018.4756,N,12004.6485,E,084003.000,A,A*54
$GPGSA,A,3,11,19,06,05,09,12,25,21,04,17,,,1.61,0.86,1.37*08
$GPGSV,4,1,13,21,62,256,33,11,53,335,39,19,51,138,43,06,48,050,40*7B
$GPGSV,4,2,13,05,32,245,38,09,32,058,35,12,30,272,40,17,25,141,24*72
$GPGSV,4,3,13,25,11,306,41,40,11,255,27,04,07,038,27,20,04,195,29*75
$GPGSV,4,4,13,13,04,188,29*47
$GPRMC,084003.000,A,3018.4756,N,12004.6485,E,0.02,208.62,110806,,,A*61
$GPVTG,208.62,T,,M,0.02,N,0.04,K,A*35
$GPGGA,084004.000,3018.4756,N,12004.6485,E,1,10,0.86,33.8,M,7.0,M,,*66
$GPGLL,3018.4756,N,12004.6485,E,084004.000,A,A*53
$GPGSA,A,3,11,19,06,05,09,12,25,21,04,17,,,1.61,0.86,1.36*09
$GPGSV,4,1,13,21,62,256,32,11,53,335,39,19,51,138,43,06,48,050,40*7A
$GPGSV,4,2,13,05,32,245,38,09,32,058,35,12,30,272,41,17,25,141,23*74
$GPGSV,4,3,13,25,11,306,40,40,11,255,27,04,07,038,27,20,04,195,29*74
$GPGSV,4,4,13,13,04,188,29*47
$GPRMC,084004.000,A,3018.4756,N,12004.6485,E,0.01,155.01,110806,,,A*6B
$GPVTG,155.01,T,,M,0.01,N,0.03,K,A*3F
$GPGGA,084005.000,3018.4756,N,12004.6485,E,1,10,0.86,33.8,M,7.0,M,,*67
$GPGLL,3018.4756,N,12004.6485,E,084005.000,A,A*52
$GPGSA,A,3,11,19,06,05,09,12,25,21,04,17,,,1.61,0.86,1.37*08
$GPGSV,4,1,13,21,62,256,32,11,53,335,39,19,51,138,43,06,48,050,40*7A
$GPGSV,4,2,13,05,32,245,37,09,32,058,34,12,30,272,41,17,25,141,23*7A
$GPGSV,4,3,13,25,11,306,39,40,11,255,26,04,07,038,27,20,04,195,29*7B
$GPGSV,4,4,13,13,04,188,29*47
$GPRMC,084005.000,A,3018.4756,N,12004.6485,E,0.02,72.62,110806,,,A*58
$GPVTG,72.62,T,,M,0.02,N,0.04,K,A*0A
$GPGGA,084006.000,3018.4756,N,12004.6485,E,1,10,0.86,33.8,M,7.0,M,,*64
$GPGLL,3018.4756,N,12004.6485,E,084006.000,A,A*51
$GPGSA,A,3,11,19,06,05,09,12,25,21,04,17,,,1.61,0.86,1.36*09
$GPGSV,4,1,13,21,62,256,33,11,53,335,39,19,51,138,43,06,48,050,40*7B
$GPGSV,4,2,13,05,32,245,37,09,32,058,33,12,30,272,41,17,25,141,22*7C
$GPGSV,4,3,13,25,11,306,39,40,11,255,26,04,07,038,27,20,04,195,29*7B
$GPGSV,4,4,13,13,04,188,30*4F
$GPRMC,084006.000,A,3018.4756,N,12004.6485,E,0.01,317.43,110806,,,A*6B
$GPVTG,317.43,T,,M,0.01,N,0.02,K,A*3C
$GPGGA,084007.000,3018.4756,N,12004.6486,E,1,10,0.86,33.8,M,7.0,M,,*66
$GPGLL,3018.4756,N,12004.6486,E,084007.000,A,A*53
$GPGSA,A,3,11,19,06,05,09,12,25,21,04,17,,,1.61,0.86,1.37*08
$GPGSV,4,1,13,21,62,256,33,11,53,335,39,19,51,138,43,06,48,050,40*7B
$GPGSV,4,2,13,05,32,245,37,09,32,058,33,12,30,272,41,17,25,141,23*7D
$GPGSV,4,3,13,25,11,306,40,40,11,255,26,04,07,038,26,20,04,195,28*75
$GPGSV,4,4,13,13,04,188,31*4E
$GPRMC,084007.000,A,3018.4756,N,12004.6486,E,0.02,156.71,110806,,,A*6C
$GPVTG,156.71,T,,M,0.02,N,0.04,K,A*3F
$GPGGA,084008.000,3018.4756,N,12004.6486,E,1,10,0.86,33.8,M,7.0,M,,*69
$GPGLL,3018.4756,N,12004.6486,E,084008.000,A,A*5C
$GPGSA,A,3,11,19,06,05,09,12,25,21,04,17,,,1.61,0.86,1.37*08
$GPGSV,4,1,13,21,62,256,33,11,53,335,39,19,51,138,43,06,48,050,40*7B
$GPGSV,4,2,13,05,32,245,36,09,32,058,33,12,30,272,41,17,25,141,22*7D
$GPGSV,4,3,13,25,11,306,40,40,11,255,26,04,07,038,26,20,04,195,28*75
$GPGSV,4,4,13,13,04,188,32*4D
$GPRMC,084008.000,A,3018.4756,N,12004.6486,E,0.01,201.08,110806,,,A*6F
$GPVTG,201.08,T,,M,0.01,N,0.02,K,A*35
$GPGGA,084009.000,3018.4756,N,12004.6486,E,1,10,0.85,33.8,M,7.0,M,,*6B
$GPGLL,3018.4756,N,12004.6486,E,084009.000,A,A*5D
$GPGSA,A,3,11,19,06,05,09,12,25,21,04,17,,,1.61,0.85,1.36*0A
$GPGSV,4,1,13,21,62,256,33,11,53,335,39,19,51,138,43,06,48,050,40*7B
$GPGSV,4,2,13,05,32,245,36,09,32,058,33,12,30,272,41,17,25,141,22*7D
$GPGSV,4,3,13,25,11,306,41,40,11,255,26,04,07,038,26,20,04,195,28*74
$GPGSV,4,4,13,13,04,188,31*4E
$GPRMC,084009.000,A,3018.4756,N,12004.6486,E,0.01,168.47,110806,,,A*69
$GPVTG,168.47,T,,M,0.01,N,0.01,K,A*31
$GPGGA,084010.000,3018.4756,N,12004.6486,E,1,10,0.85,33.7,M,7.0,M,,*6C
$GPGLL,3018.4756,N,12004.6486,E,084010.000,A,A*55
$GPGSA,A,3,11,19,06,05,09,12,25,21,04,17,,,1.61,0.85,1.36*0A
$GPGSV,4,1,13,21,62,256,34,11,53,335,39,19,51,138,43,06,48,050,40*7C
$GPGSV,4,2,13,05,32,245,36,09,32,058,33,12,30,272,41,17,25,141,23*7C
$GPGSV,4,3,13,25,11,306,42,40,11,255,26,04,07,038,26,20,04,195,28*77
$GPGSV,4,4,13,13,04,188,31*4E
$GPRMC,084010.000,A,3018.4756,N,12004.6486,E,0.02,89.95,110806,,,A*53
$GPVTG,89.95,T,,M,0.02,N,0.03,K,A*01
$GPGGA,084011.000,3018.4756,N,12004.6487,E,1,10,0.85,33.7,M,7.0,M,,*6C
$GPGLL,3018.4756,N,12004.6487,E,084011.000,A,A*55
$GPGSA,A,3,11,19,06,05,09,12,25,21,04,17,,,1.61,0.85,1.36*0A
$GPGSV,4,1,13,21,62,256,34,11,53,335,39,19,51,138,43,06,48,050,40*7C
$GPGSV,4,2,13,05,32,245,37,09,32,058,33,12,30,272,41,17,25,141,23*7D
$GPGSV,4,3,13,25,11,306,42,40,11,255,27,04,07,038,26,20,04,195,27*79
$GPGSV,4,4,13,13,04,188,31*4E
$GPRMC,084011.000,A,3018.4756,N,12004.6487,E,0.00,134.30,110806,,,A*69
$GPVTG,134.30,T,,M,0.00,N,0.01,K,A*39
$GPGGA,084012.000,3018.4756,N,12004.6487,E,1,10,0.85,33.7,M,7.0,M,,*6F
$GPGLL,3018.4756,N,12004.6487,E,084012.000,A,A*56
$GPGSA,A,3,11,19,06,05,09,12,25,21,04,17,,,1.61,0.85,1.36*0A
$GPGSV,4,1,13,21,62,256,34,11,53,335,39,19,51,138,43,06,48,050,40*7C
$GPGSV,4,2,13,05,32,245,36,09,32,058,32,12,30,272,42,17,25,141,24*79
$GPGSV,4,3,13,25,11,306,42,40,11,255,27,04,07,038,26,20,04,195,27*79
$GPGSV,4,4,13,13,04,188,31*4E
$GPRMC,084012.000,A,3018.4756,N,12004.6487,E,0.02,124.48,110806,,,A*66
$GPVTG,124.48,T,,M,0.02,N,0.04,K,A*30
$GPGGA,084013.000,3018.4756,N,12004.6487,E,1,10,0.85,33.6,M,7.0,M,,*6F
$GPGLL,3018.4756,N,12004.6487,E,084013.000,A,A*57
$GPGSA,A,3,11,19,06,05,09,12,25,21,04,17,,,1.61,0.85,1.36*0A
$GPGSV,4,1,13,21,62,256,34,11,53,335,39,19,51,138,43,06,48,050,40*7C
$GPGSV,4,2,13,05,32,245,36,09,32,058,32,12,30,272,42,17,25,141,24*79
$GPGSV,4,3,13,25,11,306,42,40,11,255,26,04,07,038,26,20,04,195,27*78
$GPGSV,4,4,13,13,04,188,30*4F
$GPRMC,084013.000,A,3018.4756,N,12004.6487,E,0.01,77.63,110806,,,A*5A
$GPVTG,77.63,T,,M,0.01,N,0.03,K,A*0A
$GPGGA,084014.000,3018.4756,N,12004.6487,E,1,10,0.85,33.6,M,7.0,M,,*68
$GPGLL,3018.4756,N,12004.6487,E,084014.000,A,A*50
$GPGSA,A,3,11,19,06,05,09,12,25,21,04,17,,,1.61,0.85,1.36*0A
$GPGSV,4,1,13,21,62,256,34,11,53,335,39,19,51,138,43,06,48,050,41*7D
$GPGSV,4,2,13,05,32,245,37,09,32,058,32,12,30,272,43,17,25,141,24*79
$GPGSV,4,3,13,25,11,306,42,40,11,255,26,04,07,038,26,20,04,195,29*76
$GPGSV,4,4,13,13,04,188,31*4E
$GPRMC,084014.000,A,3018.4756,N,12004.6487,E,0.02,182.19,110806,,,A*68
$GPVTG,182.19,T,,M,0.02,N,0.03,K,A*3F
$GPGGA,084015.000,3018.4756,N,12004.6488,E,1,10,0.85,33.6,M,7.0,M,,*66
$GPGLL,3018.4756,N,12004.6488,E,084015.000,A,A*5E
$GPGSA,A,3,11,19,06,05,09,12,25,21,04,17,,,1.61,0.85,1.36*0A
$GPGSV,4,1,13,21,62,256,34,11,53,335,38,19,51,138,43,06,48,050,41*7C
$GPGSV,4,2,13,05,32,245,37,09,32,058,32,12,30,272,43,17,25,141,24*79
$GPGSV,4,3,13,25,11,306,42,40,11,255,26,04,07,038,26,20,04,195,29*76
$GPGSV,4,4,13,13,04,188,31*4E
$GPRMC,084015.000,A,3018.4756,N,12004.6488,E,0.01,54.77,110806,,,A*57
$GPVTG,54.77,T,,M,0.01,N,0.02,K,A*0F
$GPGGA,084016.000,3018.4756,N,12004.6488,E,1,10,0.85,33.6,M,7.0,M,,*65
$GPGLL,3018.4756,N,12004.6488,E,084016.000,A,A*5D
$GPGSA,A,3,11,19,06,05,09,12,25,21,04,17,,,1.61,0.85,1.36*0A
$GPGSV,4,1,13,21,62,256,34,11,53,335,38,19,51,138,43,06,48,050,41*7C
$GPGSV,4,2,13,05,32,245,37,09,32,058,32,12,30,272,43,17,25,141,25*78
$GPGSV,4,3,13,25,11,306,42,40,11,255,26,04,07,038,26,20,04,195,29*76
$GPGSV,4,4,13,13,04,188,30*4F
$GPRMC,084016.000,A,3018.4756,N,12004.6488,E,0.02,198.04,110806,,,A*62
$GPVTG,198.04,T,,M,0.02,N,0.04,K,A*3F
$GPGGA,084017.000,3018.4756,N,12004.6488,E,1,10,0.85,33.6,M,7.0,M,,*64
$GPGLL,3018.4756,N,12004.6488,E,084017.000,A,A*5C
$GPGSA,A,3,11,19,06,05,09,12,25,21,04,17,,,1.61,0.85,1.36*0A
$GPGSV,4,1,13,21,62,256,34,11,53,335,38,19,51,138,43,06,48,050,41*7C
$GPGSV,4,2,13,05,32,245,37,09,32,058,32,12,30,272,43,17,25,141,25*78
$GPGSV,4,3,13,25,11,306,42,40,11,255,26,04,07,038,26,20,04,195,29*76
$GPGSV,4,4,13,13,04,188,28*46
$GPRMC,084017.000,A,3018.4756,N,12004.6488,E,0.01,172.40,110806,,,A*64
$GPVTG,172.40,T,,M,0.01,N,0.02,K,A*3E
$GPGGA,084018.000,3018.4757,N,12004.6488,E,1,10,0.85,33.6,M,7.0,M,,*6A
$GPGLL,3018.4757,N,12004.6488,E,084018.000,A,A*52
$GPGSA,A,3,11,19,06,05,09,12,25,21,04,17,,,1.61,0.85,1.36*0A
$GPGSV,4,1,13,21,62,256,33,11,53,335,38,19,51,138,43,06,48,050,41*7B
$GPGSV,4,2,13,05,32,245,37,09,32,058,32,12,30,272,43,17,25,141,25*78
$GPGSV,4,3,13,25,11,306,42,40,11,255,26,04,07,038,26,20,04,195,30*7E
$GPGSV,4,4,13,13,04,188,28*46
$GPRMC,084018.000,A,3018.4757,N,12004.6488,E,0.00,356.49,110806,,,A*66
$GPVTG,356.49,T,,M,0.00,N,0.00,K,A*30
$GPGGA,084019.000,3018.4757,N,12004.6489,E,1,10,0.85,33.5,M,7.0,M,,*69
$GPGLL,3018.4757,N,12004.6489,E,084019.000,A,A*52
$GPGSA,A,3,11,19,06,05,09,12,25,21,04,17,,,1.61,0.85,1.36*0A
$GPGSV,4,1,13,21,62,256,33,11,53,335,37,19,51,138,43,06,48,050,41*74
$GPGSV,4,2,13,05,32,245,37,09,32,058,32,12,30,272,43,17,25,141,25*78
$GPGSV,4,3,13,25,11,306,42,40,11,255,26,04,07,038,26,20,04,195,30*7E
$GPGSV,4,4,13,13,04,188,28*46
$GPRMC,084019.000,A,3018.4757,N,12004.6489,E,0.01,128.09,110806,,,A*68
$GPVTG,128.09,T,,M,0.01,N,0.02,K,A*3C
$GPGGA,084020.000,3018.4757,N,12004.6489,E,1,10,0.85,33.5,M,7.0,M,,*63
$GPGLL,3018.4757,N,12004.6489,E,084020.000,A,A*58
$GPGSA,A,3,11,19,06,05,09,12,25,21,04,17,,,1.61,0.85,1.36*0A
$GPGSV,4,1,13,21,62,256,33,11,53,335,37,19,51,138,43,06,48,050,41*74
$GPGSV,4,2,13,05,32,245,38,09,32,058,32,12,30,272,43,17,25,141,25*77
$GPGSV,4,3,13,25,11,306,42,40,11,255,26,04,07,038,26,20,04,195,30*7E
$GPGSV,4,4,13,13,04,188,28*46
$GPRMC,084020.000,A,3018.4757,N,12004.6489,E,0.01,174.32,110806,,,A*63
$GPVTG,174.32,T,,M,0.01,N,0.02,K,A*3D
$GPGGA,084021.000,3018.4758,N,12004.6489,E,1,10,0.85,33.5,M,7.0,M,,*6D
$GPGLL,3018.4758,N,12004.6489,E,084021.000,A,A*56
$GPGSA,A,3,11,19,06,05,09,12,25,21,04,17,,,1.61,0.85,1.36*0A
$GPGSV,4,1,13,21,62,256,33,11,53,335,37,19,51,138,43,06,48,050,41*74
$GPGSV,4,2,13,05,32,245,38,09,32,058,32,12,30,272,43,17,25,141,25*77
$GPGSV,4,3,13,25,11,306,42,40,11,255,25,04,07,038,26,20,04,195,30*7D
$GPGSV,4,4,13,13,04,188,28*46
$GPRMC,084021.000,A,3018.4758,N,12004.6489,E,0.00,147.96,110806,,,A*62
$GPVTG,147.96,T,,M,0.00,N,0.01,K,A*31
$GPGGA,084022.000,3018.4758,N,12004.6489,E,1,10,0.85,33.5,M,7.0,M,,*6E
$GPGLL,3018.4758,N,12004.6489,E,084022.000,A,A*55
$GPGSA,A,3,11,19,06,05,09,12,25,21,04,17,,,1.61,0.85,1.36*0A
$GPGSV,4,1,13,21,62,256,33,11,53,335,37,19,51,138,43,06,48,050,41*74
$GPGSV,4,2,13,05,32,245,38,09,32,058,32,12,30,272,43,17,25,141,25*77
$GPGSV,4,3,13,25,11,306,42,40,11,255,25,04,07,038,26,20,04,195,30*7D
$GPGSV,4,4,13,13,04,188,29*47
$GPRMC,084022.000,A,3018.4758,N,12004.6489,E,0.02,116.21,110806,,,A*6B
$GPVTG,116.21,T,,M,0.02,N,0.03,K,A*39
$GPGGA,084023.000,3018.4758,N,12004.6490,E,1,10,0.85,33.4,M,7.0,M,,*66
$GPGLL,3018.4758,N,12004.6490,E,084023.000,A,A*5C
$GPGSA,A,3,11,19,06,05,09,12,25,21,04,17,,,1.61,0.85,1.36*0A
$GPGSV,4,1,13,21,62,256,32,11,53,335,37,19,51,138,43,06,48,050,41*75
$GPGSV,4,2,13,05,32,245,38,09,32,058,33,12,30,272,43,17,25,141,25*76
$GPGSV,4,3,13,25,11,306,42,40,11,255,25,04,07,038,26,20,04,195,28*74
$GPGSV,4,4,13,13,04,188,31*4E
$GPRMC,084023.000,A,3018.4758,N,12004.6490,E,0.01,102.26,110806,,,A*63
$GPVTG,102.26,T,,M,0.01,N,0.01,K,A*3A
$GPGGA,084024.000,3018.4758,N,12004.6490,E,1,10,0.85,33.4,M,7.0,M,,*61
$GPGLL,3018.4758,N,12004.6490,E,084024.000,A,A*5B
$GPGSA,A,3,11,19,06,05,09,12,25,21,04,17,,,1.61,0.85,1.36*0A
$GPGSV,4,1,13,21,62,256,31,11,53,335,37,19,51,138,43,06,48,050,41*76
$GPGSV,4,2,13,05,32,245,38,09,32,058,33,12,30,272,43,17,25,141,25*76
$GPGSV,4,3,13,25,11,306,42,40,11,255,25,04,07,038,26,20,04,195,29*75
$GPGSV,4,4,13,13,04,188,33*4C
$GPRMC,084024.000,A,3018.4758,N,12004.6490,E,0.02,98.72,110806,,,A*54
$GPVTG,98.72,T,,M,0.02,N,0.03,K,A*08
$GPGGA,084025.000,3018.4758,N,12004.6490,E,1,10,0.85,33.4,M,7.0,M,,*60
$GPGLL,3018.4758,N,12004.6490,E,084025.000,A,A*5A
$GPGSA,A,3,11,19,06,05,09,12,25,21,04,17,,,1.61,0.85,1.36*0A
$GPGSV,4,1,13,21,62,256,31,11,53,335,37,19,51,138,43,06,48,050,41*76
$GPGSV,4,2,13,05,32,245,38,09,32,058,33,12,30,272,43,17,25,141,26*75
$GPGSV,4,3,13,25,11,306,42,40,11,255,25,04,07,038,26,20,04,195,30*7D
$GPGSV,4,4,13,13,04,188,34*4B
$GPRMC,084025.000,A,3018.4758,N,12004.6490,E,0.01,143.70,110806,,,A*63
$GPVTG,143.70,T,,M,0.01,N,0.02,K,A*3F
$GPGGA,084026.000,3018.4758,N,12004.6490,E,1,10,0.85,33.4,M,7.0,M,,*63
$GPGLL,3018.4758,N,12004.6490,E,084026.000,A,A*59
$GPGSA,A,3,11,19,06,05,09,12,25,21,04,17,,,1.61,0.85,1.36*0A
$GPGSV,4,1,13,21,62,256,30,11,53,335,38,19,51,138,43,06,48,050,41*78
$GPGSV,4,2,13,05,32,245,38,09,32,058,33,12,30,272,43,17,25,141,24*77
$GPGSV,4,3,13,25,11,306,42,40,11,255,25,04,07,038,26,20,04,195,31*7C
$GPGSV,4,4,13,13,04,188,34*4B
$GPRMC,084026.000,A,3018.4758,N,12004.6490,E,0.01,239.56,110806,,,A*6A
$GPVTG,239.56,T,,M,0.01,N,0.01,K,A*36
$GPGGA,084027.000,3018.4759,N,12004.6490,E,1,10,0.85,33.3,M,7.0,M,,*64
$GPGLL,3018.4759,N,12004.6490,E,084027.000,A,A*59
$GPGSA,A,3,11,19,06,05,09,12,25,21,04,17,,,1.61,0.85,1.36*0A
$GPGSV,4,1,13,21,62,256,30,11,53,335,38,19,51,138,43,06,48,050,41*78
$GPGSV,4,2,13,05,32,245,38,09,32,058,33,12,30,272,43,17,25,141,23*70
$GPGSV,4,3,13,25,11,306,42,40,11,255,24,04,07,038,26,20,04,195,29*74
$GPGSV,4,4,13,13,04,188,34*4B
$GPRMC,084027.000,A,3018.4759,N,12004.6490,E,0.01,152.36,110806,,,A*62
$GPVTG,152.36,T,,M,0.01,N,0.03,K,A*3C
$GPGGA,084028.000,3018.4758,N,12004.6491,E,1,10,0.85,33.3,M,7.0,M,,*6B
$GPGLL,3018.4758,N,12004.6491,E,084028.000,A,A*56
$GPGSA,A,3,11,19,06,05,09,12,25,21,04,17,,,1.61,0.85,1.36*0A
$GPGSV,4,1,14,21,62,256,30,11,53,335,38,19,51,138,43,06,48,050,41*7F
$GPGSV,4,2,14,05,32,245,38,09,32,058,33,12,30,272,43,17,25,141,23*77
$GPGSV,4,3,14,25,11,306,42,40,11,255,24,04,07,038,25,20,04,195,25*7C
$GPGSV,4,4,14,13,04,188,33,29,,,16*47
$GPRMC,084028.000,A,3018.4758,N,12004.6491,E,0.01,113.44,110806,,,A*6D
$GPVTG,113.44,T,,M,0.01,N,0.02,K,A*3D
$GPGGA,084029.000,3018.4759,N,12004.6491,E,1,10,0.85,33.2,M,7.0,M,,*6A
$GPGLL,3018.4759,N,12004.6491,E,084029.000,A,A*56
$GPGSA,A,3,11,19,06,05,09,12,25,21,04,17,,,1.61,0.85,1.36*0A
$GPGSV,4,1,14,21,62,256,29,11,53,335,38,19,51,138,42,06,48,050,41*76
$GPGSV,4,2,14,05,32,245,38,09,32,058,33,12,30,272,43,17,25,141,21*75
$GPGSV,4,3,14,25,11,306,42,40,11,255,24,04,07,038,25,20,04,195,19*73
$GPGSV,4,4,14,13,04,188,32,29,,,16*46
$GPRMC,084029.000,A,3018.4759,N,12004.6491,E,0.02,92.87,110806,,,A*59
$GPVTG,92.87,T,,M,0.02,N,0.03,K,A*08
$GPGGA,084030.000,3018.4758,N,12004.6491,E,1,10,0.85,33.2,M,7.0,M,,*63
$GPGLL,3018.4758,N,12004.6491,E,084030.000,A,A*5F
$GPGSA,A,3,11,19,06,05,09,12,25,21,04,17,,,1.61,0.85,1.36*0A
$GPGSV,4,1,14,21,62,256,27,11,53,335,39,19,51,138,42,06,48,050,41*79
$GPGSV,4,2,14,05,32,245,38,09,32,058,33,12,30,272,43,17,25,141,20*74
$GPGSV,4,3,14,25,11,306,42,40,11,255,24,04,07,038,23,20,04,195,19*75
$GPGSV,4,4,14,13,04,188,31,29,,,17*44
$GPRMC,084030.000,A,3018.4758,N,12004.6491,E,0.02,109.01,110806,,,A*6D
$GPVTG,109.01,T,,M,0.02,N,0.03,K,A*35
$GPGGA,084031.000,3018.4759,N,12004.6490,E,1,10,0.85,33.2,M,7.0,M,,*62
$GPGLL,3018.4759,N,12004.6490,E,084031.000,A,A*5E
$GPGSA,A,3,11,19,06,05,09,12,25,21,04,17,,,1.61,0.85,1.36*0A
$GPGSV,4,1,14,21,62,256,27,11,53,335,38,19,51,138,42,06,48,050,41*78
$GPGSV,4,2,14,05,32,245,37,09,32,058,33,12,30,272,42,17,25,141,17*7E
$GPGSV,4,3,14,25,11,306,42,40,11,255,,04,07,038,23,20,04,195,28*71
$GPGSV,4,4,14,13,04,188,31,29,,,21*41
$GPRMC,084031.000,A,3018.4759,N,12004.6490,E,0.01,100.08,110806,,,A*6F
$GPVTG,100.08,T,,M,0.01,N,0.02,K,A*37
$GPGGA,084032.000,3018.4759,N,12004.6491,E,1,10,0.85,33.2,M,7.0,M,,*60
$GPGLL,3018.4759,N,12004.6491,E,084032.000,A,A*5C
$GPGSA,A,3,11,19,06,05,09,12,25,21,04,17,,,1.61,0.85,1.36*0A
$GPGSV,4,1,14,21,62,256,26,11,53,335,38,19,51,138,42,06,48,050,41*79
$GPGSV,4,2,14,05,32,245,37,09,32,058,32,12,30,272,42,17,25,141,20*7B
$GPGSV,4,3,14,25,11,306,41,40,11,255,,04,07,038,24,20,04,195,24*79
$GPGSV,4,4,14,13,04,188,30,29,,,21*40
$GPRMC,084032.000,A,3018.4759,N,12004.6491,E,0.02,136.02,110806,,,A*61
$GPVTG,136.02,T,,M,0.02,N,0.03,K,A*3A
$GPGGA,084033.000,3018.4759,N,12004.6491,E,1,10,0.85,33.1,M,7.0,M,,*62
$GPGLL,3018.4759,N,12004.6491,E,084033.000,A,A*5D
$GPGSA,A,3,11,19,06,05,09,12,25,21,04,17,,,1.61,0.85,1.36*0A
$GPGSV,4,1,14,21,62,256,19,11,53,335,38,19,51,138,42,06,48,050,41*75
$GPGSV,4,2,14,05,32,245,37,09,32,058,31,12,30,272,42,17,25,141,20*78
$GPGSV,4,3,14,25,11,306,41,40,11,255,,04,07,038,26,20,04,195,20*7F
$GPGSV,4,4,14,13,04,188,31,29,,,21*41
$GPRMC,084033.000,A,3018.4759,N,12004.6491,E,0.02,194.47,110806,,,A*69
$GPVTG,194.47,T,,M,0.02,N,0.03,K,A*33
$GPGGA,084034.000,3018.4759,N,12004.6491,E,1,10,0.85,33.1,M,7.0,M,,*65
$GPGLL,3018.4759,N,12004.6491,E,084034.000,A,A*5A
$GPGSA,A,3,11,19,06,05,09,12,25,21,04,17,,,1.61,0.85,1.36*0A
$GPGSV,4,1,14,21,62,256,24,11,53,335,38,19,51,138,42,06,48,050,41*7B
$GPGSV,4,2,14,05,32,245,38,09,32,058,31,12,30,272,42,17,25,141,16*72
$GPGSV,4,3,14,25,11,306,41,40,11,255,,04,07,038,25,20,04,195,33*7E
$GPGSV,4,4,14,13,04,188,31,29,,,20*40
$GPRMC,084034.000,A,3018.4759,N,12004.6491,E,0.01,185.72,110806,,,A*6B
$GPVTG,185.72,T,,M,0.01,N,0.02,K,A*37
$GPGGA,084035.000,3018.4759,N,12004.6491,E,1,10,0.85,33.1,M,7.0,M,,*64
$GPGLL,3018.4759,N,12004.6491,E,084035.000,A,A*5B
$GPGSA,A,3,11,19,06,05,09,12,25,21,04,17,,,1.61,0.85,1.36*0A
$GPGSV,4,1,14,21,62,256,21,11,53,335,38,19,51,138,42,06,48,050,41*7E
$GPGSV,4,2,14,05,32,245,39,09,32,058,31,12,30,272,42,17,25,141,17*72
$GPGSV,4,3,14,25,11,306,41,40,11,255,,04,07,038,25,20,04,195,34*79
$GPGSV,4,4,14,13,04,188,32,29,,,19*49
$GPRMC,084035.000,A,3018.4759,N,12004.6491,E,0.01,135.34,110806,,,A*63
$GPVTG,135.34,T,,M,0.01,N,0.01,K,A*3D
$GPGGA,084036.000,3018.4759,N,12004.6491,E,1,10,0.85,33.1,M,7.0,M,,*67
$GPGLL,3018.4759,N,12004.6491,E,084036.000,A,A*58
$GPGSA,A,3,11,19,06,05,09,12,25,21,04,17,,,1.61,0.85,1.36*0A
$GPGSV,4,1,14,21,62,256,23,11,53,335,38,19,51,138,42,06,48,050,41*7C
$GPGSV,4,2,14,05,32,245,39,09,32,058,31,12,30,272,42,17,25,141,17*72
$GPGSV,4,3,14,25,11,306,41,40,11,255,,04,07,038,25,20,04,195,34*79
$GPGSV,4,4,14,13,04,188,33,29,,,19*48
$GPRMC,084036.000,A,3018.4759,N,12004.6491,E,0.02,88.99,110806,,,A*53
$GPVTG,88.99,T,,M,0.02,N,0.03,K,A*0C
$GPGGA,084037.000,3018.4759,N,12004.6491,E,1,10,0.85,33.1,M,7.0,M,,*66
$GPGLL,3018.4759,N,12004.6491,E,084037.000,A,A*59
$GPGSA,A,3,11,19,06,05,09,12,25,21,04,17,,,1.61,0.85,1.36*0A
$GPGSV,4,1,14,21,62,256,25,11,53,335,38,19,51,138,42,06,48,050,41*7A
$GPGSV,4,2,14,05,32,245,40,09,32,058,31,12,30,272,41,17,25,141,17*7F
$GPGSV,4,3,14,25,11,306,41,40,11,255,,04,07,038,24,20,04,195,33*7F
$GPGSV,4,4,14,13,04,188,34,29,,,19*4F
$GPRMC,084037.000,A,3018.4759,N,12004.6491,E,0.01,115.28,110806,,,A*6E
$GPVTG,115.28,T,,M,0.01,N,0.02,K,A*31
$GPGGA,084038.000,3018.4759,N,12004.6491,E,1,10,0.85,33.1,M,7.0,M,,*69
$GPGLL,3018.4759,N,12004.6491,E,084038.000,A,A*56
$GPGSA,A,3,11,19,06,05,09,12,25,21,04,17,,,1.61,0.85,1.36*0A
$GPGSV,4,1,14,21,62,256,19,11,53,335,39,19,51,138,42,06,48,051,41*75
$GPGSV,4,2,14,05,32,245,40,09,32,058,31,12,30,272,41,17,25,141,18*70
$GPGSV,4,3,14,25,11,306,42,40,11,255,34,04,07,038,24,20,04,195,33*7B
$GPGSV,4,4,14,13,04,188,35,29,,,19*4E
$GPRMC,084038.000,A,3018.4759,N,12004.6491,E,0.01,92.09,110806,,,A*5C
$GPVTG,92.09,T,,M,0.01,N,0.01,K,A*0F
$GPGGA,084039.000,3018.4759,N,12004.6491,E,1,10,0.85,33.1,M,7.0,M,,*68
$GPGLL,3018.4759,N,12004.6491,E,084039.000,A,A*57
$GPGSA,A,3,11,19,06,05,09,12,25,21,04,17,,,1.61,0.85,1.36*0A
$GPGSV,4,1,14,21,62,256,23,11,53,335,38,19,51,138,42,06,48,051,41*7D
$GPGSV,4,2,14,05,32,245,41,09,32,058,30,12,30,272,41,17,25,141,24*7F
$GPGSV,4,3,14,25,11,306,42,40,11,255,36,04,07,038,24,20,04,195,34*7E
$GPGSV,4,4,14,13,04,188,36,29,,,18*4C
$GPRMC,084039.000,A,3018.4759,N,12004.6491,E,0.01,138.31,110806,,,A*67
$GPVTG,138.31,T,,M,0.01,N,0.03,K,A*37
$GPGGA,084040.000,3018.4759,N,12004.6491,E,1,10,0.85,33.0,M,7.0,M,,*67
$GPGLL,3018.4759,N,12004.6491,E,084040.000,A,A*59
$GPGSA,A,3,11,19,06,05,09,12,25,21,04,17,,,1.61,0.85,1.36*0A
$GPGSV,4,1,14,21,62,256,30,11,53,335,39,19,51,138,41,06,48,051,41*7D
$GPGSV,4,2,14,05,32,245,41,09,32,058,30,12,30,272,41,17,25,141,25*7E
$GPGSV,4,3,14,25,11,306,42,40,11,255,37,04,07,038,24,20,04,195,35*7E
$GPGSV,4,4,14,13,04,188,37,29,,,17*42
$GPRMC,084040.000,A,3018.4759,N,12004.6491,E,0.01,194.72,110806,,,A*68
$GPVTG,194.72,T,,M,0.01,N,0.02,K,A*37
$GPGGA,084041.000,3018.4759,N,12004.6492,E,1,10,0.85,32.9,M,7.0,M,,*6D
$GPGLL,3018.4759,N,12004.6492,E,084041.000,A,A*5B
$GPGSA,A,3,11,19,06,05,09,12,25,21,04,17,,,1.61,0.85,1.36*0A
$GPGSV,4,1,14,21,62,256,29,11,53,335,40,19,51,138,40,06,48,051,41*7A
$GPGSV,4,2,14,05,32,245,42,09,31,057,32,12,30,272,39,17,25,141,20*79
$GPGSV,4,3,14,25,11,306,41,40,11,255,36,04,07,038,23,20,04,195,37*79
$GPGSV,4,4,14,13,04,188,38,29,,,16*4C
$GPRMC,084041.000,A,3018.4759,N,12004.6492,E,0.02,76.86,110806,,,A*5F
$GPVTG,76.86,T,,M,0.02,N,0.04,K,A*04
$GPGGA,084042.000,3018.4759,N,12004.6492,E,1,10,0.85,32.9,M,7.0,M,,*6E
$GPGLL,3018.4759,N,12004.6492,E,084042.000,A,A*58
$GPGSA,A,3,11,19,06,05,09,12,25,21,04,17,,,1.60,0.85,1.36*0B
$GPGSV,4,1,14,21,62,256,27,11,53,335,41,19,51,138,39,06,48,051,40*7A
$GPGSV,4,2,14,05,32,245,42,09,31,057,33,12,30,272,38,17,25,141,24*7D
$GPGSV,4,3,14,25,11,306,40,40,11,255,35,04,07,038,22,20,04,195,36*7B
$GPGSV,4,4,14,13,04,188,36,29,,,15*41
$GPRMC,084042.000,A,3018.4759,N,12004.6492,E,0.04,107.44,110806,,,A*63
$GPVTG,107.44,T,,M,0.04,N,0.07,K,A*38
$GPGGA,084043.000,3018.4759,N,12004.6492,E,1,10,0.85,32.9,M,7.0,M,,*6F
$GPGLL,3018.4759,N,12004.6492,E,084043.000,A,A*59
$GPGSA,A,3,11,19,06,05,09,12,25,21,04,17,,,1.61,0.85,1.36*0A
$GPGSV,4,1,14,21,62,256,28,11,53,335,41,19,51,138,39,06,48,051,40*75
$GPGSV,4,2,14,05,32,245,41,09,31,057,34,12,30,272,37,17,25,141,26*74
$GPGSV,4,3,14,25,11,306,40,40,11,255,34,04,07,038,20,20,04,195,35*7B
$GPGSV,4,4,14,13,04,188,35,29,,,15*42
$GPRMC,084043.000,A,3018.4759,N,12004.6492,E,0.01,88.54,110806,,,A*50
$GPVTG,88.54,T,,M,0.01,N,0.02,K,A*0F
$GPGGA,084044.000,3018.4759,N,12004.6492,E,1,10,0.85,32.9,M,7.0,M,,*68
$GPGLL,3018.4759,N,12004.6492,E,084044.000,A,A*5E
$GPGSA,A,3,11,19,06,05,09,12,25,21,04,17,,,1.61,0.85,1.36*0A
$GPGSV,4,1,14,21,62,256,36,11,53,335,41,19,51,138,32,06,48,051,39*7F
$GPGSV,4,2,14,05,32,245,40,09,31,057,36,12,30,271,35,17,25,141,26*76
$GPGSV,4,3,14,25,11,306,40,40,11,255,34,04,07,038,20,20,04,195,35*7B
$GPGSV,4,4,14,13,04,188,34,29,,,15*43
$GPRMC,084044.000,A,3018.4759,N,12004.6492,E,0.01,293.28,110806,,,A*64
$GPVTG,293.28,T,,M,0.01,N,0.01,K,A*3F
$GPGGA,084045.000,3018.4759,N,12004.6492,E,1,10,0.85,32.9,M,7.0,M,,*69
$GPGLL,3018.4759,N,12004.6492,E,084045.000,A,A*5F
$GPGSA,A,3,11,19,06,05,09,12,25,21,04,17,,,1.61,0.85,1.36*0A
$GPGSV,4,1,14,21,62,256,28,11,53,335,40,19,51,138,31,06,48,051,37*7C
$GPGSV,4,2,14,05,32,245,39,09,31,057,36,12,30,271,35,17,25,141,24*7A
$GPGSV,4,3,14,25,11,306,39,40,11,255,34,04,07,038,19,20,04,195,35*7F
$GPGSV,4,4,14,13,04,188,33,29,,,15*44
$GPRMC,084045.000,A,3018.4759,N,12004.6492,E,0.01,79.87,110806,,,A*56
$GPVTG,79.87,T,,M,0.01,N,0.02,K,A*0F
$GPGGA,084046.000,3018.4759,N,12004.6491,E,1,10,0.85,32.9,M,7.0,M,,*69
$GPGLL,3018.4759,N,12004.6491,E,084046.000,A,A*5F
$GPGSA,A,3,11,19,06,05,09,12,25,21,04,17,,,1.61,0.85,1.36*0A
$GPGSV,4,1,14,21,62,256,29,11,53,335,38,19,51,138,31,06,48,051,37*72
$GPGSV,4,2,14,05,32,245,30,09,31,057,24,12,30,271,36,17,25,141,29*7E
$GPGSV,4,3,14,25,11,306,38,40,11,255,34,04,07,038,18,20,04,195,28*73
$GPGSV,4,4,14,13,04,188,32,29,,,15*45
$GPRMC,084046.000,A,3018.4759,N,12004.6491,E,0.02,259.45,110806,,,A*6B
$GPVTG,259.45,T,,M,0.02,N,0.03,K,A*33
$GPGGA,084047.000,3018.4758,N,12004.6491,E,1,10,0.85,32.9,M,7.0,M,,*69
$GPGLL,3018.4758,N,12004.6491,E,084047.000,A,A*5F
$GPGSA,A,3,11,19,06,05,09,12,25,21,04,17,,,1.61,0.85,1.36*0A
$GPGSV,4,1,14,21,62,256,30,11,53,335,37,19,51,138,31,06,48,051,37*75
$GPGSV,4,2,14,05,32,245,31,09,31,057,24,12,30,271,37,17,25,141,30*76
$GPGSV,4,3,14,25,11,306,37,40,11,255,34,04,07,038,17,20,04,195,28*73
$GPGSV,4,4,14,13,04,188,25,29,,,15*43
$GPRMC,084047.000,A,3018.4758,N,12004.6491,E,0.01,294.98,110806,,,A*69
$GPVTG,294.98,T,,M,0.01,N,0.02,K,A*30
$GPGGA,084048.000,3018.4758,N,12004.6490,E,1,10,0.85,33.0,M,7.0,M,,*6F
$GPGLL,3018.4758,N,12004.6490,E,084048.000,A,A*51
$GPGSA,A,3,11,19,06,05,09,12,25,21,04,17,,,1.60,0.85,1.36*0B
$GPGSV,4,1,14,21,62,256,32,11,53,335,29,19,51,138,31,06,48,051,36*79
$GPGSV,4,2,14,05,32,245,33,09,31,057,24,12,30,271,39,17,25,141,30*7A
$GPGSV,4,3,14,25,11,306,36,40,11,255,36,04,07,038,16,20,04,195,37*7F
$GPGSV,4,4,14,13,04,188,26,29,,,15*40
$GPRMC,084048.000,A,3018.4758,N,12004.6490,E,0.01,189.96,110806,,,A*66
$GPVTG,189.96,T,,M,0.01,N,0.01,K,A*32
$GPGGA,084049.000,3018.4758,N,12004.6489,E,1,10,0.85,33.0,M,7.0,M,,*66
$GPGLL,3018.4758,N,12004.6489,E,084049.000,A,A*58
$GPGSA,A,3,11,19,06,05,09,12,25,21,04,17,,,1.61,0.85,1.36*0A
$GPGSV,4,1,14,21,62,256,33,11,53,335,30,19,51,138,31,06,48,051,35*73
$GPGSV,4,2,14,05,32,245,35,09,31,057,25,12,30,271,40,17,24,141,30*72
$GPGSV,4,3,14,25,11,306,34,40,11,255,37,04,07,038,15,20,04,195,30*78
$GPGSV,4,4,14,13,04,188,25,29,,,15*43
$GPRMC,084049.000,A,3018.4758,N,12004.6489,E,0.01,189.46,110806,,,A*62
$GPVTG,189.46,T,,M,0.01,N,0.01,K,A*3F
$GPGGA,084050.000,3018.4758,N,12004.6488,E,1,10,0.85,33.0,M,7.0,M,,*6F
$GPGLL,3018.4758,N,12004.6488,E,084050.000,A,A*51
$GPGSA,A,3,11,19,06,05,09,12,25,21,04,17,,,1.60,0.85,1.36*0B
$GPGSV,4,1,14,21,62,256,33,11,53,335,31,19,51,138,31,06,48,051,34*73
$GPGSV,4,2,14,05,32,245,36,09,31,057,25,12,30,271,41,17,24,141,30*70
$GPGSV,4,3,14,25,11,306,34,40,11,255,37,04,07,038,14,20,04,195,31*78
$GPGSV,4,4,14,13,04,188,26,29,,,16*43
$GPRMC,084050.000,A,3018.4758,N,12004.6488,E,0.02,339.68,110806,,,A*6D
$GPVTG,339.68,T,,M,0.02,N,0.03,K,A*3B
$GPGGA,084051.000,3018.4758,N,12004.6487,E,1,10,0.85,33.0,M,7.0,M,,*61
$GPGLL,3018.4758,N,12004.6487,E,084051.000,A,A*5F
$GPGSA,A,3,11,19,06,05,09,12,25,21,04,17,,,1.60,0.85,1.36*0B
$GPGSV,4,1,14,21,62,256,34,11,53,335,32,19,50,139,31,06,48,051,34*77
$GPGSV,4,2,14,05,32,245,37,09,31,057,25,12,30,271,41,17,24,141,30*71
$GPGSV,4,3,14,25,11,306,34,40,11,255,37,04,07,038,17,20,04,195,33*79
$GPGSV,4,4,14,13,04,188,27,29,,,16*42
$GPRMC,084051.000,A,3018.4758,N,12004.6487,E,0.02,317.96,110806,,,A*6E
$GPVTG,317.96,T,,M,0.02,N,0.03,K,A*36
$GPGGA,084052.000,3018.4758,N,12004.6486,E,1,10,0.85,33.1,M,7.0,M,,*62
$GPGLL,3018.4758,N,12004.6486,E,084052.000,A,A*5D
$GPGSA,A,3,11,19,06,05,09,12,25,21,04,17,,,1.61,0.85,1.36*0A
$GPGSV,4,1,14,21,62,256,34,11,53,335,32,19,50,139,31,06,48,051,33*70
$GPGSV,4,2,14,05,32,245,38,09,31,057,25,12,30,271,41,17,24,141,30*7E
$GPGSV,4,3,14,25,11,306,34,40,11,255,37,04,07,038,17,20,05,195,34*7F
$GPGSV,4,4,14,13,04,188,28,29,,,16*4D
$GPRMC,084052.000,A,3018.4758,N,12004.6486,E,0.01,331.63,110806,,,A*61
$GPVTG,331.63,T,,M,0.01,N,0.03,K,A*3B
$GPGGA,084053.000,3018.4758,N,12004.6485,E,1,11,0.74,33.1,M,7.0,M,,*6F
$GPGLL,3018.4758,N,12004.6485,E,084053.000,A,A*5F
$GPGSA,A,3,11,19,06,05,09,12,25,21,20,04,17,,1.34,0.74,1.12*00
$GPGSV,4,1,14,21,62,258,34,11,53,335,32,19,50,139,31,06,48,051,33*7E
$GPGSV,4,2,14,05,32,245,38,09,31,057,25,12,30,271,41,17,24,141,30*7E
$GPGSV,4,3,14,25,11,306,33,40,11,255,38,04,07,038,17,20,05,195,35*76
$GPGSV,4,4,14,13,04,188,27,29,,,16*42
$GPRMC,084053.000,A,3018.4758,N,12004.6485,E,0.01,273.80,110806,,,A*69
$GPVTG,273.80,T,,M,0.01,N,0.03,K,A*31
$GPGGA,084054.000,3018.4757,N,12004.6483,E,1,11,0.74,33.1,M,7.0,M,,*61
$GPGLL,3018.4757,N,12004.6483,E,084054.000,A,A*51
$GPGSA,A,3,11,19,06,05,09,12,25,21,20,04,17,,1.34,0.74,1.12*00
$GPGSV,4,1,14,21,62,258,34,11,53,335,33,19,50,139,31,06,48,051,33*7F
$GPGSV,4,2,14,05,32,245,39,09,31,057,26,12,30,271,41,17,24,141,29*74
$GPGSV,4,3,14,25,11,306,33,40,11,255,38,04,07,038,17,20,05,195,35*76
$GPGSV,4,4,14,13,04,188,25,29,,,15*43
$GPRMC,084054.000,A,3018.4757,N,12004.6483,E,0.02,231.75,110806,,,A*68
$GPVTG,231.75,T,,M,0.02,N,0.04,K,A*39
$GPGGA,084055.000,3018.4757,N,12004.6483,E,1,11,0.74,33.1,M,7.0,M,,*60
$GPGLL,3018.4757,N,12004.6483,E,084055.000,A,A*50
$GPGSA,A,3,11,19,06,05,09,12,25,21,20,04,17,,1.34,0.74,1.12*00
$GPGSV,4,1,14,21,62,258,35,11,53,335,33,19,50,139,31,06,48,051,33*7E
$GPGSV,4,2,14,05,32,245,39,09,31,057,26,12,30,271,41,17,24,141,29*74
$GPGSV,4,3,14,25,11,306,33,40,11,255,38,04,07,038,17,20,05,195,35*76
$GPGSV,4,4,14,13,04,188,27,29,,,15*41
$GPRMC,084055.000,A,3018.4757,N,12004.6483,E,0.02,224.62,110806,,,A*6B
$GPVTG,224.62,T,,M,0.02,N,0.04,K,A*3B
$GPGGA,084056.000,3018.4757,N,12004.6482,E,1,11,0.74,33.1,M,7.0,M,,*62
$GPGLL,3018.4757,N,12004.6482,E,084056.000,A,A*52
$GPGSA,A,3,11,19,06,05,09,12,25,21,20,04,17,,1.34,0.74,1.12*00
$GPGSV,4,1,14,21,62,258,35,11,53,335,33,19,50,139,31,06,48,051,32*7F
$GPGSV,4,2,14,05,32,245,39,09,31,057,26,12,30,271,41,17,24,141,29*74
$GPGSV,4,3,14,25,11,306,32,40,11,255,38,04,07,038,17,20,05,195,35*77
$GPGSV,4,4,14,13,04,188,27,29,,,15*41
$GPRMC,084056.000,A,3018.4757,N,12004.6482,E,0.01,317.26,110806,,,A*6B
$GPVTG,317.26,T,,M,0.01,N,0.02,K,A*3F
$GPGGA,084057.000,3018.4757,N,12004.6481,E,1,11,0.74,33.1,M,7.0,M,,*60
$GPGLL,3018.4757,N,12004.6481,E,084057.000,A,A*50
$GPGSA,A,3,11,19,06,05,09,12,25,21,20,04,17,,1.34,0.74,1.12*00
$GPGSV,4,1,14,21,62,258,36,11,53,335,33,19,50,139,31,06,48,051,32*7C
$GPGSV,4,2,14,05,32,245,39,09,31,057,26,12,30,271,41,17,24,141,29*74
$GPGSV,4,3,14,25,11,305,32,40,11,255,38,04,07,038,17,20,05,195,35*74
$GPGSV,4,4,14,13,04,188,28,29,,,14*4F
$GPRMC,084057.000,A,3018.4757,N,12004.6481,E,0.00,338.70,110806,,,A*66
$GPVTG,338.70,T,,M,0.00,N,0.01,K,A*33
$GPGGA,084058.000,3018.4757,N,12004.6481,E,1,10,0.85,33.1,M,7.0,M,,*60
$GPGLL,3018.4757,N,12004.6481,E,084058.000,A,A*5F
$GPGSA,A,3,11,19,06,05,09,12,25,21,20,17,,,1.60,0.85,1.36*0D
$GPGSV,4,1,14,21,62,258,36,11,53,335,33,19,50,139,30,06,48,051,32*7D
$GPGSV,4,2,14,05,32,245,39,09,31,057,26,12,30,271,41,17,24,141,29*74
$GPGSV,4,3,14,25,11,305,32,40,11,255,38,04,07,038,15,20,05,195,36*75
$GPGSV,4,4,14,13,04,188,28,29,,,14*4F
$GPRMC,084058.000,A,3018.4757,N,12004.6481,E,0.03,340.92,110806,,,A*69
$GPVTG,340.92,T,,M,0.03,N,0.05,K,A*37
$GPGGA,084059.000,3018.4757,N,12004.6480,E,1,10,0.85,33.1,M,7.0,M,,*60
$GPGLL,3018.4757,N,12004.6480,E,084059.000,A,A*5F
$GPGSA,A,3,11,19,06,05,09,12,25,21,20,17,,,1.60,0.85,1.36*0D
$GPGSV,4,1,14,21,62,258,36,11,53,335,33,19,50,139,31,06,48,051,32*7C
$GPGSV,4,2,14,05,32,245,39,09,31,057,26,12,30,271,41,17,24,141,28*75
$GPGSV,4,3,14,25,11,305,33,40,11,255,38,04,07,038,15,20,05,195,36*74
$GPGSV,4,4,14,13,04,188,27,29,,,14*40
$GPRMC,084059.000,A,3018.4757,N,12004.6480,E,0.03,279.00,110806,,,A*69
$GPVTG,279.00,T,,M,0.03,N,0.06,K,A*34
$GPGGA,084100.000,3018.4758,N,12004.6480,E,1,11,0.74,33.1,M,7.0,M,,*6D
$GPGLL,3018.4758,N,12004.6480,E,084100.000,A,A*5D
$GPGSA,A,3,11,19,06,05,09,12,25,21,20,04,17,,1.34,0.74,1.12*00
$GPGSV,4,1,14,21,62,258,36,11,53,335,33,19,50,139,32,06,48,051,32*7F
$GPGSV,4,2,14,05,32,245,38,09,31,057,25,12,30,271,41,17,24,141,27*78
$GPGSV,4,3,14,25,11,305,33,40,11,255,37,04,07,038,14,20,05,195,36*7A
$GPGSV,4,4,14,13,04,188,28,29,,,15*4E
$GPRMC,084100.000,A,3018.4758,N,12004.6480,E,0.02,0.20,110806,,,A*64
$GPVTG,0.20,T,,M,0.02,N,0.04,K,A*39
$GPGGA,084101.000,3018.4758,N,12004.6479,E,1,11,0.74,33.1,M,7.0,M,,*6A
$GPGLL,3018.4758,N,12004.6479,E,084101.000,A,A*5A
$GPGSA,A,3,11,19,06,05,09,12,25,21,20,04,17,,1.34,0.74,1.12*00
$GPGSV,4,1,14,21,62,258,35,11,53,335,32,19,50,139,30,06,48,051,32*7F
$GPGSV,4,2,14,05,32,245,39,09,31,057,25,12,30,271,31,17,24,141,26*7F
$GPGSV,4,3,14,25,11,305,35,40,11,255,36,04,07,038,16,20,05,195,37*7E
$GPGSV,4,4,14,13,04,188,29,29,,,15*4F
$GPRMC,084101.000,A,3018.4758,N,12004.6479,E,0.00,332.94,110806,,,A*6C
$GPVTG,332.94,T,,M,0.00,N,0.01,K,A*33
$GPGGA,084102.000,3018.4758,N,12004.6479,E,1,11,0.74,33.2,M,7.0,M,,*6A
$GPGLL,3018.4758,N,12004.6479,E,084102.000,A,A*59
$GPGSA,A,3,11,19,06,05,09,12,25,21,20,04,17,,1.34,0.74,1.12*00
$GPGSV,4,1,14,21,62,258,35,11,53,335,32,19,50,139,29,06,48,051,32*77
$GPGSV,4,2,14,05,32,245,40,09,31,057,24,12,30,271,39,17,24,141,26*78
$GPGSV,4,3,14,25,11,305,34,40,11,255,37,04,07,038,16,20,05,195,37*7E
$GPGSV,4,4,14,13,04,188,29,29,,,15*4F
$GPRMC,084102.000,A,3018.4758,N,12004.6479,E,0.01,289.23,110806,,,A*63
$GPVTG,289.23,T,,M,0.01,N,0.01,K,A*3F
$GPGGA,084103.000,3018.4758,N,12004.6478,E,1,11,0.74,33.2,M,7.0,M,,*6A
$GPGLL,3018.4758,N,12004.6478,E,084103.000,A,A*59
$GPGSA,A,3,11,19,06,05,09,12,25,21,20,04,17,,1.34,0.74,1.12*00
$GPGSV,4,1,14,21,62,258,35,11,53,335,32,19,50,139,29,06,48,051,31*74
$GPGSV,4,2,14,05,32,245,40,09,31,057,24,12,30,271,40,17,24,141,25*75
$GPGSV,4,3,14,25,11,305,35,40,11,255,37,04,07,038,17,20,05,195,37*7E
$GPGSV,4,4,14,13,04,188,28,29,,,15*4E
$GPRMC,084103.000,A,3018.4758,N,12004.6478,E,0.01,295.19,110806,,,A*67
$GPVTG,295.19,T,,M,0.01,N,0.02,K,A*38
$GPGGA,084104.000,3018.4758,N,12004.6478,E,1,11,0.74,33.2,M,7.0,M,,*6D
$GPGLL,3018.4758,N,12004.6478,E,084104.000,A,A*5E
$GPGSA,A,3,11,19,06,05,09,12,25,21,20,04,17,,1.34,0.74,1.12*00
$GPGSV,4,1,14,21,62,258,36,11,53,335,25,19,50,139,29,06,48,051,31*71
$GPGSV,4,2,14,05,32,245,40,09,31,057,24,12,30,271,40,17,24,141,25*75
$GPGSV,4,3,14,25,11,305,35,40,11,255,37,04,07,038,15,20,05,195,37*7C
$GPGSV,4,4,14,13,04,188,28,29,,,16*4D
$GPRMC,084104.000,A,3018.4758,N,12004.6478,E,0.00,314.05,110806,,,A*64
$GPVTG,314.05,T,,M,0.00,N,0.01,K,A*3F
$GPGGA,084105.000,3018.4758,N,12004.6477,E,1,11,0.74,33.2,M,7.0,M,,*63
$GPGLL,3018.4758,N,12004.6477,E,084105.000,A,A*50
$GPGSA,A,3,11,19,06,05,09,12,25,21,20,04,17,,1.34,0.74,1.12*00
$GPGSV,4,1,14,21,62,258,36,11,53,335,32,19,50,139,28,06,48,051,31*76
$GPGSV,4,2,14,05,32,245,40,09,31,057,23,12,30,271,41,17,24,141,25*73
$GPGSV,4,3,14,25,11,305,36,40,11,255,38,04,07,038,14,20,05,195,37*71
$GPGSV,4,4,14,13,04,188,27,29,,,16*42
$GPRMC,084105.000,A,3018.4758,N,12004.6477,E,0.04,346.50,110806,,,A*69
$GPVTG,346.50,T,,M,0.04,N,0.07,K,A*3A
$GPGGA,084106.000,3018.4759,N,12004.6477,E,1,11,0.74,33.3,M,7.0,M,,*60
$GPGLL,3018.4759,N,12004.6477,E,084106.000,A,A*52
$GPGSA,A,3,11,19,06,05,09,12,25,21,20,04,17,,1.34,0.74,1.12*00
$GPGSV,4,1,14,21,62,258,36,11,53,335,32,19,50,139,29,06,48,051,32*74
$GPGSV,4,2,14,05,32,245,40,09,31,057,23,12,30,271,41,17,24,141,25*73
$GPGSV,4,3,14,25,11,305,37,40,11,255,38,04,07,038,16,20,05,195,36*73
$GPGSV,4,4,14,13,04,188,26,29,,,16*43
$GPRMC,084106.000,A,3018.4759,N,12004.6477,E,0.01,355.64,110806,,,A*6B
$GPVTG,355.64,T,,M,0.01,N,0.02,K,A*3F
$GPGGA,084107.000,3018.4759,N,12004.6476,E,1,11,0.74,33.3,M,7.0,M,,*60
$GPGLL,3018.4759,N,12004.6476,E,084107.000,A,A*52
$GPGSA,A,3,11,19,06,05,09,12,25,21,20,04,17,,1.34,0.74,1.12*00
$GPGSV,4,1,14,21,62,258,36,11,53,335,33,19,50,139,29,06,48,051,32*75
$GPGSV,4,2,14,05,32,245,40,09,31,057,24,12,30,271,42,17,24,141,26*74
$GPGSV,4,3,14,25,11,305,36,40,11,255,39,04,07,038,17,20,05,195,35*71
$GPGSV,4,4,14,13,04,188,25,29,,,16*40
$GPRMC,084107.000,A,3018.4759,N,12004.6476,E,0.02,15.25,110806,,,A*5A
$GPVTG,15.25,T,,M,0.02,N,0.05,K,A*09
$GPGGA,084108.000,3018.4759,N,12004.6475,E,1,11,0.74,33.4,M,7.0,M,,*6B
$GPGLL,3018.4759,N,12004.6475,E,084108.000,A,A*5E
$GPGSA,A,3,11,19,06,05,09,12,25,21,20,04,17,,1.34,0.74,1.12*00
$GPGSV,4,1,14,21,62,258,36,11,53,335,33,19,50,139,29,06,48,051,32*75
$GPGSV,4,2,14,05,32,245,40,09,31,057,25,12,30,271,42,17,24,141,27*74
$GPGSV,4,3,14,25,11,305,37,40,11,255,39,04,07,038,17,20,05,195,35*70
$GPGSV,4,4,14,13,04,188,26,29,,,16*43
$GPRMC,084108.000,A,3018.4759,N,12004.6475,E,0.02,12.73,110806,,,A*52
$GPVTG,12.73,T,,M,0.02,N,0.03,K,A*0B
$GPGGA,084109.000,3018.4759,N,12004.6476,E,1,11,0.74,33.3,M,7.0,M,,*6E
$GPGLL,3018.4759,N,12004.6476,E,084109.000,A,A*5C
$GPGSA,A,3,11,19,06,05,09,12,25,21,20,04,17,,1.34,0.74,1.12*00
$GPGSV,4,1,14,21,62,258,36,11,53,335,33,19,50,139,28,06,48,051,31*77
$GPGSV,4,2,14,05,32,245,40,09,31,057,26,12,30,271,42,17,24,141,28*78
$GPGSV,4,3,14,25,11,305,37,40,11,255,38,04,07,038,17,20,05,195,35*71
$GPGSV,4,4,14,13,04,188,27,29,,,16*42
$GPRMC,084109.000,A,3018.4759,N,12004.6476,E,0.03,50.90,110806,,,A*5A
$GPVTG,50.90,T,,M,0.03,N,0.05,K,A*07
$GPGGA,084110.000,3018.4760,N,12004.6474,E,1,11,0.74,33.3,M,7.0,M,,*6E
$GPGLL,3018.4760,N,12004.6474,E,084110.000,A,A*5C
$GPGSA,A,3,11,19,06,05,09,12,25,21,20,04,17,,1.34,0.74,1.12*00
$GPGSV,4,1,14,21,62,258,37,11,53,335,33,19,50,139,28,06,48,051,31*76
$GPGSV,4,2,14,05,32,245,40,09,31,057,26,12,30,271,42,17,24,141,28*78
$GPGSV,4,3,14,25,11,305,37,40,11,255,38,04,07,038,17,20,05,195,35*71
$GPGSV,4,4,14,13,04,188,28,29,,,16*4D
$GPRMC,084110.000,A,3018.4760,N,12004.6474,E,0.03,297.60,110806,,,A*6C
$GPVTG,297.60,T,,M,0.03,N,0.05,K,A*31
$GPGGA,084111.000,3018.4760,N,12004.6474,E,1,11,0.74,33.3,M,7.0,M,,*6F
$GPGLL,3018.4760,N,12004.6474,E,084111.000,A,A*5D
$GPGSA,A,3,11,19,06,05,09,12,25,21,20,04,17,,1.34,0.74,1.12*00
$GPGSV,4,1,14,21,62,258,37,11,53,335,34,19,50,139,29,06,48,051,31*70
$GPGSV,4,2,14,05,32,245,40,09,31,057,26,12,30,271,42,17,24,141,28*78
$GPGSV,4,3,14,25,11,305,36,40,11,255,38,04,07,038,16,20,05,195,34*70
$GPGSV,4,4,14,13,04,188,28,29,,,16*4D
$GPRMC,084111.000,A,3018.4760,N,12004.6474,E,0.02,344.70,110806,,,A*62
$GPVTG,344.70,T,,M,0.02,N,0.03,K,A*38
$GPGGA,084112.000,3018.4760,N,12004.6474,E,1,11,0.74,33.2,M,7.0,M,,*6D
$GPGLL,3018.4760,N,12004.6474,E,084112.000,A,A*5E
$GPGSA,A,3,11,19,06,05,09,12,25,21,20,04,17,,1.34,0.74,1.12*00
$GPGSV,4,1,14,21,62,258,37,11,53,335,34,19,50,139,29,06,48,051,31*70
$GPGSV,4,2,14,05,32,245,41,09,31,057,27,12,30,271,42,17,24,141,28*78
$GPGSV,4,3,14,25,11,305,36,40,11,255,38,04,07,038,15,20,05,195,33*74
$GPGSV,4,4,14,13,04,188,29,29,,,15*4F
$GPRMC,084112.000,A,3018.4760,N,12004.6474,E,0.01,348.48,110806,,,A*65
$GPVTG,348.48,T,,M,0.01,N,0.02,K,A*3D
$GPGGA,084113.000,3018.4760,N,12004.6473,E,1,11,0.74,33.3,M,7.0,M,,*6A
$GPGLL,3018.4760,N,12004.6473,E,084113.000,A,A*58
$GPGSA,A,3,11,19,06,05,09,12,25,21,20,04,17,,1.34,0.74,1.12*00
$GPGSV,4,1,14,21,62,258,37,11,53,335,34,19,50,139,29,06,48,051,31*70
$GPGSV,4,2,14,05,32,245,40,09,31,057,27,12,30,271,43,17,24,141,28*78
$GPGSV,4,3,14,25,11,305,35,40,11,255,37,04,07,038,14,20,05,195,33*79
$GPGSV,4,4,14,13,04,188,29,29,,,15*4F
$GPRMC,084113.000,A,3018.4760,N,12004.6473,E,0.03,326.76,110806,,,A*64
$GPVTG,326.76,T,,M,0.03,N,0.06,K,A*3E
$GPGGA,084114.000,3018.4760,N,12004.6472,E,1,11,0.74,33.2,M,7.0,M,,*6D
$GPGLL,3018.4760,N,12004.6472,E,084114.000,A,A*5E
$GPGSA,A,3,11,19,06,05,09,12,25,21,20,04,17,,1.34,0.74,1.12*00
$GPGSV,4,1,14,21,62,258,37,11,53,335,34,19,50,139,29,06,48,051,31*70
$GPGSV,4,2,14,05,32,245,40,09,31,057,27,12,30,271,43,17,24,141,28*78
$GPGSV,4,3,14,25,11,305,36,40,11,255,37,04,07,038,12,20,05,195,33*7C
$GPGSV,4,4,14,13,04,188,29,29,,,15*4F
$GPRMC,084114.000,A,3018.4760,N,12004.6472,E,0.02,346.59,110806,,,A*68
$GPVTG,346.59,T,,M,0.02,N,0.03,K,A*31
$GPGGA,084115.000,3018.4761,N,12004.6472,E,1,11,0.74,33.2,M,7.0,M,,*6D
$GPGLL,3018.4761,N,12004.6472,E,084115.000,A,A*5E
$GPGSA,A,3,11,19,06,05,09,12,25,21,20,04,17,,1.34,0.74,1.12*00
$GPGSV,4,1,14,21,62,258,37,11,53,335,33,19,50,139,29,06,48,051,31*77
$GPGSV,4,2,14,05,32,245,39,09,31,057,27,12,30,271,43,17,24,141,28*76
$GPGSV,4,3,14,25,11,305,36,40,11,255,38,04,07,038,11,20,05,195,34*77
$GPGSV,4,4,14,13,04,188,29,29,,,16*4C
$GPRMC,084115.000,A,3018.4761,N,12004.6472,E,0.01,160.28,110806,,,A*6B
$GPVTG,160.28,T,,M,0.01,N,0.02,K,A*33
$GPGGA,084116.000,3018.4761,N,12004.6472,E,1,11,0.74,33.1,M,7.0,M,,*6D
$GPGLL,3018.4761,N,12004.6472,E,084116.000,A,A*5D
$GPGSA,A,3,11,19,06,05,09,12,25,21,20,04,17,,1.34,0.74,1.12*00
$GPGSV,4,1,14,21,62,258,37,11,53,335,32,19,50,139,29,06,48,051,31*76
$GPGSV,4,2,14,05,32,245,39,09,31,057,27,12,30,271,43,17,24,141,29*77
$GPGSV,4,3,14,25,11,305,36,40,11,255,38,04,07,038,12,20,05,195,34*74
$GPGSV,4,4,14,13,04,188,29,29,,,16*4C
$GPRMC,084116.000,A,3018.4761,N,12004.6472,E,0.02,46.56,110806,,,A*57
$GPVTG,46.56,T,,M,0.02,N,0.03,K,A*0D
$GPGGA,084117.000,3018.4761,N,12004.6472,E,1,11,0.74,33.0,M,7.0,M,,*6D
$GPGLL,3018.4761,N,12004.6472,E,084117.000,A,A*5C
$GPGSA,A,3,11,19,06,05,09,12,25,21,20,04,17,,1.34,0.74,1.12*00
$GPGSV,4,1,13,21,62,258,37,11,53,335,32,19,50,139,29,06,48,051,31*71
$GPGSV,4,2,13,05,32,245,38,09,31,057,27,12,30,271,44,17,24,141,29*76
$GPGSV,4,3,13,25,11,305,36,40,11,255,38,04,07,038,14,20,05,195,33*72
$GPGSV,4,4,13,13,04,188,29*47
$GPRMC,084117.000,A,3018.4761,N,12004.6472,E,0.00,98.33,110806,,,A*54
$GPVTG,98.33,T,,M,0.00,N,0.01,K,A*0D
$GPGGA,084118.000,3018.4762,N,12004.6471,E,1,11,0.74,33.0,M,7.0,M,,*62
$GPGLL,3018.4762,N,12004.6471,E,084118.000,A,A*53
$GPGSA,A,3,11,19,06,05,09,12,25,21,20,04,17,,1.34,0.74,1.12*00
$GPGSV,4,1,13,21,62,258,37,11,53,335,32,19,50,139,29,06,48,051,31*71
$GPGSV,4,2,13,05,32,245,38,09,31,057,27,12,30,271,44,17,24,141,29*76
$GPGSV,4,3,13,25,11,305,37,40,11,255,38,04,07,038,15,20,05,195,33*72
$GPGSV,4,4,13,13,04,188,29*47
$GPRMC,084118.000,A,3018.4762,N,12004.6471,E,0.01,349.30,110806,,,A*66
$GPVTG,349.30,T,,M,0.01,N,0.02,K,A*33
$GPGGA,084119.000,3018.4763,N,12004.6469,E,1,11,0.74,33.0,M,7.0,M,,*6B
$GPGLL,3018.4763,N,12004.6469,E,084119.000,A,A*5A
$GPGSA,A,3,11,19,06,05,09,12,25,21,20,04,17,,1.34,0.74,1.12*00
$GPGSV,4,1,13,21,62,258,37,11,53,335,32,19,50,139,29,06,48,051,31*71
$GPGSV,4,2,13,05,32,245,38,09,31,057,27,12,30,271,44,17,24,141,29*76
$GPGSV,4,3,13,25,11,305,37,40,11,255,38,04,07,038,16,20,05,195,33*71
$GPGSV,4,4,13,13,04,188,29*47
$GPRMC,084119.000,A,3018.4763,N,12004.6469,E,0.02,14.22,110806,,,A*54
