8,,,,,1.14,0.69,0.92*10
$GPGSV,3,1,12,21,67,337,43,11,63,031,41,05,50,282,42,06,35,089,36*72
$GPGSV,3,2,12,19,21,153,32,12,17,241,37,40,12,255,34,09,11,039,18*78
$GPGSV,3,3,12,25,10,278,34,194,,,43,195,,,40,13,,,42*40
$BDGSV,4,1,13,27,80,089,40,10,67,240,,07,66,208,38,08,59,283,39*60
$BDGSV,4,2,13,03,54,199,41,13,51,269,41,01,47,137,42,28,37,127,42*69
$BDGSV,4,3,13,04,37,118,,30,36,318,40,02,36,234,33,05,15,253,32*6B
$BDGSV,4,4,13,20,06,222,*5C
$GNRMC,094635.000,A,3018.4264,N,12004.6623,E,0.02,186.67,270326,,,D*7E
$GNVTG,186.67,T,,M,0.02,N,0.03,K,D*29
$GNGGA,094636.000,3018.4264,N,12004.6623,E,2,18,0.69,19.8,M,7.0,M,,*76
$GNGLL,3018.4264,N,12004.6623,E,094636.000,A,D*44
$GPGSA,A,3,21,11,05,06,12,09,25,194,195,19,,,1.14,0.69,0.92*06
$BDGSA,A,3,30,01,08,27,07,03,13,28,,,,,1.14,0.69,0.92*10
$GPGSV,3,1,12,21,67,337,43,11,63,031,41,05,50,282,42,06,35,089,36*72
$GPGSV,3,2,12,19,21,153,32,12,17,241,37,40,12,255,34,09,11,039,18*78
$GPGSV,3,3,12,25,10,278,34,194,,,43,195,,,40,13,,,42*40
$BDGSV,4,1,13,27,80,089,40,10,67,240,,07,66,208,38,08,59,283,39*60
$BDGSV,4,2,13,03,54,199,41,13,51,269,41,01,47,137,42,28,37,127,42*69
$BDGSV,4,3,13,04,37,118,,30,36,318,40,02,36,234,33,05,15,253,32*6B
$BDGSV,4,4,13,20,06,222,*5C
$GNRMC,094636.000,A,3018.4264,N,12004.6623,E,0.02,186.67,270326,,,D*7D
$GNVTG,186.67,T,,M,0.02,N,0.04,K,D*2E
$GNGGA,094637.000,3018.4263,N,12004.6623,E,2,18,0.69,19.9,M,7.0,M,,*71
$GNGLL,3018.4263,N,12004.6623,E,094637.000,A,D*42
$GPGSA,A,3,21,11,05,06,12,09,25,194,195,19,,,1.14,0.69,0.92*06
$BDGSA,A,3,30,01,08,27,07,03,13,28,,,,,1.14,0.69,0.92*10
$GPGSV,3,1,12,21,67,337,43,11,63,031,41,05,50,282,42,06,35,089,36*72
$GPGSV,3,2,12,19,21,153,32,12,17,241,37,40,12,255,34,09,11,039,18*78
$GPGSV,3,3,12,25,10,278,34,194,,,43,195,,,40,13,,,42*40
$BDGSV,4,1,13,27,80,089,40,10,67,240,,07,66,208,38,08,59,283,39*60
$BDGSV,4,2,13,03,54,199,41,13,51,269,41,01,47,137,42,28,37,127,42*69
$BDGSV,4,3,13,30,37,318,40,04,37,118,,02,36,234,33,05,15,253,32*6A
$BDGSV,4,4,13,20,06,222,*5C
$GNRMC,094637.000,A,3018.4263,N,12004.6623,E,0.02,186.67,270326,,,D*7B
$GNVTG,186.67,T,,M,0.02,N,0.04,K,D*2E
$GNGGA,094638.000,3018.4263,N,12004.6623,E,2,18,0.69,20.0,M,7.0,M,,*7D
$GNGLL,3018.4263,N,12004.6623,E,094638.000,A,D*4D
$GPGSA,A,3,21,11,05,06,12,09,25,194,195,19,,,1.14,0.69,0.92*06
$BDGSA,A,3,30,01,08,27,07,03,13,28,,,,,1.14,0.69,0.92*10
$GPGSV,3,1,12,21,67,337,43,11,63,031,41,05,50,282,42,06,35,089,36*72
$GPGSV,3,2,12,19,21,153,31,12,17,241,37,40,12,255,34,09,11,039,18*7B
$GPGSV,3,3,12,25,10,278,34,194,,,43,195,,,40,13,,,42*40
$BDGSV,4,1,13,27,80,089,40,10,67,240,,07,66,208,38,08,59,283,39*60
$BDGSV,4,2,13,03,54,199,41,13,51,269,41,01,47,137,42,28,37,127,42*69
$BDGSV,4,3,13,30,37,318,40,04,37,118,,02,36,234,33,05,15,253,33*6B
$BDGSV,4,4,13,20,06,222,*5C
$GNRMC,094638.000,A,3018.4263,N,12004.6623,E,0.02,186.67,270326,,,D*74
$GNVTG,186.67,T,,M,0.02,N,0.04,K,D*2E
$GNGGA,094639.000,3018.4263,N,12004.6623,E,2,18,0.69,20.1,M,7.0,M,,*7D
$GNGLL,3018.4263,N,12004.6623,E,094639.000,A,D*4C
$GPGSA,A,3,21,11,05,06,12,09,25,194,195,19,,,1.14,0.69,0.92*06
$BDGSA,A,3,30,01,08,27,07,03,13,28,,,,,1.14,0.69,0.92*10
$GPGSV,3,1,12,21,67,337,43,11,63,031,41,05,50,282,42,06,35,089,36*72
$GPGSV,3,2,12,19,21,153,31,12,17,241,37,40,12,255,34,09,11,039,18*7B
$GPGSV,3,3,12,25,10,278,34,194,,,43,195,,,40,13,,,42*40
$BDGSV,4,1,13,27,80,089,40,10,67,240,,07,66,208,38,08,59,283,39*60
$BDGSV,4,2,13,03,54,199,41,13,51,269,41,01,47,137,42,28,37,127,42*69
$BDGSV,4,3,13,30,37,318,40,04,37,118,,02,36,234,33,05,15,253,33*6B
$BDGSV,4,4,13,20,06,222,*5C
$GNRMC,094639.000,A,3018.4263,N,12004.6623,E,0.02,186.67,270326,,,D*75
$GNVTG,186.67,T,,M,0.02,N,0.04,K,D*2E
$GNGGA,094640.000,3018.4263,N,12004.6623,E,2,18,0.69,20.1,M,7.0,M,,*73
$GNGLL,3018.4263,N,12004.6623,E,094640.000,A,D*42
$GPGSA,A,3,21,11,05,06,12,09,25,194,195,19,,,1.14,0.69,0.92*06
$BDGSA,A,3,30,01,08,27,07,03,13,28,,,,,1.14,0.69,0.92*10
$GPGSV,3,1,12,21,67,337,43,11,63,031,41,05,50,282,42,06,35,089,36*72
$GPGSV,3,2,12,19,21,153,31,12,17,241,37,40,12,255,34,09,11,039,18*7B
$GPGSV,3,3,12,25,10,278,34,194,,,43,195,,,40,13,,,42*40
$BDGSV,4,1,13,27,80,089,40,10,67,240,,07,66,208,38,08,59,283,39*60
$BDGSV,4,2,13,03,54,199,40,13,51,269,41,01,47,137,42,28,37,127,42*68
$BDGSV,4,3,13,30,37,318,40,04,37,118,,02,36,234,33,05,15,253,33*6B
$BDGSV,4,4,13,20,06,222,*5C
$GNRMC,094640.000,A,3018.4263,N,12004.6623,E,0.02,186.67,270326,,,D*7B
$GNVTG,186.67,T,,M,0.02,N,0.04,K,D*2E
$GNGGA,094641.000,3018.4262,N,12004.6623,E,2,18,0.69,20.2,M,7.0,M,,*70
$GNGLL,3018.4262,N,12004.6623,E,094641.000,A,D*42
$GPGSA,A,3,21,11,05,06,12,09,25,194,195,19,,,1.14,0.69,0.92*06
$BDGSA,A,3,30,01,08,27,07,03,13,28,,,,,1.14,0.69,0.92*10
$GPGSV,3,1,12,21,67,337,43,11,63,031,41,05,50,282,42,06,35,089,36*72
$GPGSV,3,2,12,19,21,153,31,12,17,241,37,40,12,255,34,09,11,039,19*7A
$GPGSV,3,3,12,25,10,278,33,194,,,43,195,,,40,13,,,42*47
$BDGSV,4,1,13,27,80,089,40,10,67,240,,07,66,208,38,08,59,283,39*60
$BDGSV,4,2,13,03,54,199,40,13,51,269,41,01,47,137,42,28,37,127,42*68
$BDGSV,4,3,13,30,37,318,40,04,37,118,,02,36,234,33,05,15,253,33*6B
$BDGSV,4,4,13,20,06,222,*5C
$GNRMC,094641.000,A,3018.4262,N,12004.6623,E,0.02,186.67,270326,,,D*7B
$GNVTG,186.67,T,,M,0.02,N,0.04,K,D*2E
$GNGGA,094642.000,3018.4262,N,12004.6623,E,2,18,0.69,20.2,M,7.0,M,,*73
$GNGLL,3018.4262,N,12004.6623,E,094642.000,A,D*41
$GPGSA,A,3,21,11,05,06,12,09,25,194,195,19,,,1.14,0.69,0.92*06
$BDGSA,A,3,30,01,08,27,07,03,13,28,,,,,1.14,0.69,0.92*10
$GPGSV,3,1,12,21,67,337,43,11,63,031,41,05,50,283,42,06,35,089,36*73
$GPGSV,3,2,12,19,21,153,31,12,17,241,37,40,12,255,34,09,11,039,19*7A
$GPGSV,3,3,12,25,10,278,33,194,,,43,195,,,40,13,,,42*47
$BDGSV,4,1,13,27,80,089,40,10,67,240,,07,66,208,38,08,59,283,39*60
$BDGSV,4,2,13,03,54,199,40,13,51,269,41,01,47,137,42,28,37,127,42*68
$BDGSV,4,3,13,30,37,318,40,04,37,118,,02,36,234,33,05,15,253,33*6B
$BDGSV,4,4,13,20,06,222,*5C
$GNRMC,094642.000,A,3018.4262,N,12004.6623,E,0.02,186.67,270326,,,D*78
$GNVTG,186.67,T,,M,0.02,N,0.04,K,D*2E
$GNGGA,094643.000,3018.4262,N,12004.6623,E,2,18,0.69,20.3,M,7.0,M,,*73
$GNGLL,3018.4262,N,12004.6623,E,094643.000,A,D*40
$GPGSA,A,3,21,11,05,06,12,09,25,194,195,19,,,1.14,0.69,0.92*06
$BDGSA,A,3,30,01,08,27,07,03,13,28,,,,,1.14,0.69,0.92*10
$GPGSV,3,1,12,21,67,337,43,11,63,031,41,05,50,283,42,06,35,089,36*73
$GPGSV,3,2,12,19,21,153,31,12,17,241,37,40,12,255,34,09,11,039,19*7A
$GPGSV,3,3,12,25,10,278,33,194,,,43,195,,,40,13,,,42*47
$BDGSV,4,1,13,27,80,089,40,10,67,240,,07,66,208,38,08,59,283,39*60
$BDGSV,4,2,13,03,54,199,40,13,51,269,41,01,47,137,42,28,37,127,42*68
$BDGSV,4,3,13,30,37,318,40,04,37,118,,02,36,234,33,05,15,253,33*6B
$BDGSV,4,4,13,20,06,222,*5C
$GNRMC,094643.000,A,3018.4262,N,12004.6623,E,0.02,186.67,270326,,,D*79
$GNVTG,186.67,T,,M,0.02,N,0.03,K,D*29
$GNGGA,094644.000,3018.4262,N,12004.6623,E,2,18,0.69,20.2,M,7.0,M,,*75
$GNGLL,3018.4262,N,12004.6623,E,094644.000,A,D*47
$GPGSA,A,3,21,11,05,06,12,09,25,194,195,19,,,1.14,0.69,0.92*06
$BDGSA,A,3,30,01,08,27,07,03,13,28,,,,,1.14,0.69,0.92*10
$GPGSV,3,1,12,21,67,337,43,11,63,031,41,05,50,283,42,06,35,090,36*7B
$GPGSV,3,2,12,19,21,153,31,12,17,241,37,40,12,255,34,09,11,039,19*7A
$GPGSV,3,3,12,25,10,278,33,194,,,43,195,,,40,13,,,42*47
$BDGSV,4,1,13,27,80,089,40,10,67,240,,07,66,208,38,08,59,283,39*60
$BDGSV,4,2,13,03,54,199,40,13,51,269,41,01,47,137,42,28,37,127,42*68
$BDGSV,4,3,13,30,37,318,40,04,37,118,,02,36,234,33,05,15,253,33*6B
$BDGSV,4,4,13,20,06,222,*5C
$GNRMC,094644.000,A,3018.4262,N,12004.6623,E,0.02,186.67,270326,,,D*7E
$GNVTG,186.67,T,,M,0.02,N,0.04,K,D*2E
$GNGGA,094645.000,3018.4262,N,12004.6623,E,2,18,0.69,20.3,M,7.0,M,,*75
$GNGLL,3018.4262,N,12004.6623,E,094645.000,A,D*46
$GPGSA,A,3,21,11,05,06,12,09,25,194,195,19,,,1.14,0.69,0.92*06
$BDGSA,A,3,30,01,08,27,07,03,13,28,,,,,1.14,0.69,0.92*10
$GPGSV,3,1,12,21,67,337,43,11,63,031,41,05,50,283,42,06,35,090,36*7B
$GPGSV,3,2,12,19,21,153,31,12,17,241,37,40,12,255,34,09,11,039,19*7A
$GPGSV,3,3,12,25,10,278,33,194,,,43,195,,,40,13,,,42*47
$BDGSV,4,1,13,27,80,089,40,10,67,240,,07,66,208,38,08,59,283,39*60
$BDGSV,4,2,13,03,54,199,40,13,51,269,41,01,47,137,42,28,37,127,42*68
$BDGSV,4,3,13,30,37,318,40,04,37,118,,02,36,234,33,05,15,253,33*6B
$BDGSV,4,4,13,20,06,222,*5C
$GNRMC,094645.000,A,3018.4262,N,12004.6623,E,0.01,186.67,270326,,,D*7C
$GNVTG,186.67,T,,M,0.01,N,0.02,K,D*2B
$GNGGA,094646.000,3018.4262,N,12004.6623,E,2,18,0.69,20.2,M,7.0,M,,*77
$GNGLL,3018.4262,N,12004.6623,E,094646.000,A,D*45
$GPGSA,A,3,21,11,05,06,12,09,25,194,195,19,,,1.14,0.69,0.92*06
$BDGSA,A,3,30,01,08,27,07,03,13,28,,,,,1.14,0.69,0.92*10
$GPGSV,3,1,12,21,67,337,43,11,63,031,41,05,50,283,42,06,35,090,36*7B
$GPGSV,3,2,12,19,21,153,31,12,17,241,37,40,12,255,34,09,11,039,20*70
$GPGSV,3,3,12,25,10,278,33,194,,,43,195,,,40,13,,,42*47
$BDGSV,4,1,13,27,80,089,40,10,67,240,,07,66,208,38,08,59,283,39*60
$BDGSV,4,2,13,03,54,199,40,13,51,269,41,01,47,137,42,28,37,127,42*68
$BDGSV,4,3,13,30,37,318,40,04,37,118,,02,36,234,33,05,15,253,32*6A
$BDGSV,4,4,13,20,06,222,*5C
$GNRMC,094646.000,A,3018.4262,N,12004.6623,E,0.02,186.67,270326,,,D*7C
$GNVTG,186.67,T,,M,0.02,N,0.04,K,D*2E
$GNGGA,094647.000,3018.4262,N,12004.6623,E,2,18,0.68,20.3,M,7.0,M,,*76
$GNGLL,3018.4262,N,12004.6623,E,094647.000,A,D*44
$GPGSA,A,3,21,11,05,06,12,09,25,194,195,19,,,1.14,0.68,0.92*07
$BDGSA,A,3,30,01,08,27,07,03,13,28,,,,,1.14,0.68,0.92*11
$GPGSV,3,1,12,21,67,337,43,11,63,031,41,05,50,283,42,06,35,090,36*7B
$GPGSV,3,2,12,19,21,153,31,12,17,241,37,40,12,255,34,09,11,039,20*70
$GPGSV,3,3,12,25,10,278,33,194,,,43,195,,,40,13,,,42*47
$BDGSV,4,1,13,27,80,089,40,10,67,240,,07,66,208,38,08,59,283,39*60
$BDGSV,4,2,13,03,54,199,40,13,51,269,41,01,47,137,42,28,37,127,42*68
$BDGSV,4,3,13,30,37,318,40,04,37,118,,02,36,234,32,05,15,253,32*6B
$BDGSV,4,4,13,20,06,222,*5C
$GNRMC,094647.000,A,3018.4262,N,12004.6623,E,0.01,186.67,270326,,,D*7E
$GNVTG,186.67,T,,M,0.01,N,0.03,K,D*2A
$GNGGA,094648.000,3018.4262,N,12004.6623,E,2,18,0.69,20.3,M,7.0,M,,*78
$GNGLL,3018.4262,N,12004.6623,E,094648.000,A,D*4B
$GPGSA,A,3,21,11,05,06,12,09,25,194,195,19,,,1.14,0.69,0.92*06
$BDGSA,A,3,30,01,08,27,07,03,13,28,,,,,1.14,0.69,0.92*10
$GPGSV,3,1,12,21,67,337,43,11,63,031,41,05,50,283,42,06,35,090,36*7B
$GPGSV,3,2,12,19,21,153,31,12,17,241,37,40,12,255,34,09,11,039,20*70
$GPGSV,3,3,12,25,10,278,33,194,,,43,195,,,40,13,,,42*47
$BDGSV,4,1,13,27,80,089,40,10,67,240,,07,66,208,38,08,59,283,39*60
$BDGSV,4,2,13,03,54,199,40,13,51,269,41,01,47,137,42,28,37,127,42*68
$BDGSV,4,3,13,30,37,318,40,04,37,118,,02,36,234,32,05,15,253,32*6B
$BDGSV,4,4,13,20,06,222,*5C
$GNRMC,094648.000,A,3018.4262,N,12004.6623,E,0.02,186.67,270326,,,D*72
$GNVTG,186.67,T,,M,0.02,N,0.03,K,D*29
$GNGGA,094649.000,3018.4262,N,12004.6623,E,2,18,0.69,20.2,M,7.0,M,,*78
$GNGLL,3018.4262,N,12004.6623,E,094649.000,A,D*4A
$GPGSA,A,3,21,11,05,06,12,09,25,194,195,19,,,1.14,0.69,0.92*06
$BDGSA,A,3,30,01,08,27,07,03,13,28,,,,,1.14,0.69,0.92*10
$GPGSV,3,1,12,21,67,337,43,11,63,031,41,05,50,283,42,06,35,090,36*7B
$GPGSV,3,2,12,19,21,153,31,12,17,241,37,40,12,255,34,09,11,039,20*70
$GPGSV,3,3,12,25,10,278,33,194,,,43,195,,,40,13,,,42*47
$BDGSV,4,1,13,27,80,089,40,10,67,240,,07,66,208,38,08,59,283,39*60
$BDGSV,4,2,13,03,54,199,40,13,51,269,41,01,47,137,42,28,37,127,42*68
$BDGSV,4,3,13,30,37,318,40,04,37,118,,02,36,234,32,05,15,253,32*6B
$BDGSV,4,4,13,20,06,222,*5C
$GNRMC,094649.000,A,3018.4262,N,12004.6623,E,0.01,186.67,270326,,,D*70
$GNVTG,186.67,T,,M,0.01,N,0.02,K,D*2B
$GNGGA,094650.000,3018.4262,N,12004.6623,E,2,18,0.69,20.2,M,7.0,M,,*70
$GNGLL,3018.4262,N,12004.6623,E,094650.000,A,D*42
$GPGSA,A,3,21,11,05,06,12,09,25,194,195,19,,,1.14,0.69,0.92*06
$BDGSA,A,3,30,01,08,27,07,03,13,28,,,,,1.14,0.69,0.92*10
$GPGSV,3,1,12,21,67,337,43,11,63,031,41,05,50,283,42,06,35,090,36*7B
$GPGSV,3,2,12,19,21,153,31,12,16,241,36,40,12,255,34,09,11,039,20*70
$GPGSV,3,3,12,25,10,278,33,194,,,43,195,,,40,13,,,42*47
$BDGSV,4,1,13,27,80,089,40,10,67,240,,07,66,208,38,08,59,283,39*60
$BDGSV,4,2,13,03,54,199,40,13,51,269,41,01,47,137,42,28,37,127,42*68
$BDGSV,4,3,13,30,37,318,40,04,37,118,,02,36,234,32,05,15,253,32*6B
$BDGSV,4,4,13,20,06,222,*5C
$GNRMC,094650.000,A,3018.4262,N,12004.6623,E,0.04,186.67,270326,,,D*7D
$GNVTG,186.67,T,,M,0.04,N,0.07,K,D*2B
$GNGGA,094651.000,3018.4262,N,12004.6623,E,2,18,0.69,20.2,M,7.0,M,,*71
$GNGLL,3018.4262,N,12004.6623,E,094651.000,A,D*43
$GPGSA,A,3,21,11,05,06,12,09,25,194,195,19,,,1.14,0.69,0.92*06
$BDGSA,A,3,30,01,08,27,07,03,13,28,,,,,1.14,0.69,0.92*10
$GPGSV,3,1,12,21,67,337,43,11,63,031,41,05,50,283,42,06,35,090,36*7B
$GPGSV,3,2,12,19,21,153,32,12,16,241,36,40,12,255,34,09,11,039,21*72
$GPGSV,3,3,12,25,10,278,34,194,,,43,195,,,40,13,,,42*40
$BDGSV,4,1,13,27,80,089,40,10,67,240,,07,66,208,38,08,59,283,39*60
$BDGSV,4,2,13,03,54,199,40,13,51,269,41,01,47,137,42,28,37,127,42*68
$BDGSV,4,3,13,30,37,318,40,04,37,118,,02,36,234,33,05,15,253,32*6A
$BDGSV,4,4,13,20,06,222,*5C
$GNRMC,094651.000,A,3018.4262,N,12004.6623,E,0.02,186.67,270326,,,D*7A
$GNVTG,186.67,T,,M,0.02,N,0.03,K,D*29
$GNGGA,094652.000,3018.4262,N,12004.6623,E,2,18,0.69,20.2,M,7.0,M,,*72
$GNGLL,3018.4262,N,12004.6623,E,094652.000,A,D*40
$GPGSA,A,3,21,11,05,06,12,09,25,194,195,19,,,1.14,0.69,0.92*06
$BDGSA,A,3,30,01,08,27,07,03,13,28,,,,,1.14,0.69,0.92*10
$GPGSV,3,1,12,21,67,337,43,11,63,031,41,05,50,283,42,06,35,090,36*7B
$GPGSV,3,2,12,19,21,153,32,12,16,241,35,40,12,255,34,09,11,039,21*71
$GPGSV,3,3,12,25,10,278,34,194,,,43,195,,,40,13,,,42*40
$BDGSV,4,1,13,27,80,089,40,10,67,240,,07,66,208,38,08,59,283,39*60
$BDGSV,4,2,13,03,54,199,40,13,51,269,41,01,47,137,42,28,37,127,42*68
$BDGSV,4,3,13,30,37,318,40,04,37,118,,02,36,234,33,05,15,253,32*6A
$BDGSV,4,4,13,20,06,222,*5C
$GNRMC,094652.000,A,3018.4262,N,12004.6623,E,0.01,186.67,270326,,,D*7A
$GNVTG,186.67,T,,M,0.01,N,0.02,K,D*2B
$GNGGA,094653.000,3018.4262,N,12004.6623,E,2,18,0.68,20.2,M,7.0,M,,*72
$GNGLL,3018.4262,N,12004.6623,E,094653.000,A,D*41
$GPGSA,A,3,21,11,05,06,12,09,25,194,195,19,,,1.14,0.68,0.92*07
$BDGSA,A,3,30,01,08,27,07,03,13,28,,,,,1.14,0.68,0.92*11
$GPGSV,3,1,12,21,67,337,43,11,63,031,42,05,50,283,42,06,35,090,36*78
$GPGSV,3,2,12,19,21,153,32,12,16,241,34,40,12,255,34,09,11,039,21*70
$GPGSV,3,3,12,25,10,278,34,194,,,43,195,,,40,13,,,42*40
$BDGSV,4,1,13,27,80,089,40,10,67,240,,07,66,208,38,08,59,283,39*60
$BDGSV,4,2,13,03,54,199,40,13,51,269,41,01,47,137,42,28,37,127,42*68
$BDGSV,4,3,13,30,37,318,40,04,37,118,,02,36,234,33,05,15,253,32*6A
$BDGSV,4,4,13,20,06,222,*5C
$GNRMC,094653.000,A,3018.4262,N,12004.6623,E,0.03,186.67,270326,,,D*79
$GNVTG,186.67,T,,M,0.03,N,0.06,K,D*2D
$GNGGA,094654.000,3018.4262,N,12004.6623,E,2,18,0.69,20.2,M,7.0,M,,*74
$GNGLL,3018.4262,N,12004.6623,E,094654.000,A,D*46
$GPGSA,A,3,21,11,05,06,12,09,25,194,195,19,,,1.14,0.69,0.92*06
$BDGSA,A,3,30,01,08,27,07,03,13,28,,,,,1.14,0.69,0.92*10
$GPGSV,3,1,12,21,67,337,43,11,63,031,42,05,50,283,42,06,35,090,36*78
$GPGSV,3,2,12,19,21,153,32,12,16,241,33,40,12,255,34,09,11,039,21*77
$GPGSV,3,3,12,25,10,278,33,194,,,43,195,,,40,13,,,42*47
$BDGSV,4,1,13,27,80,089,40,10,67,240,,07,66,208,38,08,59,283,39*60
$BDGSV,4,2,13,03,54,199,40,13,51,269,41,01,47,137,42,28,37,127,43*69
$BDGSV,4,3,13,30,37,318,40,04,37,118,,02,36,234,33,05,15,253,32*6A
$BDGSV,4,4,13,20,06,222,*5C
$GNRMC,094654.000,A,3018.4262,N,12004.6623,E,0.00,186.67,270326,,,D*7D
$GNVTG,186.67,T,,M,0.00,N,0.01,K,D*29
$GNGGA,094655.000,3018.4262,N,12004.6623,E,2,19,0.66,20.2,M,7.0,M,,*7B
$GNGLL,3018.4262,N,12004.6623,E,094655.000,A,D*47
$GPGSA,A,3,21,11,05,06,13,12,09,25,194,195,19,,1.13,0.66,0.91*0F
$BDGSA,A,3,30,01,08,27,07,03,13,28,,,,,1.13,0.66,0.91*1B
$GPGSV,3,1,12,21,67,337,43,11,63,031,42,05,50,283,42,06,35,090,36*78
$GPGSV,3,2,12,13,32,182,42,19,21,153,32,12,16,241,33,40,12,255,34*79
$GPGSV,3,3,12,09,11,039,21,25,10,278,32,194,,,43,195,,,40*72
$BDGSV,4,1,13,27,80,089,41,10,67,240,,07,66,208,38,08,59,283,39*61
$BDGSV,4,2,13,03,54,199,40,13,51,269,41,01,47,137,42,28,37,127,43*69
$BDGSV,4,3,13,30,37,318,40,04,37,118,,02,36,234,33,05,15,253,31*69
$BDGSV,4,4,13,20,06,222,*5C
$GNRMC,094655.000,A,3018.4262,N,12004.6623,E,0.02,186.67,270326,,,D*7E
$GNVTG,186.67,T,,M,0.02,N,0.04,K,D*2E
$GNGGA,094656.000,3018.4262,N,12004.6623,E,2,18,0.69,20.2,M,7.0,M,,*76
$GNGLL,3018.4262,N,12004.6623,E,094656.000,A,D*44
$GPGSA,A,3,21,11,05,06,13,12,09,25,194,195,19,,1.15,0.69,0.92*05
$BDGSA,A,3,01,08,27,07,03,13,28,,,,,,1.15,0.69,0.92*12
$GPGSV,3,1,12,21,67,337,43,11,63,031,42,05,50,283,42,06,35,090,36*78
$GPGSV,3,2,12,13,32,182,42,19,21,153,32,12,16,241,34,40,12,255,35*7F
$GPGSV,3,3,12,09,11,039,21,25,10,278,33,194,,,43,195,,,40*73
$BDGSV,4,1,13,27,80,089,41,10,67,240,,07,66,208,38,08,59,283,39*61
$BDGSV,4,2,13,03,54,199,40,13,51,269,41,01,47,137,42,28,37,127,43*69
$BDGSV,4,3,13,30,37,318,,04,37,118,,02,36,234,33,05,15,253,31*6D
$BDGSV,4,4,13,20,06,222,*5C
$GNRMC,094656.000,A,3018.4262,N,12004.6623,E,0.03,186.67,270326,,,D*7C
$GNVTG,186.67,T,,M,0.03,N,0.05,K,D*2E
$GNGGA,094657.000,3018.4262,N,12004.6623,E,2,18,0.69,20.2,M,7.0,M,,*77
$GNGLL,3018.4262,N,12004.6623,E,094657.000,A,D*45
$GPGSA,A,3,21,11,05,06,13,12,09,25,194,195,19,,1.15,0.69,0.92*05
$BDGSA,A,3,01,08,27,07,03,13,28,,,,,,1.15,0.69,0.92*12
$GPGSV,3,1,12,21,67,337,43,11,63,031,42,05,50,283,42,06,35,090,36*78
$GPGSV,3,2,12,13,32,182,42,19,21,153,32,12,16,241,35,40,12,255,35*7E
$GPGSV,3,3,12,09,11,039,21,25,10,278,33,194,,,43,195,,,40*73
$BDGSV,4,1,13,27,80,089,41,10,67,240,,07,66,208,38,08,59,283,39*61
$BDGSV,4,2,13,03,54,199,40,13,51,269,41,01,47,137,42,28,37,127,43*69
$BDGSV,4,3,13,30,37,318,,04,37,118,,02,36,234,32,05,15,253,30*6D
$BDGSV,4,4,13,20,06,222,*5C
$GNRMC,094657.000,A,3018.4262,N,12004.6623,E,0.02,186.67,270326,,,D*7C
$GNVTG,186.67,T,,M,0.02,N,0.04,K,D*2E
$GNGGA,094658.000,3018.4262,N,12004.6623,E,2,18,0.69,20.2,M,7.0,M,,*78
$GNGLL,3018.4262,N,12004.6623,E,094658.000,A,D*4A
$GPGSA,A,3,21,11,05,06,13,12,09,25,194,195,19,,1.15,0.69,0.92*05
$BDGSA,A,3,01,08,27,07,03,13,28,,,,,,1.15,0.69,0.92*12
$GPGSV,3,1,12,21,67,337,43,11,63,031,42,05,50,283,42,06,35,090,36*78
$GPGSV,3,2,12,13,32,182,42,19,20,154,32,12,16,241,34,40,12,255,35*79
$GPGSV,3,3,12,09,11,039,20,25,10,278,33,194,,,43,195,,,40*72
$BDGSV,4,1,13,27,80,089,41,10,67,240,,07,66,208,38,08,59,283,39*61
$BDGSV,4,2,13,03,54,199,40,13,51,269,41,01,47,137,42,28,37,127,43*69
$BDGSV,4,3,13,30,37,318,,04,37,118,,02,36,234,32,05,15,253,30*6D
$BDGSV,4,4,13,20,06,222,*5C
$GNRMC,094658.000,A,3018.4262,N,12004.6623,E,0.01,186.67,270326,,,D*70
$GNVTG,186.67,T,,M,0.01,N,0.01,K,D*28
$GNGGA,094659.000,3018.4262,N,12004.6623,E,2,18,0.69,20.2,M,7.0,M,,*79
$GNGLL,3018.4262,N,12004.6623,E,094659.000,A,D*4B
$GPGSA,A,3,21,11,05,06,13,12,09,25,194,195,19,,1.15,0.69,0.92*05
$BDGSA,A,3,01,08,27,07,03,13,28,,,,,,1.15,0.69,0.92*12
$GPGSV,3,1,12,21,67,337,43,11,63,031,43,05,50,283,42,06,35,090,36*79
$GPGSV,3,2,12,13,32,182,42,19,20,154,32,12,16,241,34,40,12,255,34*78
$GPGSV,3,3,12,09,11,039,20,25,10,278,33,194,,,43,195,,,40*72
$BDGSV,4,1,13,27,80,089,41,10,67,240,,07,66,208,38,08,59,283,38*60
$BDGSV,4,2,13,03,54,199,40,13,51,269,41,01,47,137,42,28,37,127,43*69
$BDGSV,4,3,13,30,37,318,,04,37,118,,02,36,234,32,05,15,253,30*6D
$BDGSV,4,4,13,20,06,222,*5C
$GNRMC,094659.000,A,3018.4262,N,12004.6623,E,0.02,186.67,270326,,,D*72
$GNVTG,186.67,T,,M,0.02,N,0.03,K,D*29
$GNGGA,094700.000,3018.4262,N,12004.6623,E,2,19,0.66,20.2,M,7.0,M,,*7A
$GNGLL,3018.4262,N,12004.6623,E,094700.000,A,D*46
$GPGSA,A,3,21,11,05,06,13,12,09,25,194,195,19,,1.13,0.66,0.91*0F
$BDGSA,A,3,01,08,30,27,07,03,13,28,,,,,1.13,0.66,0.91*1B
$GPGSV,3,1,12,21,66,338,43,11,63,031,43,05,50,283,42,06,35,090,36*77
$GPGSV,3,2,12,13,32,182,42,19,20,154,33,12,16,241,33,40,12,255,34*7E
$GPGSV,3,3,12,09,11,039,20,25,10,278,31,194,,,43,195,,,40*70
$BDGSV,4,1,13,27,80,089,41,10,67,240,,07,66,208,38,08,59,283,38*60
$BDGSV,4,2,13,03,54,199,40,13,51,269,41,01,47,137,42,28,37,127,43*69
$BDGSV,4,3,13,30,37,318,40,04,37,118,,02,36,234,31,05,15,253,30*6A
$BDGSV,4,4,13,20,06,222,*5C
$GNRMC,094700.000,A,3018.4262,N,12004.6623,E,0.02,186.67,270326,,,D*7F
$GNVTG,186.67,T,,M,0.02,N,0.04,K,D*2E
$GNGGA,094701.000,3018.4262,N,12004.6623,E,2,19,0.66,20.2,M,7.0,M,,*7B
$GNGLL,3018.4262,N,12004.6623,E,094701.000,A,D*47
$GPGSA,A,3,21,11,05,06,13,12,09,25,194,195,19,,1.13,0.66,0.91*0F
$BDGSA,A,3,01,08,30,27,07,03,13,28,,,,,1.13,0.66,0.91*1B
$GPGSV,3,1,12,21,66,338,43,11,63,031,43,05,50,283,42,06,35,090,36*77
$GPGSV,3,2,12,13,32,182,42,19,20,154,33,12,16,241,33,40,12,255,34*7E
$GPGSV,3,3,12,09,11,039,20,25,10,278,31,194,,,43,195,,,40*70
$BDGSV,4,1,13,27,80,089,41,10,67,240,,07,66,208,38,08,59,283,38*60
$BDGSV,4,2,13,03,54,199,40,13,51,269,41,01,47,137,42,28,37,127,43*69
$BDGSV,4,3,13,30,37,318,41,04,37,118,,02,36,234,31,05,15,253,30*6B
$BDGSV,4,4,13,20,06,222,*5C
$GNRMC,094701.000,A,3018.4262,N,12004.6623,E,0.01,186.67,270326,,,D*7D
$GNVTG,186.67,T,,M,0.01,N,0.01,K,D*28
$GNGGA,094702.000,3018.4262,N,12004.6623,E,2,19,0.66,20.2,M,7.0,M,,*78
$GNGLL,3018.4262,N,12004.6623,E,094702.000,A,D*44
$GPGSA,A,3,21,11,05,06,13,12,09,25,194,195,19,,1.13,0.66,0.91*0F
$BDGSA,A,3,01,08,30,27,07,03,13,28,,,,,1.13,0.66,0.91*1B
$GPGSV,3,1,12,21,66,338,43,11,63,031,43,05,50,283,42,06,35,090,36*77
$GPGSV,3,2,12,13,32,182,42,19,20,154,33,12,16,241,33,40,12,255,34*7E
$GPGSV,3,3,12,09,11,039,19,25,10,278,31,194,,,43,195,,,40*7A
$BDGSV,4,1,13,27,80,089,41,10,67,240,,07,66,208,38,08,59,283,38*60
$BDGSV,4,2,13,03,54,199,40,13,51,269,41,01,47,137,42,28,37,127,43*69
$BDGSV,4,3,13,30,37,318,40,04,37,118,,02,36,234,32,05,15,253,30*69
$BDGSV,4,4,13,20,06,222,*5C
$GNRMC,094702.000,A,3018.4262,N,12004.6623,E,0.01,186.67,270326,,,D*7E
$GNVTG,186.67,T,,M,0.01,N,0.02,K,D*2B
$GNGGA,094703.000,3018.4262,N,12004.6623,E,2,19,0.66,20.1,M,7.0,M,,*7A
$GNGLL,3018.4262,N,12004.6623,E,094703.000,A,D*45
$GPGSA,A,3,21,11,05,06,13,12,09,25,194,195,19,,1.13,0.66,0.91*0F
$BDGSA,A,3,01,08,30,27,07,03,13,28,,,,,1.13,0.66,0.91*1B
$GPGSV,3,1,12,21,66,338,43,11,63,031,43,05,50,283,42,06,35,090,36*77
$GPGSV,3,2,12,13,32,182,42,19,20,154,33,12,16,241,33,40,12,255,34*7E
$GPGSV,3,3,12,09,11,039,19,25,10,278,31,194,,,43,195,,,40*7A
$BDGSV,4,1,13,27,80,089,41,10,67,240,,07,66,208,38,08,59,283,38*60
$BDGSV,4,2,13,03,54,199,40,13,51,269,41,01,47,137,42,28,37,127,44*6E
$BDGSV,4,3,13,30,37,318,41,04,37,118,,02,36,234,32,05,15,253,30*68
$BDGSV,4,4,13,20,06,222,*5C
$GNRMC,094703.000,A,3018.4262,N,12004.6623,E,0.01,186.67,270326,,,D*7F
$GNVTG,186.67,T,,M,0.01,N,0.02,K,D*2B
$GNGGA,094704.000,3018.4262,N,12004.6623,E,2,19,0.66,20.1,M,7.0,M,,*7D
$GNGLL,3018.4262,N,12004.6623,E,094704.000,A,D*42
$GPGSA,A,3,21,11,05,06,13,12,09,25,194,195,19,,1.13,0.66,0.91*0F
$BDGSA,A,3,01,08,30,27,07,03,13,28,,,,,1.13,0.66,0.91*1B
$GPGSV,3,1,12,21,66,338,43,11,63,031,43,05,50,283,42,06,35,090,36*77
$GPGSV,3,2,12,13,32,182,42,19,20,154,33,12,16,241,33,40,12,255,34*7E
$GPGSV,3,3,12,09,11,039,19,25,10,277,30,194,,,43,195,,,40*74
$BDGSV,4,1,13,27,80,089,41,10,67,240,,07,66,208,38,08,59,283,38*60
$BDGSV,4,2,13,03,54,199,40,13,51,269,41,01,47,137,42,28,37,127,44*6E
$BDGSV,4,3,13,30,37,318,41,04,37,118,,02,36,234,32,05,15,253,31*69
$BDGSV,4,4,13,20,06,222,*5C
$GNRMC,094704.000,A,3018.4262,N,12004.6623,E,0.00,186.67,270326,,,D*79
$GNVTG,186.67,T,,M,0.00,N,0.00,K,D*28
$GNGGA,094705.000,3018.4262,N,12004.6623,E,2,19,0.66,20.1,M,7.0,M,,*7C
$GNGLL,3018.4262,N,12004.6623,E,094705.000,A,D*43
$GPGSA,A,3,21,11,05,06,13,12,09,25,194,195,19,,0.94,0.66,0.67*08
$BDGSA,A,3,01,08,30,27,07,03,13,28,,,,,0.94,0.66,0.67*1C
$GPGSV,4,1,13,21,66,338,43,11,63,031,43,05,50,283,42,06,35,090,36*71
$GPGSV,4,2,13,13,32,182,42,19,20,154,33,12,16,241,33,40,12,255,34*78
$GPGSV,4,3,13,09,11,039,18,25,10,277,30,194,,,43,195,,,40*73
$GPGSV,4,4,13,15,,,37*7B
$BDGSV,4,1,13,27,80,089,41,10,67,240,,07,66,208,38,08,59,283,38*60
$BDGSV,4,2,13,03,54,199,40,13,51,269,41,01,47,137,42,28,37,127,44*6E
$BDGSV,4,3,13,30,37,318,41,04,37,118,,02,36,234,33,05,15,253,31*68
$BDGSV,4,4,13,20,06,222,*5C
$GNRMC,094705.000,A,3018.4262,N,12004.6623,E,0.01,186.67,270326,,,D*79
$GNVTG,186.67,T,,M,0.01,N,0.01,K,D*28
$GNGGA,094706.000,3018.4262,N,12004.6623,E,2,19,0.66,20.1,M,7.0,M,,*7F
$GNGLL,3018.4262,N,12004.6623,E,094706.000,A,D*40
$GPGSA,A,3,21,11,05,06,13,12,09,25,194,195,19,,1.13,0.66,0.91*0F
$BDGSA,A,3,01,08,30,27,07,03,13,28,,,,,1.13,0.66,0.91*1B
$GPGSV,4,1,13,21,66,338,43,11,63,031,43,05,50,283,42,06,35,090,36*71
$GPGSV,4,2,13,13,32,182,43,19,20,154,33,12,16,241,33,40,12,255,34*79
$GPGSV,4,3,13,09,11,039,18,25,10,277,30,194,,,42,195,,,40*72
$GPGSV,4,4,13,15,,,34*78
$BDGSV,4,1,13,27,80,089,41,10,67,240,,07,66,208,38,08,59,283,38*60
$BDGSV,4,2,13,03,54,199,40,13,51,269,41,01,47,137,42,28,37,127,44*6E
$BDGSV,4,3,13,30,37,318,41,04,37,118,,02,36,234,32,05,15,253,31*69
$BDGSV,4,4,13,20,06,222,*5C
$GNRMC,094706.000,A,3018.4262,N,12004.6623,E,0.01,186.67,270326,,,D*7A
$GNVTG,186.67,T,,M,0.01,N,0.02,K,D*2B
$GNGGA,094707.000,3018.4262,N,12004.6623,E,2,19,0.66,20.1,M,7.0,M,,*7E
$GNGLL,3018.4262,N,12004.6623,E,094707.000,A,D*41
$GPGSA,A,3,21,11,05,06,13,12,09,25,194,195,19,,1.13,0.66,0.91*0F
$BDGSA,A,3,01,08,30,27,07,03,13,28,,,,,1.13,0.66,0.91*1B
$GPGSV,4,1,13,21,66,338,43,11,63,031,43,05,50,283,42,06,35,090,36*71
$GPGSV,4,2,13,13,32,182,43,19,20,154,34,12,16,241,33,40,12,255,34*7E
$GPGSV,4,3,13,09,11,039,17,25,10,277,31,194,,,42,195,,,40*7C
$GPGSV,4,4,13,15,,,35*79
$BDGSV,4,1,13,27,80,089,41,10,67,240,,07,66,208,38,08,59,283,38*60
$BDGSV,4,2,13,03,54,199,40,13,51,269,41,01,47,137,42,28,37,127,44*6E
$BDGSV,4,3,13,30,37,318,41,04,37,118,,02,36,234,32,05,15,253,31*69
$BDGSV,4,4,13,20,06,222,*5C
$GNRMC,094707.000,A,3018.4262,N,12004.6623,E,0.01,186.67,270326,,,D*7B
$GNVTG,186.67,T,,M,0.01,N,0.02,K,D*2B
$GNGGA,094708.000,3018.4262,N,12004.6623,E,2,19,0.66,20.1,M,7.0,M,,*71
$GNGLL,3018.4262,N,12004.6623,E,094708.000,A,D*4E
$GPGSA,A,3,21,11,05,06,13,12,09,25,194,195,19,,1.13,0.66,0.91*0F
$BDGSA,A,3,01,08,30,27,07,03,13,28,,,,,1.13,0.66,0.91*1B
$GPGSV,4,1,13,21,66,338,43,11,63,031,43,05,50,283,42,06,35,090,36*71
$GPGSV,4,2,13,13,32,182,43,19,20,154,34,12,16,241,32,40,12,255,34*7F
$GPGSV,4,3,13,09,11,039,17,25,10,277,32,194,,,42,195,,,40*7F
$GPGSV,4,4,13,15,,,39*75
$BDGSV,4,1,13,27,80,089,40,10,67,240,,07,66,208,38,08,59,283,38*61
$BDGSV,4,2,13,03,54,199,40,13,51,269,41,01,47,137,42,28,37,127,44*6E
$BDGSV,4,3,13,30,37,318,41,04,37,118,,02,36,234,33,05,15,253,32*6B
$BDGSV,4,4,13,20,06,222,*5C
$GNRMC,094708.000,A,3018.4262,N,12004.6623,E,0.00,186.67,270326,,,D*75
$GNVTG,186.67,T,,M,0.00,N,0.01,K,D*29
$GNGGA,094709.000,3018.4262,N,12004.6623,E,2,19,0.66,20.1,M,7.0,M,,*70
$GNGLL,3018.4262,N,12004.6623,E,094709.000,A,D*4F
$GPGSA,A,3,21,11,05,06,13,09,25,194,195,19,12,,1.13,0.66,0.91*0F
$BDGSA,A,3,01,08,30,27,07,03,13,28,,,,,1.13,0.66,0.91*1B
$GPGSV,4,1,13,21,66,338,43,11,63,031,43,05,50,283,42,06,35,090,36*71
$GPGSV,4,2,13,13,32,182,43,19,20,154,34,12,16,241,31,40,12,255,34*7C
$GPGSV,4,3,13,09,11,039,17,25,10,277,32,194,,,42,195,,,41*7E
$GPGSV,4,4,13,15,,,39*75
$BDGSV,4,1,13,27,80,089,40,10,67,240,,07,66,208,38,08,59,283,38*61
$BDGSV,4,2,13,03,54,199,40,13,51,269,41,01,47,137,42,28,37,127,44*6E
$BDGSV,4,3,13,30,37,318,41,04,37,118,,02,36,234,33,05,15,253,32*6B
$BDGSV,4,4,13,20,06,222,*5C
$GNRMC,094709.000,A,3018.4262,N,12004.6623,E,0.02,186.67,270326,,,D*76
$GNVTG,186.67,T,,M,0.02,N,0.03,K,D*29
$GNGGA,094710.000,3018.4262,N,12004.6623,E,2,19,0.66,20.1,M,7.0,M,,*78
$GNGLL,3018.4262,N,12004.6623,E,094710.000,A,D*47
$GPGSA,A,3,21,11,05,06,13,09,25,194,195,19,12,,1.13,0.66,0.91*0F
$BDGSA,A,3,01,08,30,27,07,03,13,28,,,,,1.13,0.66,0.91*1B
$GPGSV,4,1,13,21,66,338,43,11,63,031,43,05,50,283,42,06,35,090,36*71
$GPGSV,4,2,13,13,32,182,43,19,20,154,34,12,16,241,32,40,12,255,34*7F
$GPGSV,4,3,13,09,11,039,17,25,10,277,33,194,,,42,195,,,41*7F
$GPGSV,4,4,13,15,,,39*75
$BDGSV,4,1,13,27,80,089,40,10,67,240,,07,66,208,38,08,59,283,38*61
$BDGSV,4,2,13,03,54,199,40,13,51,269,41,01,47,137,42,28,37,127,44*6E
$BDGSV,4,3,13,30,37,318,41,04,37,118,,02,36,234,32,05,15,253,32*6A
$BDGSV,4,4,13,20,06,222,*5C
$GNRMC,094710.000,A,3018.4262,N,12004.6623,E,0.02,186.67,270326,,,D*7E
$GNVTG,186.67,T,,M,0.02,N,0.03,K,D*29
$GNGGA,094711.000,3018.4262,N,12004.6623,E,2,19,0.66,20.1,M,7.0,M,,*79
$GNGLL,3018.4262,N,12004.6623,E,094711.000,A,D*46
$GPGSA,A,3,21,11,05,06,13,09,25,194,195,19,12,,1.13,0.66,0.91*0F
$BDGSA,A,3,01,08,30,27,07,03,13,28,,,,,1.13,0.66,0.91*1B
$GPGSV,4,1,13,21,66,338,42,11,63,031,43,05,50,283,42,06,35,090,36*70
$GPGSV,4,2,13,13,32,182,43,19,20,154,34,12,16,241,34,40,12,255,34*79
$GPGSV,4,3,13,09,11,039,16,25,10,277,32,194,,,42,195,,,41*7F
$GPGSV,4,4,13,15,,,38*74
$BDGSV,4,1,13,27,80,089,40,10,67,240,,07,66,208,38,08,59,283,38*61
$BDGSV,4,2,13,03,54,199,40,13,51,269,41,01,47,137,42,28,37,127,44*6E
$BDGSV,4,3,13,30,37,318,41,04,37,118,,02,36,234,33,05,15,253,32*6B
$BDGSV,4,4,13,20,06,222,*5C
$GNRMC,094711.000,A,3018.4262,N,12004.6623,E,0.01,186.67,270326,,,D*7C
$GNVTG,186.67,T,,M,0.01,N,0.02,K,D*2B
$GNGGA,094712.000,3018.4262,N,12004.6623,E,2,19,0.66,20.1,M,7.0,M,,*7A
$GNGLL,3018.4262,N,12004.6623,E,094712.000,A,D*45
$GPGSA,A,3,21,11,05,06,13,09,25,194,195,19,12,,1.13,0.66,0.91*0F
$BDGSA,A,3,01,08,30,27,07,03,13,28,,,,,1.13,0.66,0.91*1B
$GPGSV,4,1,13,21,66,338,42,11,63,031,43,05,50,283,43,06,35,090,36*71
$GPGSV,4,2,13,13,32,182,43,19,20,154,34,12,16,241,34,40,12,255,34*79
$GPGSV,4,3,13,09,11,039,16,25,10,277,32,194,,,42,195,,,41*7F
$GPGSV,4,4,13,15,,,38*74
$BDGSV,4,1,13,27,80,089,40,10,67,240,,07,66,208,38,08,59,283,38*61
$BDGSV,4,2,13,03,54,199,40,13,51,269,41,01,47,137,42,28,37,127,44*6E
$BDGSV,4,3,13,30,37,318,41,04,37,118,,02,36,234,33,05,15,253,32*6B
$BDGSV,4,4,13,20,06,222,*5C
$GNRMC,094712.000,A,3018.4262,N,12004.6623,E,0.01,186.67,270326,,,D*7F
$GNVTG,186.67,T,,M,0.01,N,0.02,K,D*2B
$GNGGA,094713.000,3018.4262,N,12004.6623,E,2,19,0.66,20.0,M,7.0,M,,*7A
$GNGLL,3018.4262,N,12004.6623,E,094713.000,A,D*44
$GPGSA,A,3,21,11,05,06,13,09,25,194,195,19,12,,1.13,0.66,0.91*0F
$BDGSA,A,3,01,08,30,27,07,03,13,28,,,,,1.13,0.66,0.91*1B
$GPGSV,4,1,13,21,66,338,42,11,63,031,43,05,50,283,43,06,35,090,36*71
$GPGSV,4,2,13,13,32,182,43,194,26,172,42,19,20,154,34,12,16,241,35*40
$GPGSV,4,3,13,40,12,255,34,09,11,039,16,25,10,277,32,195,,,41*77
$GPGSV,4,4,13,15,,,37*7B
$BDGSV,4,1,13,27,80,089,40,10,67,240,,07,66,208,38,08,59,283,38*61
$BDGSV,4,2,13,03,54,199,40,13,51,269,41,01,47,137,42,28,37,127,44*6E
$BDGSV,4,3,13,30,37,318,41,04,37,118,,02,36,234,32,05,15,253,32*6A
$BDGSV,4,4,13,20,06,222,*5C
$GNRMC,094713.000,A,3018.4262,N,12004.6623,E,0.01,186.67,270326,,,D*7E
$GNVTG,186.67,T,,M,0.01,N,0.02,K,D*2B
$GNGGA,094714.000,3018.4262,N,12004.6623,E,2,19,0.66,20.0,M,7.0,M,,*7D
$GNGLL,3018.4262,N,12004.6623,E,094714.000,A,D*43
$GPGSA,A,3,21,11,05,06,13,09,25,194,195,19,12,,1.13,0.66,0.91*0F
$BDGSA,A,3,01,08,30,27,07,03,13,28,,,,,1.13,0.66,0.91*1B
$GPGSV,4,1,13,195,67,077,41,21,66,338,42,11,63,031,43,05,50,283,43*44
$GPGSV,4,2,13,06,35,090,36,13,32,182,43,194,26,172,42,19,20,154,34*49
$GPGSV,4,3,13,12,16,241,35,40,12,255,34,09,11,039,16,25,10,277,32*7A
$GPGSV,4,4,13,15,,,37*7B
$BDGSV,4,1,13,27,80,089,40,10,67,240,,07,66,208,38,08,59,283,38*61
$BDGSV,4,2,13,03,54,199,41,13,51,269,41,01,47,137,42,28,37,127,44*6F
$BDGSV,4,3,13,30,37,318,41,04,37,118,,02,36,234,33,05,15,253,32*6B
$BDGSV,4,4,13,20,06,222,*5C
$GNRMC,094714.000,A,3018.4262,N,12004.6623,E,0.01,186.67,270326,,,D*79
$GNVTG,186.67,T,,M,0.01,N,0.02,K,D*2B
$GNGGA,094715.000,3018.4262,N,12004.6623,E,2,19,0.66,20.0,M,7.0,M,,*7C
$GNGLL,3018.4262,N,12004.6623,E,094715.000,A,D*42
$GPGSA,A,3,21,11,05,06,13,09,25,194,195,19,12,,1.13,0.66,0.91*0F
$BDGSA,A,3,01,08,30,27,07,03,13,28,,,,,1.13,0.66,0.91*1B
$GPGSV,4,1,13,195,67,077,41,21,66,338,42,11,63,031,43,05,50,283,43*44
$GPGSV,4,2,13,06,35,090,36,13,32,182,43,194,26,172,42,19,20,154,34*49
$GPGSV,4,3,13,12,16,241,35,40,12,255,34,09,11,039,16,25,10,277,32*7A
$GPGSV,4,4,13,15,,,37*7B
$BDGSV,4,1,13,27,80,089,40,10,67,240,,07,66,208,38,08,59,283,38*61
$BDGSV,4,2,13,03,54,199,41,13,51,269,41,01,47,137,42,28,37,127,44*6F
$BDGSV,4,3,13,30,37,318,41,04,37,118,,02,36,234,33,05,15,253,32*6B
$BDGSV,4,4,13,20,06,222,*5C
$GNRMC,094715.000,A,3018.4262,N,12004.6623,E,0.01,186.67,270326,,,D*78
$GNVTG,186.67,T,,M,0.01,N,0.01,K,D*28
$GNGGA,094716.000,3018.4262,N,12004.6623,E,2,18,0.83,20.0,M,7.0,M,,*75
$GNGLL,3018.4262,N,12004.6623,E,094716.000,A,D*41
$GPGSA,A,3,21,11,05,06,13,25,194,195,19,12,,,1.44,0.83,1.17*00
$BDGSA,A,3,01,08,30,27,07,03,13,28,,,,,1.44,0.83,1.17*1D
$GPGSV,4,1,13,195,67,077,41,21,66,338,42,11,63,031,43,05,50,283,43*44
$GPGSV,4,2,13,06,35,090,36,13,32,182,43,194,26,172,42,19,20,154,34*49
$GPGSV,4,3,13,12,16,241,35,40,12,255,34,09,11,039,16,25,10,277,32*7A
$GPGSV,4,4,13,15,,,37*7B
$BDGSV,4,1,13,27,80,089,40,10,67,240,,07,66,208,38,08,59,283,38*61
$BDGSV,4,2,13,03,54,199,41,13,51,269,41,01,47,137,42,28,37,127,44*6F
$BDGSV,4,3,13,30,37,318,41,04,37,118,,02,36,234,32,05,15,253,32*6A
$BDGSV,4,4,13,20,06,222,*5C
$GNRMC,094716.000,A,3018.4262,N,12004.6623,E,0.00,186.67,270326,,,D*7A
$GNVTG,186.67,T,,M,0.00,N,0.01,K,D*29
$GNGGA,094717.000,3018.4262,N,12004.6623,E,2,18,0.83,19.9,M,7.0,M,,*77
$GNGLL,3018.4262,N,12004.6623,E,094717.000,A,D*40
$GPGSA,A,3,21,11,05,06,13,25,194,195,19,12,,,1.44,0.83,1.17*00
$BDGSA,A,3,01,08,30,27,07,03,13,28,,,,,1.44,0.83,1.17*1D
$GPGSV,4,1,13,195,67,077,41,21,66,338,42,11,63,031,43,05,50,283,43*44
$GPGSV,4,2,13,06,35,090,36,13,32,182,43,194,26,172,42,19,20,154,34*49
$GPGSV,4,3,13,12,16,241,36,40,12,255,34,09,11,039,15,25,10,277,32*7A
$GPGSV,4,4,13,15,,,37*7B
$BDGSV,4,1,13,27,80,089,40,10,67,240,,07,66,208,38,08,59,283,38*61
$BDGSV,4,2,13,03,54,199,41,13,51,269,41,01,47,137,42,28,37,127,44*6F
$BDGSV,4,3,13,30,37,318,41,04,37,118,,02,36,234,32,05,15,253,32*6A
$BDGSV,4,4,13,20,06,222,*5C
$GNRMC,094717.000,A,3018.4262,N,12004.6623,E,0.00,186.67,270326,,,D*7B
$GNVTG,186.67,T,,M,0.00,N,0.01,K,D*29
$GNGGA,094718.000,3018.4262,N,12004.6623,E,2,18,0.83,19.9,M,7.0,M,,*78
$GNGLL,3018.4262,N,12004.6623,E,094718.000,A,D*4F
$GPGSA,A,3,21,11,05,06,13,25,194,195,19,12,,,1.44,0.83,1.17*00
$BDGSA,A,3,01,08,30,27,07,03,13,28,,,,,1.44,0.83,1.17*1D
$GPGSV,4,1,13,195,67,077,41,21,66,338,42,11,63,031,43,05,50,283,43*44
$GPGSV,4,2,13,06,35,090,36,13,32,182,43,194,26,172,42,19,20,154,34*49
$GPGSV,4,3,13,12,16,241,36,40,12,255,34,09,11,039,15,25,10,277,32*7A
$GPGSV,4,4,13,15,,,37*7B
$BDGSV,4,1,13,27,80,089,40,10,67,240,,07,66,208,38,08,59,283,38*61
$BDGSV,4,2,13,03,54,199,41,13,51,269,41,01,47,137,42,28,37,127,44*6F
$BDGSV,4,3,13,30,37,318,41,04,37,118,,02,36,234,32,05,15,253,32*6A
$BDGSV,4,4,13,20,06,222,*5C
$GNRMC,094718.000,A,3018.4262,N,12004.6623,E,0.00,186.67,270326,,,D*74
$GNVTG,186.67,T,,M,0.00,N,0.00,K,D*28
$GNGGA,094719.000,3018.4262,N,12004.6623,E,2,18,0.83,19.9,M,7.0,M,,*79
$GNGLL,3018.4262,N,12004.6623,E,094719.000,A,D*4E
$GPGSA,A,3,21,11,05,06,13,25,194,195,19,12,,,1.44,0.83,1.17*00
$BDGSA,A,3,01,08,30,27,07,03,13,28,,,,,1.44,0.83,1.17*1D
$GPGSV,4,1,13,195,67,077,41,21,66,338,42,11,63,031,43,05,50,283,43*44
$GPGSV,4,2,13,06,35,090,36,13,32,182,43,194,26,172,42,19,20,154,34*49
$GPGSV,4,3,13,12,16,241,36,40,12,255,35,09,11,039,,25,10,277,32*7F
$GPGSV,4,4,13,15,,,37*7B
$BDGSV,4,1,13,27,80,089,40,10,67,240,,07,66,208,38,08,59,283,38*61
$BDGSV,4,2,13,03,54,199,41,13,51,269,41,01,47,137,42,28,37,127,44*6F
$BDGSV,4,3,13,30,37,318,41,04,37,118,,02,36,234,31,05,15,253,32*69
$BDGSV,4,4,13,20,06,222,*5C
$GNRMC,094719.000,A,3018.4262,N,12004.6623,E,0.01,186.67,270326,,,D*74
$GNVTG,186.67,T,,M,0.01,N,0.01,K,D*28
$GNGGA,094720.000,3018.4262,N,12004.6623,E,2,18,0.83,19.9,M,7.0,M,,*73
$GNGLL,3018.4262,N,12004.6623,E,094720.000,A,D*44
$GPGSA,A,3,21,11,05,06,13,25,194,195,19,12,,,1.44,0.83,1.17*00
$BDGSA,A,3,01,08,30,27,07,03,13,28,,,,,1.44,0.83,1.17*1D
$GPGSV,4,1,13,195,67,077,41,21,66,338,42,11,63,031,43,05,50,283,43*44
$GPGSV,4,2,13,06,35,090,36,13,32,182,43,194,26,172,42,19,20,154,34*49
$GPGSV,4,3,13,12,16,241,36,40,12,255,35,09,11,039,,25,10,277,32*7F
$GPGSV,4,4,13,15,,,37*7B
$BDGSV,4,1,13,27,80,089,40,10,67,240,,07,66,208,38,08,59,283,38*61
$BDGSV,4,2,13,03,54,199,41,13,51,269,41,01,47,137,42,28,37,127,44*6F
$BDGSV,4,3,13,30,37,318,41,04,37,118,,02,36,234,31,05,15,253,32*69
$BDGSV,4,4,13,20,06,222,*5C
$GNRMC,094720.000,A,3018.4262,N,12004.6623,E,0.00,186.67,270326,,,D*7F
$GNVTG,186.67,T,,M,0.00,N,0.01,K,D*29
$GNGGA,094721.000,3018.4262,N,12004.6623,E,2,18,0.83,19.9,M,7.0,M,,*72
$GNGLL,3018.4262,N,12004.6623,E,094721.000,A,D*45
$GPGSA,A,3,21,11,05,06,13,25,194,195,19,12,,,1.44,0.83,1.17*00
$BDGSA,A,3,01,08,30,27,07,03,13,28,,,,,1.44,0.83,1.17*1D
$GPGSV,4,1,13,195,67,077,41,21,66,338,42,11,63,031,43,05,50,283,43*44
$GPGSV,4,2,13,06,35,090,36,13,32,182,43,194,26,172,42,19,20,154,34*49
$GPGSV,4,3,13,12,16,241,36,40,12,255,35,09,11,039,,25,10,277,32*7F
$GPGSV,4,4,13,15,,,37*7B
$BDGSV,4,1,13,27,80,089,40,10,67,240,,07,66,208,38,08,59,283,38*61
$BDGSV,4,2,13,03,54,199,41,13,51,269,41,01,47,137,42,28,37,127,44*6F
$BDGSV,4,3,13,30,37,318,41,04,37,118,,02,36,234,32,05,15,253,32*6A
$BDGSV,4,4,13,20,06,222,*5C
$GNRMC,094721.000,A,3018.4262,N,12004.6623,E,0.01,186.67,270326,,,D*7F
$GNVTG,186.67,T,,M,0.01,N,0.01,K,D*28
$GNGGA,094722.000,3018.4262,N,12004.6623,E,2,18,0.83,19.9,M,7.0,M,,*71
$GNGLL,3018.4262,N,12004.6623,E,094722.000,A,D*46
$GPGSA,A,3,21,11,05,06,13,25,194,195,19,12,,,1.44,0.83,1.17*00
$BDGSA,A,3,01,08,30,27,07,03,13,28,,,,,1.44,0.83,1.17*1D
$GPGSV,4,1,13,195,67,077,41,21,66,338,42,11,63,031,43,05,50,283,43*44
$GPGSV,4,2,13,06,35,090,36,13,32,182,43,194,26,172,42,19,20,154,34*49
$GPGSV,4,3,13,12,16,241,36,40,12,255,35,09,11,039,,25,10,277,32*7F
$GPGSV,4,4,13,15,,,37*7B
$BDGSV,4,1,13,27,80,089,40,10,67,240,,07,66,208,38,08,59,283,38*61
$BDGSV,4,2,13,03,54,199,41,13,51,269,41,01,47,137,42,28,37,127,44*6F
$BDGSV,4,3,13,30,37,318,41,04,37,118,,02,36,234,32,05,15,253,32*6A
$BDGSV,4,4,13,20,06,222,*5C
$GNRMC,094722.000,A,3018.4262,N,12004.6623,E,0.00,186.67,270326,,,D*7D
$GNVTG,186.67,T,,M,0.00,N,0.01,K,D*29
$GNGGA,094723.000,3018.4262,N,12004.6623,E,2,18,0.83,19.9,M,7.0,M,,*70
$GNGLL,3018.4262,N,12004.6623,E,094723.000,A,D*47
$GPGSA,A,3,21,11,05,06,13,25,194,195,19,12,,,1.44,0.83,1.17*00
$BDGSA,A,3,01,08,30,27,07,03,13,28,,,,,1.44,0.83,1.17*1D
$GPGSV,4,1,13,195,67,077,41,21,66,338,42,11,63,031,43,05,50,283,43*44
$GPGSV,4,2,13,06,35,090,36,13,32,182,43,194,26,172,42,19,20,154,34*49
$GPGSV,4,3,13,12,16,241,37,40,12,255,34,09,11,039,,25,10,277,31*7C
$GPGSV,4,4,13,15,,,37*7B
$BDGSV,4,1,13,27,80,089,40,10,67,240,,07,66,208,38,08,59,283,38*61
$BDGSV,4,2,13,03,54,199,41,13,51,269,41,01,47,137,42,28,37,127,44*6F
$BDGSV,4,3,13,30,37,318,40,04,37,118,,02,36,234,32,05,15,253,32*6B
$BDGSV,4,4,13,20,06,222,*5C
$GNRMC,094723.000,A,3018.4262,N,12004.6623,E,0.01,186.67,270326,,,D*7D
$GNVTG,186.67,T,,M,0.01,N,0.02,K,D*2B
$GNGGA,094724.000,3018.4262,N,12004.6623,E,2,18,0.83,19.9,M,7.0,M,,*77
$GNGLL,3018.4262,N,12004.6623,E,094724.000,A,D*40
$GPGSA,A,3,21,11,05,06,13,25,194,195,19,12,,,1.44,0.83,1.17*00
$BDGSA,A,3,01,08,30,27,07,03,13,28,,,,,1.44,0.83,1.17*1D
$GPGSV,4,1,13,195,67,077,41,21,66,338,42,11,63,031,43,05,50,283,43*44
$GPGSV,4,2,13,06,35,090,36,13,32,182,43,194,26,172,42,19,20,154,34*49
$GPGSV,4,3,13,12,16,241,37,40,12,255,35,09,11,039,,25,10,277,31*7D
$GPGSV,4,4,13,15,,,37*7B
$BDGSV,4,1,13,27,80,089,40,10,67,240,,07,66,208,38,08,59,283,38*61
$BDGSV,4,2,13,03,54,199,41,13,51,269,41,01,47,137,42,28,37,127,44*6F
$BDGSV,4,3,13,30,37,318,40,04,37,118,,02,36,234,32,05,15,253,31*68
$BDGSV,4,4,13,20,06,222,*5C
$GNRMC,094724.000,A,3018.4262,N,12004.6623,E,0.01,186.67,270326,,,D*7A
$GNVTG,186.67,T,,M,0.01,N,0.01,K,D*28
$GNGGA,094725.000,3018.4262,N,12004.6623,E,2,18,0.83,19.8,M,7.0,M,,*77
$GNGLL,3018.4262,N,12004.6623,E,094725.000,A,D*41
$GPGSA,A,3,21,11,05,06,13,25,194,195,19,12,,,1.44,0.83,1.17*00
$BDGSA,A,3,01,08,30,27,07,03,13,28,,,,,1.44,0.83,1.17*1D
$GPGSV,4,1,13,195,67,077,41,21,66,338,42,11,63,031,43,05,50,283,43*44
$GPGSV,4,2,13,06,35,090,36,13,32,182,43,194,26,172,42,19,20,154,34*49
$GPGSV,4,3,13,12,16,241,37,40,12,255,35,09,11,039,,25,10,277,31*7D
$GPGSV,4,4,13,15,,,37*7B
$BDGSV,4,1,13,27,80,089,39,10,67,240,,07,66,208,38,08,59,283,38*6F
$BDGSV,4,2,13,03,54,199,41,13,51,269,41,01,47,137,42,28,37,127,44*6F
$BDGSV,4,3,13,30,37,318,40,04,37,118,,02,36,234,31,05,15,253,31*6B
$BDGSV,4,4,13,20,06,222,*5C
$GNRMC,094725.000,A,3018.4262,N,12004.6623,E,0.00,186.67,270326,,,D*7A
$GNVTG,186.67,T,,M,0.00,N,0.01,K,D*29
$GNGGA,094726.000,3018.4262,N,12004.6623,E,2,18,0.83,19.8,M,7.0,M,,*74
$GNGLL,3018.4262,N,12004.6623,E,094726.000,A,D*42
$GPGSA,A,3,21,11,05,06,13,25,194,195,19,12,,,1.44,0.83,1.17*00
$BDGSA,A,3,01,08,30,27,07,03,13,28,,,,,1.44,0.83,1.17*1D
$GPGSV,4,1,13,195,67,077,41,21,66,338,42,11,63,031,42,05,50,283,43*45
$GPGSV,4,2,13,06,35,090,36,13,32,182,43,194,26,172,42,19,20,154,34*49
$GPGSV,4,3,13,12,16,241,37,40,12,255,35,09,11,039,,25,10,277,32*7E
$GPGSV,4,4,13,15,,,37*7B
$BDGSV,4,1,13,27,80,089,40,10,67,240,,07,66,208,38,08,59,283,38*61
$BDGSV,4,2,13,03,54,199,41,13,51,269,41,01,47,137,42,28,37,127,44*6F
$BDGSV,4,3,13,30,37,318,40,04,37,118,,02,36,234,31,05,15,253,31*6B
$BDGSV,4,4,13,20,06,222,*5C
$GNRMC,094726.000,A,3018.4262,N,12004.6623,E,0.01,186.67,270326,,,D*78
$GNVTG,186.67,T,,M,0.01,N,0.03,K,D*2A
$GNGGA,094727.000,3018.4262,N,12004.6623,E,2,18,0.83,19.8,M,7.0,M,,*75
$GNGLL,3018.4262,N,12004.6623,E,094727.000,A,D*43
$GPGSA,A,3,21,11,05,06,13,25,194,195,19,12,,,1.44,0.83,1.17*00
$BDGSA,A,3,01,08,30,27,07,03,13,28,,,,,1.44,0.83,1.17*1D
$GPGSV,4,1,13,195,67,077,41,21,66,338,42,11,63,031,41,05,50,283,43*46
$GPGSV,4,2,13,06,35,090,36,13,32,182,43,194,26,172,42,19,20,154,35*48
$GPGSV,4,3,13,12,16,241,37,40,12,255,35,09,11,039,,25,10,277,32*7E
$GPGSV,4,4,13,15,,,37*7B
$BDGSV,4,1,13,27,80,089,40,10,67,240,,07,66,208,38,08,59,283,38*61
$BDGSV,4,2,13,03,54,199,40,13,51,269,41,01,47,137,42,28,37,127,44*6E
$BDGSV,4,3,13,30,37,318,40,04,37,118,,02,36,234,32,05,15,253,31*68
$BDGSV,4,4,13,20,06,222,*5C
$GNRMC,094727.000,A,3018.4262,N,12004.6623,E,0.01,186.67,270326,,,D*79
$GNVTG,186.67,T,,M,0.01,N,0.02,K,D*2B
$GNGGA,094728.000,3018.4262,N,12004.6623,E,2,18,0.83,19.8,M,7.0,M,,*7A
$GNGLL,3018.4262,N,12004.6623,E,094728.000,A,D*4C
$GPGSA,A,3,21,11,05,06,13,25,194,195,19,12,,,1.44,0.83,1.17*00
$BDGSA,A,3,01,08,30,27,07,03,13,28,,,,,1.44,0.83,1.17*1D
$GPGSV,4,1,13,195,67,077,41,21,66,338,43,11,63,031,40,05,50,283,43*46
$GPGSV,4,2,13,06,35,090,36,13,32,182,43,194,26,172,42,19,20,154,35*48
$GPGSV,4,3,13,12,16,241,37,40,12,255,35,09,11,039,,25,10,277,32*7E
$GPGSV,4,4,13,15,,,37*7B
$BDGSV,4,1,13,27,80,089,39,10,67,240,,07,66,208,38,08,59,283,38*6F
$BDGSV,4,2,13,03,54,199,40,13,51,269,40,01,47,137,42,28,37,127,44*6F
$BDGSV,4,3,13,30,37,318,40,04,37,118,,02,36,234,32,05,15,253,31*68
$BDGSV,4,4,13,20,06,222,*5C
$GNRMC,094728.000,A,3018.4262,N,12004.6623,E,0.01,186.67,270326,,,D*76
$GNVTG,186.67,T,,M,0.01,N,0.01,K,D*28
$GNGGA,094729.000,3018.4262,N,12004.6623,E,2,18,0.83,19.8,M,7.0,M,,*7B
$GNGLL,3018.4262,N,12004.6623,E,094729.000,A,D*4D
$GPGSA,A,3,21,11,05,06,13,25,194,195,19,12,,,1.44,0.83,1.17*00
$BDGSA,A,3,01,08,30,27,07,03,13,28,,,,,1.44,0.83,1.17*1D
$GPGSV,4,1,13,195,67,077,41,21,66,338,43,11,63,031,40,05,50,283,43*46
$GPGSV,4,2,13,06,35,090,36,13,32,182,43,194,26,172,42,19,20,154,35*48
$GPGSV,4,3,13,12,16,241,37,40,12,255,34,09,11,039,,25,10,277,32*7F
$GPGSV,4,4,13,15,,,37*7B
$BDGSV,4,1,13,27,80,089,39,10,67,240,,07,66,208,38,08,59,283,38*6F
$BDGSV,4,2,13,03,54,199,41,13,51,269,40,01,47,137,42,28,37,127,44*6E
$BDGSV,4,3,13,30,37,318,40,04,37,118,,02,36,234,32,05,15,253,32*6B
$BDGSV,4,4,13,20,06,222,*5C
$GNRMC,094729.000,A,3018.4262,N,12004.6623,E,0.00,186.67,270326,,,D*76
$GNVTG,186.67,T,,M,0.00,N,0.00,K,D*28
$GNGGA,094730.000,3018.4262,N,12004.6623,E,2,18,0.83,19.8,M,7.0,M,,*73
$GNGLL,3018.4262,N,12004.6623,E,094730.000,A,D*45
$GPGSA,A,3,21,11,05,06,13,25,194,195,19,12,,,1.44,0.83,1.17*00
$BDGSA,A,3,01,08,30,27,07,03,13,28,,,,,1.44,0.83,1.17*1D
$GPGSV,4,1,13,195,67,077,41,21,66,338,42,11,63,031,38,05,50,283,43*48
$GPGSV,4,2,13,06,35,090,36,13,32,182,43,194,26,172,42,19,20,154,35*48
$GPGSV,4,3,13,12,16,241,37,40,12,255,34,09,11,039,,25,10,277,33*7E
$GPGSV,4,4,13,15,,,37*7B
$BDGSV,4,1,13,27,80,089,39,10,67,240,,07,66,208,38,08,59,283,38*6F
$BDGSV,4,2,13,03,54,199,41,13,51,269,40,01,47,137,42,28,37,127,44*6E
$BDGSV,4,3,13,30,37,318,40,04,37,118,,02,36,234,32,05,15,253,32*6B
$BDGSV,4,4,13,20,06,222,*5C
$GNRMC,094730.000,A,3018.4262,N,12004.6623,E,0.00,186.67,270326,,,D*7E
$GNVTG,186.67,T,,M,0.00,N,0.01,K,D*29
$GNGGA,094731.000,3018.4262,N,12004.6623,E,2,19,0.81,19.8,M,7.0,M,,*71
$GNGLL,3018.4262,N,12004.6623,E,094731.000,A,D*44
$GPGSA,A,3,21,11,05,06,13,15,25,194,195,19,12,,1.41,0.81,1.15*01
$BDGSA,A,3,01,08,30,27,07,03,13,28,,,,,1.41,0.81,1.15*18
$GPGSV,4,1,13,195,67,077,41,21,66,338,41,11,63,031,37,05,50,283,43*44
$GPGSV,4,2,13,06,35,090,36,13,32,182,43,194,26,172,42,19,20,154,34*49
$GPGSV,4,3,13,12,16,241,36,15,13,210,37,40,12,255,35,09,11,039,15*7F
$GPGSV,4,4,13,25,10,277,32*4E
$BDGSV,4,1,13,27,80,089,39,10,67,240,,07,66,208,38,08,59,283,39*6E
$BDGSV,4,2,13,03,54,199,41,13,51,269,40,01,47,137,42,28,37,127,44*6E
$BDGSV,4,3,13,30,37,318,39,04,37,118,,02,36,234,32,05,15,253,32*65
$BDGSV,4,4,13,20,06,222,*5C
$GNRMC,094731.000,A,3018.4262,N,12004.6623,E,0.02,186.67,270326,,,D*7D
$GNVTG,186.67,T,,M,0.02,N,0.04,K,D*2E
$GNGGA,094732.000,3018.4262,N,12004.6623,E,2,19,0.81,19.8,M,7.0,M,,*72
$GNGLL,3018.4262,N,12004.6623,E,094732.000,A,D*47
$GPGSA,A,3,21,11,05,06,13,15,25,194,195,19,12,,1.41,0.81,1.15*01
$BDGSA,A,3,01,08,30,27,07,03,13,28,,,,,1.41,0.81,1.15*18
$GPGSV,4,1,13,195,67,077,41,21,66,338,40,11,63,031,38,05,50,283,42*4B
$GPGSV,4,2,13,06,35,090,36,13,32,182,43,194,26,172,42,19,20,154,34*49
$GPGSV,4,3,13,12,16,241,36,15,13,210,37,40,12,255,35,09,11,039,*7B
$GPGSV,4,4,13,25,10,277,30*4C
$BDGSV,4,1,13,27,80,089,39,10,67,240,,07,66,208,39,08,59,283,39*6F
$BDGSV,4,2,13,03,54,199,41,13,51,269,40,01,47,137,42,28,37,127,44*6E
$BDGSV,4,3,13,30,37,318,39,04,37,118,,02,36,234,33,05,15,253,31*67
$BDGSV,4,4,13,20,06,222,*5C
$GNRMC,094732.000,A,3018.4262,N,12004.6623,E,0.01,186.67,270326,,,D*7D
$GNVTG,186.67,T,,M,0.01,N,0.02,K,D*2B
$GNGGA,094733.000,3018.4262,N,12004.6623,E,2,19,0.81,19.8,M,7.0,M,,*73
$GNGLL,3018.4262,N,12004.6623,E,094733.000,A,D*46
$GPGSA,A,3,21,11,05,06,13,15,25,194,195,19,12,,1.41,0.81,1.15*01
$BDGSA,A,3,01,08,30,27,07,03,13,28,,,,,1.41,0.81,1.15*18
$GPGSV,4,1,13,195,67,077,40,21,66,338,40,11,63,031,39,05,50,283,42*4B
$GPGSV,4,2,13,06,35,090,37,13,32,182,43,194,26,172,42,19,20,154,34*48
$GPGSV,4,3,13,12,16,241,36,15,13,210,37,40,12,255,36,09,11,039,*78
$GPGSV,4,4,13,25,10,277,29*44
$BDGSV,4,1,13,27,80,089,39,10,67,240,,07,66,208,39,08,59,283,38*6E
$BDGSV,4,2,13,03,54,199,41,13,51,269,40,01,47,137,42,28,37,127,44*6E
$BDGSV,4,3,13,30,37,318,40,04,37,118,,02,36,234,33,05,15,253,30*68
$BDGSV,4,4,13,20,06,222,*5C
$GNRMC,094733.000,A,3018.4262,N,12004.6623,E,0.01,186.67,270326,,,D*7C
$GNVTG,186.67,T,,M,0.01,N,0.02,K,D*2B
$GNGGA,094734.000,3018.4262,N,12004.6623,E,2,19,0.81,19.8,M,7.0,M,,*74
$GNGLL,3018.4262,N,12004.6623,E,094734.000,A,D*41
$GPGSA,A,3,21,11,05,06,13,15,25,194,195,19,12,,1.41,0.81,1.15*01
$BDGSA,A,3,01,08,30,27,07,03,13,28,,,,,1.41,0.81,1.15*18
$GPGSV,4,1,13,195,67,077,40,21,66,338,40,11,63,031,39,05,50,283,42*4B
$GPGSV,4,2,13,06,35,090,37,13,32,182,43,194,26,172,42,19,20,154,34*48
$GPGSV,4,3,13,12,16,241,36,15,13,210,37,40,12,255,36,09,11,039,*78
$GPGSV,4,4,13,25,10,277,30*4C
$BDGSV,4,1,13,27,80,089,39,10,67,240,,07,66,208,39,08,59,283,38*6E
$BDGSV,4,2,13,03,54,199,41,13,51,269,40,01,47,137,42,28,37,127,44*6E
$BDGSV,4,3,13,30,37,318,39,04,37,118,,02,36,234,32,05,15,253,30*67
$BDGSV,4,4,13,20,06,222,*5C
$GNRMC,094734.000,A,3018.4262,N,12004.6623,E,0.01,186.67,270326,,,D*7B
$GNVTG,186.67,T,,M,0.01,N,0.02,K,D*2B
$GNGGA,094735.000,3018.4262,N,12004.6623,E,2,19,0.81,19.8,M,7.0,M,,*75
$GNGLL,3018.4262,N,12004.6623,E,094735.000,A,D*40
$GPGSA,A,3,21,11,05,06,13,15,25,194,195,19,12,,1.41,0.81,1.15*01
$BDGSA,A,3,01,08,30,27,07,03,13,28,,,,,1.41,0.81,1.15*18
$GPGSV,4,1,13,195,67,077,40,21,66,338,40,11,63,031,38,05,50,283,43*4B
$GPGSV,4,2,13,06,35,090,37,13,32,182,43,194,26,172,42,19,20,154,34*48
$GPGSV,4,3,13,12,16,241,37,15,13,210,37,40,12,255,37,09,11,039,*78
$GPGSV,4,4,13,25,10,277,30*4C
$BDGSV,4,1,13,27,80,089,39,10,67,240,,07,66,208,39,08,59,283,38*6E
$BDGSV,4,2,13,03,54,199,41,13,51,269,40,01,47,137,42,28,37,127,44*6E
$BDGSV,4,3,13,30,37,318,38,04,37,118,,02,36,234,32,05,15,253,30*66
$BDGSV,4,4,13,20,06,222,*5C
$GNRMC,094735.000,A,3018.4262,N,12004.6623,E,0.01,186.67,270326,,,D*7A
$GNVTG,186.67,T,,M,0.01,N,0.01,K,D*28
$GNGGA,094736.000,3018.4262,N,12004.6623,E,2,20,0.64,19.8,M,7.0,M,,*77
$GNGLL,3018.4262,N,12004.6623,E,094736.000,A,D*43
$GPGSA,A,3,21,11,05,06,13,15,09,25,194,195,19,12,1.08,0.64,0.87*04
$BDGSA,A,3,01,08,30,27,07,03,13,28,,,,,1.08,0.64,0.87*14
$GPGSV,4,1,13,195,67,077,40,21,66,338,40,11,63,031,39,05,50,283,43*4A
$GPGSV,4,2,13,06,35,090,37,13,32,182,43,194,26,172,42,19,20,154,34*48
$GPGSV,4,3,13,12,16,241,37,15,13,210,36,40,12,255,37,09,11,039,26*7D
$GPGSV,4,4,13,25,10,277,31*4D
$BDGSV,4,1,13,27,80,089,39,10,67,240,,07,66,208,39,08,59,283,38*6E
$BDGSV,4,2,13,03,54,199,41,13,51,269,40,01,47,137,42,28,37,127,44*6E
$BDGSV,4,3,13,30,37,318,38,04,37,118,,02,36,234,32,05,15,253,30*66
$BDGSV,4,4,13,20,06,222,*5C
$GNRMC,094736.000,A,3018.4262,N,12004.6623,E,0.01,186.67,270326,,,D*79
$GNVTG,186.67,T,,M,0.01,N,0.01,K,D*28
$GNGGA,094737.000,3018.4262,N,12004.6623,E,2,20,0.64,19.7,M,7.0,M,,*79
$GNGLL,3018.4262,N,12004.6623,E,094737.000,A,D*42
$GPGSA,A,3,21,11,05,06,13,15,09,25,194,195,19,12,0.91,0.64,0.66*0A
$BDGSA,A,3,01,08,30,27,07,03,13,28,,,,,0.91,0.64,0.66*1A
$GPGSV,4,1,13,195,67,077,40,21,66,338,41,11,63,031,40,05,50,283,42*44
$GPGSV,4,2,13,06,35,090,37,13,32,182,43,194,26,172,42,19,20,154,34*48
$GPGSV,4,3,13,12,16,241,36,15,13,210,35,40,12,255,37,09,11,039,26*7F
$GPGSV,4,4,13,25,10,277,33*4F
$BDGSV,4,1,13,27,80,089,39,10,67,240,,07,66,208,39,08,59,283,38*6E
$BDGSV,4,2,13,03,54,199,41,13,51,269,40,01,47,137,42,28,37,127,44*6E
$BDGSV,4,3,13,30,37,318,38,04,37,118,,02,36,234,32,05,15,253,30*66
$BDGSV,4,4,13,20,06,222,*5C
$GNRMC,094737.000,A,3018.4262,N,12004.6623,E,0.01,186.67,270326,,,D*78
$GNVTG,186.67,T,,M,0.01,N,0.02,K,D*2B
$GNGGA,094738.000,3018.4262,N,12004.6623,E,2,20,0.64,19.7,M,7.0,M,,*76
$GNGLL,3018.4262,N,12004.6623,E,094738.000,A,D*4D
$GPGSA,A,3,21,11,05,06,13,15,09,25,194,195,19,12,0.91,0.64,0.66*0A
$BDGSA,A,3,01,08,30,27,07,03,13,28,,,,,0.91,0.64,0.66*1A
$GPGSV,4,1,13,195,67,077,40,21,66,338,41,11,63,031,40,05,50,283,42*44
$GPGSV,4,2,13,06,35,090,37,13,32,182,43,194,26,172,42,19,20,154,34*48
$GPGSV,4,3,13,12,16,241,36,15,13,210,36,40,12,255,37,09,11,039,25*7F
$GPGSV,4,4,13,25,10,277,34*48
$BDGSV,4,1,13,27,80,089,39,10,67,240,,07,66,208,39,08,59,283,38*6E
$BDGSV,4,2,13,03,54,199,41,13,51,269,40,01,47,137,42,28,37,127,44*6E
$BDGSV,4,3,13,30,37,318,38,04,37,118,,02,36,234,33,05,15,253,30*67
$BDGSV,4,4,13,20,06,222,*5C
$GNRMC,094738.000,A,3018.4262,N,12004.6623,E,0.00,186.67,270326,,,D*76
$GNVTG,186.67,T,,M,0.00,N,0.01,K,D*29
$GNGGA,094739.000,3018.4262,N,12004.6623,E,2,20,0.64,19.7,M,7.0,M,,*77
$GNGLL,3018.4262,N,12004.6623,E,094739.000,A,D*4C
$GPGSA,A,3,21,11,05,06,13,15,09,25,194,195,19,12,0.91,0.64,0.66*0A
$BDGSA,A,3,01,08,30,27,07,03,13,28,,,,,0.91,0.64,0.66*1A
$GPGSV,4,1,13,195,67,077,40,21,66,338,41,11,63,031,40,05,50,283,43*45
$GPGSV,4,2,13,06,35,090,37,13,32,182,43,194,26,172,42,19,20,154,34*48
$GPGSV,4,3,13,12,16,241,36,15,13,210,37,40,12,255,36,09,11,039,25*7F
$GPGSV,4,4,13,25,10,277,34*48
$BDGSV,4,1,13,27,80,089,39,10,67,240,,07,66,208,39,08,59,283,38*6E
$BDGSV,4,2,13,03,54,199,41,13,51,269,40,01,47,137,42,28,37,127,44*6E
$BDGSV,4,3,13,30,37,318,38,04,37,118,,02,36,234,33,05,15,253,30*67
$BDGSV,4,4,13,20,06,222,*5C
$GNRMC,094739.000,A,3018.4262,N,12004.6623,E,0.01,186.67,270326,,,D*76
$GNVTG,186.67,T,,M,0.01,N,0.01,K,D*28
$GNGGA,094740.000,3018.4262,N,12004.6623,E,2,20,0.64,19.7,M,7.0,M,,*79
$GNGLL,3018.4262,N,12004.6623,E,094740.000,A,D*42
$GPGSA,A,3,21,11,05,06,13,15,09,25,194,195,19,12,1.08,0.64,0.87*04
$BDGSA,A,3,01,08,30,27,07,03,13,28,,,,,1.08,0.64,0.87*14
$GPGSV,4,1,13,195,67,077,40,21,66,338,41,11,63,031,40,05,50,283,43*45
$GPGSV,4,2,13,06,35,090,37,13,32,182,43,194,26,172,42,19,20,154,34*48
$GPGSV,4,3,13,12,16,241,36,15,13,210,38,40,12,255,36,09,11,039,27*72
$GPGSV,4,4,13,25,10,277,34*48
$BDGSV,4,1,13,27,80,089,39,10,67,240,,07,66,208,39,08,59,283,38*6E
$BDGSV,4,2,13,03,54,199,41,13,51,269,40,01,47,137,42,28,37,127,44*6E
$BDGSV,4,3,13,30,37,318,38,04,37,118,,02,36,234,33,05,15,253,30*67
$BDGSV,4,4,13,20,06,222,*5C
$GNRMC,094740.000,A,3018.4262,N,12004.6623,E,0.03,186.67,270326,,,D*7A
$GNVTG,186.67,T,,M,0.03,N,0.05,K,D*2E
$GNGGA,094741.000,3018.4262,N,12004.6623,E,2,20,0.64,19.7,M,7.0,M,,*78
$GNGLL,3018.4262,N,12004.6623,E,094741.000,A,D*43
$GPGSA,A,3,21,11,05,06,13,15,09,25,194,195,19,12,1.08,0.64,0.87*04
$BDGSA,A,3,01,08,30,27,07,03,13,28,,,,,1.08,0.64,0.87*14
$GPGSV,4,1,13,195,67,077,40,21,66,338,41,11,63,031,40,05,50,283,43*45
$GPGSV,4,2,13,06,35,090,37,13,32,182,43,194,26,172,42,19,20,154,34*48
$GPGSV,4,3,13,12,16,241,35,15,13,210,38,40,12,255,35,09,11,039,27*72
$GPGSV,4,4,13,25,10,277,33*4F
$BDGSV,4,1,13,27,80,089,39,10,67,240,,07,66,208,39,08,59,283,38*6E
$BDGSV,4,2,13,03,54,199,41,13,51,269,39,01,47,137,42,28,37,127,44*60
$BDGSV,4,3,13,30,37,318,39,04,37,118,,02,36,234,34,05,15,253,30*61
$BDGSV,4,4,13,20,06,222,*5C
$GNRMC,094741.000,A,3018.4262,N,12004.6623,E,0.02,186.67,270326,,,D*7A
$GNVTG,186.67,T,,M,0.02,N,0.03,K,D*29
$GNGGA,094742.000,3018.4262,N,12004.6623,E,2,20,0.64,19.7,M,7.0,M,,*7B
$GNGLL,3018.4262,N,12004.6623,E,094742.000,A,D*40
$GPGSA,A,3,21,11,05,06,13,15,09,25,194,195,19,12,1.08,0.64,0.87*04
$BDGSA,A,3,01,08,30,27,07,03,13,28,,,,,1.08,0.64,0.87*14
$GPGSV,4,1,13,195,67,077,40,21,66,338,41,11,63,031,40,05,50,283,43*45
$GPGSV,4,2,13,06,35,090,37,13,32,182,43,194,26,172,42,19,20,154,34*48
$GPGSV,4,3,13,12,16,241,36,15,13,210,38,40,12,255,33,09,11,039,26*76
$GPGSV,4,4,13,25,10,277,32*4E
$BDGSV,4,1,13,27,80,089,39,10,67,240,,07,66,208,39,08,59,283,38*6E
$BDGSV,4,2,13,03,54,199,41,13,51,269,39,01,47,137,42,28,37,127,44*60
$BDGSV,4,3,13,30,37,318,39,04,37,118,,02,36,234,33,05,15,253,30*66
$BDGSV,4,4,13,20,06,222,*5C
$GNRMC,094742.000,A,3018.4262,N,12004.6623,E,0.00,186.67,270326,,,D*7B
$GNVTG,186.67,T,,M,0.00,N,0.01,K,D*29
$GNGGA,094743.000,3018.4262,N,12004.6623,E,2,20,0.64,19.7,M,7.0,M,,*7A
$GNGLL,3018.4262,N,12004.6623,E,094743.000,A,D*41
$GPGSA,A,3,21,11,05,06,13,15,09,25,194,195,19,12,1.08,0.64,0.87*04
$BDGSA,A,3,01,08,30,27,07,03,13,28,,,,,1.08,0.64,0.87*14
$GPGSV,4,1,13,195,67,077,40,21,66,338,41,11,63,031,40,05,50,283,43*45
$GPGSV,4,2,13,06,35,090,37,13,32,182,43,194,26,172,42,19,20,154,34*48
$GPGSV,4,3,13,12,16,241,36,15,13,210,38,40,12,255,33,09,11,039,26*76
$GPGSV,4,4,13,25,10,277,31*4D
$BDGSV,4,1,13,27,80,089,39,10,67,240,,07,66,208,39,08,59,283,38*6E
$BDGSV,4,2,13,03,54,199,41,13,51,269,39,01,47,137,42,28,37,127,44*60
$BDGSV,4,3,13,30,37,318,39,04,37,118,,02,36,234,33,05,15,253,30*66
$BDGSV,4,4,13,20,06,222,*5C
$GNRMC,094743.000,A,3018.4262,N,12004.6623,E,0.01,186.67,270326,,,D*7B
$GNVTG,186.67,T,,M,0.01,N,0.02,K,D*2B
$GNGGA,094744.000,3018.4262,N,12004.6623,E,2,20,0.64,19.7,M,7.0,M,,*7D
$GNGLL,3018.4262,N,12004.6623,E,094744.000,A,D*46
$GPGSA,A,3,21,11,05,06,13,15,09,25,194,195,19,12,1.08,0.64,0.87*04
$BDGSA,A,3,01,08,30,27,07,03,13,28,,,,,1.08,0.64,0.87*14
$GPGSV,4,1,13,195,67,077,40,21,66,338,41,11,63,031,40,05,50,283,43*45
$GPGSV,4,2,13,06,35,090,37,13,32,182,43,194,26,172,42,19,20,154,34*48
$GPGSV,4,3,13,12,16,241,36,15,13,210,38,40,12,255,34,09,11,039,26*71
$GPGSV,4,4,13,25,10,277,31*4D
$BDGSV,4,1,13,27,80,089,39,10,67,240,,07,66,208,39,08,59,283,38*6E
$BDGSV,4,2,13,03,54,199,41,13,51,269,39,01,47,137,42,28,37,127,44*60
$BDGSV,4,3,13,30,37,318,39,04,37,118,,02,36,234,33,05,15,253,30*66
$BDGSV,4,4,13,20,06,222,*5C
$GNRMC,094744.000,A,3018.4262,N,12004.6623,E,0.01,186.67,270326,,,D*7C
$GNVTG,186.67,T,,M,0.01,N,0.01,K,D*28
$GNGGA,094745.000,3018.4262,N,12004.6623,E,2,20,0.64,19.6,M,7.0,M,,*7D
$GNGLL,3018.4262,N,12004.6623,E,094745.000,A,D*47
$GPGSA,A,3,21,11,05,06,13,15,09,25,194,195,19,12,1.08,0.64,0.87*04
$BDGSA,A,3,01,08,30,27,07,03,13,28,,,,,1.08,0.64,0.87*14
$GPGSV,4,1,13,195,67,077,40,21,66,338,41,11,63,031,40,05,50,283,43*45
$GPGSV,4,2,13,06,35,090,37,13,32,182,43,194,26,172,42,19,20,154,34*48
$GPGSV,4,3,13,12,16,241,36,15,13,210,38,40,12,255,33,09,11,039,25*75
$GPGSV,4,4,13,25,10,277,32*4E
$BDGSV,4,1,13,27,80,089,39,10,67,240,,07,66,208,39,08,59,283,38*6E
$BDGSV,4,2,13,03,54,199,41,13,51,269,39,01,47,137,42,28,37,127,44*60
$BDGSV,4,3,13,30,37,318,39,04,37,118,,02,36,234,33,05,15,253,31*67
$BDGSV,4,4,13,20,06,222,*5C
$GNRMC,094745.000,A,3018.4262,N,12004.6623,E,0.01,186.67,270326,,,D*7D
$GNVTG,186.67,T,,M,0.01,N,0.03,K,D*2A
$GNGGA,094746.000,3018.4262,N,12004.6623,E,2,20,0.64,19.6,M,7.0,M,,*7E
$GNGLL,3018.4262,N,12004.6623,E,094746.000,A,D*44
$GPGSA,A,3,21,11,05,06,13,15,09,25,194,195,19,12,1.08,0.64,0.87*04
$BDGSA,A,3,01,08,30,27,07,03,13,28,,,,,1.08,0.64,0.87*14
$GPGSV,4,1,13,195,67,077,40,21,66,338,41,11,63,031,40,05,50,283,43*45
$GPGSV,4,2,13,06,35,090,37,13,32,182,43,194,26,172,42,19,20,154,34*48
$GPGSV,4,3,13,12,16,241,36,15,13,210,38,40,12,255,34,09,11,039,25*72
$GPGSV,4,4,13,25,10,277,33*4F
$BDGSV,4,1,13,27,80,089,39,10,67,240,,07,66,208,39,08,59,283,38*6E
$BDGSV,4,2,13,03,54,199,41,13,51,269,39,01,47,137,42,28,37,127,44*60
$BDGSV,4,3,13,30,37,318,39,04,37,118,,02,36,234,33,05,15,253,31*67
$BDGSV,4,4,13,20,06,222,*5C
$GNRMC,094746.000,A,3018.4262,N,12004.6623,E,0.01,186.67,270326,,,D*7E
$GNVTG,186.67,T,,M,0.01,N,0.01,K,D*28
$GNGGA,094747.000,3018.4262,N,12004.6623,E,2,20,0.64,19.6,M,7.0,M,,*7F
$GNGLL,3018.4262,N,12004.6623,E,094747.000,A,D*45
$GPGSA,A,3,21,11,05,06,13,15,09,25,194,195,19,12,1.08,0.64,0.87*04
$BDGSA,A,3,01,08,30,27,07,03,13,28,,,,,1.08,0.64,0.87*14
$GPGSV,4,1,13,195,67,077,40,21,66,338,41,11,63,031,40,05,50,283,43*45
$GPGSV,4,2,13,06,35,090,37,13,32,182,43,194,26,172,42,19,20,154,34*48
$GPGSV,4,3,13,12,16,241,36,15,13,210,38,40,12,255,34,09,11,039,24*73
$GPGSV,4,4,13,25,10,277,33*4F
$BDGSV,4,1,13,27,80,089,39,10,67,240,,07,66,208,39,08,59,283,38*6E
$BDGSV,4,2,13,03,54,199,41,13,51,269,39,01,47,137,42,28,37,127,44*60
$BDGSV,4,3,13,30,37,318,39,04,37,118,,02,36,234,33,05,15,253,31*67
$BDGSV,4,4,13,20,06,222,*5C
$GNRMC,094747.000,A,3018.4262,N,12004.6623,E,0.00,186.67,270326,,,D*7E
$GNVTG,186.67,T,,M,0.00,N,0.00,K,D*28
$GNGGA,094748.000,3018.4262,N,12004.6623,E,2,20,0.64,19.6,M,7.0,M,,*70
$GNGLL,3018.4262,N,12004.6623,E,094748.000,A,D*4A
$GPGSA,A,3,21,11,05,06,13,15,09,25,194,195,19,12,1.08,0.64,0.87*04
$BDGSA,A,3,01,08,30,27,07,03,13,28,,,,,1.08,0.64,0.87*14
$GPGSV,4,1,13,195,67,077,40,21,66,338,41,11,63,031,40,05,50,283,43*45
$GPGSV,4,2,13,06,35,090,37,13,32,182,43,194,26,172,42,19,20,154,34*48
$GPGSV,4,3,13,12,16,241,36,15,13,210,38,40,12,255,34,09,11,039,24*73
$GPGSV,4,4,13,25,10,277,32*4E
$BDGSV,4,1,13,27,80,089,39,10,67,240,,07,66,208,39,08,59,283,38*6E
$BDGSV,4,2,13,03,54,199,41,13,51,269,39,01,47,137,42,28,37,127,44*60
$BDGSV,4,3,13,30,37,318,39,04,37,118,,02,36,234,33,05,15,253,31*67
$BDGSV,4,4,13,20,06,222,*5C
$GNRMC,094748.000,A,3018.4262,N,12004.6623,E,0.00,186.67,270326,,,D*71
$GNVTG,186.67,T,,M,0.00,N,0.00,K,D*28
$GNGGA,094749.000,3018.4262,N,12004.6623,E,2,20,0.64,19.6,M,7.0,M,,*71
$GNGLL,3018.4262,N,12004.6623,E,094749.000,A,D*4B
$GPGSA,A,3,21,11,05,06,13,15,09,25,194,195,19,12,1.08,0.64,0.87*04
$BDGSA,A,3,01,08,30,27,07,03,13,28,,,,,1.08,0.64,0.87*14
$GPGSV,4,1,13,195,67,077,40,21,66,338,41,11,63,031,40,05,50,283,42*44
$GPGSV,4,2,13,06,35,090,37,13,32,182,43,194,26,172,42,19,20,154,34*48
$GPGSV,4,3,13,12,16,241,36,15,13,210,38,40,12,255,33,09,11,039,23*73
$GPGSV,4,4,13,25,10,277,32*4E
$BDGSV,4,1,13,27,80,089,39,10,67,240,,07,66,208,39,08,59,283,38*6E
$BDGSV,4,2,13,03,54,199,41,13,51,269,39,01,47,137,42,28,37,127,44*60
$BDGSV,4,3,13,30,37,318,39,04,37,118,,02,36,234,33,05,15,253,31*67
$BDGSV,4,4,13,20,06,222,*5C
$GNRMC,094749.000,A,3018.4262,N,12004.6623,E,0.02,186.67,270326,,,D*72
$GNVTG,186.67,T,,M,0.02,N,0.03,K,D*29
$GNGGA,094750.000,3018.4262,N,12004.6623,E,2,20,0.64,19.6,M,7.0,M,,*79
$GNGLL,3018.4262,N,12004.6623,E,094750.000,A,D*43
