GNGLL,3018.4751,N,12004.6494,E,100456.000,A,D*41
$GPGSA,A,3,21,11,05,06,13,15,25,20,195,194,12,,1.02,0.70,0.74*04
$BDGSA,A,3,20,08,01,30,04,27,07,28,13,03,02,,1.02,0.70,0.74*13
$GPGSV,5,1,17,195,67,081,34,21,63,354,40,11,63,049,33,05,53,296,44*4F
$GPGSV,5,2,17,20,41,194,35,13,40,181,42,06,31,098,19,194,24,172,39*44
$GPGSV,5,3,17,29,23,317,,15,19,212,38,30,15,106,,19,13,155,*7B
$GPGSV,5,4,17,12,12,235,40,40,12,255,28,07,09,072,,25,07,271,32*7F
$GPGSV,5,5,17,09,05,037,*47
$BDGSV,4,1,13,27,75,122,42,10,64,235,,07,62,208,38,08,58,292,38*6D
$BDGSV,4,2,13,03,54,199,35,13,50,277,40,01,47,137,37,30,44,318,43*65
$BDGSV,4,3,13,02,37,234,35,04,37,118,35,28,31,133,40,05,15,253,*6E
$BDGSV,4,4,13,20,12,226,27*58
$GNRMC,100456.000,A,3018.4751,N,12004.6494,E,0.01,347.32,270326,,,D*74
$GNVTG,347.32,T,,M,0.01,N,0.01,K,D*27
$GNGGA,100457.000,3018.4751,N,12004.6494,E,2,22,0.70,17.5,M,7.0,M,,*70
$GNGLL,3018.4751,N,12004.6494,E,100457.000,A,D*40
$GPGSA,A,3,21,11,05,06,13,15,25,20,195,194,12,,1.02,0.70,0.74*04
$BDGSA,A,3,20,08,01,30,04,27,07,28,13,03,02,,1.02,0.70,0.74*13
$GPGSV,5,1,17,195,67,081,35,21,63,354,40,11,63,049,34,05,53,296,44*49
$GPGSV,5,2,17,20,41,194,36,13,40,181,43,06,31,098,19,194,24,172,31*4E
$GPGSV,5,3,17,29,23,317,,15,19,212,38,30,15,106,,19,13,155,*7B
$GPGSV,5,4,17,12,12,235,41,40,12,255,28,07,09,072,,25,07,271,31*7D
$GPGSV,5,5,17,09,04,037,*46
$BDGSV,4,1,13,27,75,122,42,10,64,235,,07,62,208,39,08,58,292,38*6C
$BDGSV,4,2,13,03,54,199,35,13,50,277,40,01,47,137,38,30,44,318,43*6A
$BDGSV,4,3,13,02,37,234,35,04,37,118,36,28,31,133,40,05,15,253,*6D
$BDGSV,4,4,13,20,12,226,29*56
$GNRMC,100457.000,A,3018.4751,N,12004.6494,E,0.03,347.32,270326,,,D*77
$GNVTG,347.32,T,,M,0.03,N,0.06,K,D*22
$GNGGA,100458.000,3018.4751,N,12004.6494,E,2,22,0.70,17.5,M,7.0,M,,*7F
$GNGLL,3018.4751,N,12004.6494,E,100458.000,A,D*4F
$GPGSA,A,3,21,11,05,06,13,15,25,20,195,194,12,,1.02,0.70,0.74*04
$BDGSA,A,3,20,08,01,30,04,27,07,28,13,03,02,,1.02,0.70,0.74*13
$GPGSV,5,1,17,195,67,081,35,21,63,354,40,11,63,049,34,05,53,296,44*49
$GPGSV,5,2,17,20,41,194,45,13,40,181,43,06,31,098,20,194,24,172,32*43
$GPGSV,5,3,17,29,23,317,,15,19,212,38,30,15,106,,19,13,155,*7B
$GPGSV,5,4,17,12,12,235,41,40,12,255,28,07,09,072,,25,07,271,32*7E
$GPGSV,5,5,17,09,04,037,*46
$BDGSV,4,1,13,27,75,122,41,10,64,235,,07,62,208,40,08,58,292,38*61
$BDGSV,4,2,13,03,54,199,36,13,50,277,40,01,47,137,38,30,44,318,43*69
$BDGSV,4,3,13,02,37,234,26,04,37,118,36,28,31,133,40,05,15,253,*6F
$BDGSV,4,4,13,20,12,226,28*57
$GNRMC,100458.000,A,3018.4751,N,12004.6494,E,0.04,347.32,270326,,,D*7F
$GNVTG,347.32,T,,M,0.04,N,0.07,K,D*24
$GNGGA,100459.000,3018.4751,N,12004.6494,E,2,22,0.70,17.5,M,7.0,M,,*7E
$GNGLL,3018.4751,N,12004.6494,E,100459.000,A,D*4E
$GPGSA,A,3,21,11,05,06,13,15,25,20,195,194,12,,1.02,0.70,0.74*04
$BDGSA,A,3,20,08,01,30,04,27,07,28,13,03,02,,1.02,0.70,0.74*13
$GPGSV,5,1,17,195,67,081,35,21,63,354,39,11,63,051,33,05,53,296,44*49
$GPGSV,5,2,17,20,41,194,45,13,40,181,43,06,31,098,20,194,24,172,31*40
$GPGSV,5,3,17,29,23,317,,15,19,212,38,30,15,106,,19,13,155,*7B
$GPGSV,5,4,17,12,12,235,41,40,12,255,28,07,09,072,,25,07,271,32*7E
$GPGSV,5,5,17,09,04,037,*46
$BDGSV,4,1,13,27,75,122,41,10,64,235,,07,62,208,40,08,58,292,38*61
$BDGSV,4,2,13,03,54,199,37,13,50,277,40,01,47,137,38,30,44,318,43*68
$BDGSV,4,3,13,02,37,234,25,04,37,118,36,28,31,133,39,05,15,253,*62
$BDGSV,4,4,13,20,12,226,27*58
$GNRMC,100459.000,A,3018.4751,N,12004.6494,E,0.03,347.32,270326,,,D*79
$GNVTG,347.32,T,,M,0.03,N,0.06,K,D*22
$GNGGA,100500.000,3018.4751,N,12004.6495,E,2,22,0.70,17.4,M,7.0,M,,*73
$GNGLL,3018.4751,N,12004.6495,E,100500.000,A,D*42
$GPGSA,A,3,21,11,05,06,13,15,25,20,195,194,12,,1.02,0.70,0.74*04
$BDGSA,A,3,20,08,01,30,04,27,07,28,13,03,02,,1.02,0.70,0.74*13
$GPGSV,5,1,17,195,67,081,34,21,63,354,38,11,63,051,34,05,53,296,44*4E
$GPGSV,5,2,17,20,41,194,45,13,40,181,43,06,31,098,20,194,24,172,32*43
$GPGSV,5,3,17,29,23,317,,15,19,212,38,30,15,106,,19,13,155,*7B
$GPGSV,5,4,17,12,12,234,41,40,12,255,29,07,09,072,,25,07,271,31*7D
$GPGSV,5,5,17,09,04,037,*46
$BDGSV,4,1,13,27,75,122,41,10,64,235,,07,62,208,41,08,58,292,38*60
$BDGSV,4,2,13,03,54,199,38,13,50,277,40,01,47,137,37,30,44,318,33*6F
$BDGSV,4,3,13,02,37,234,25,04,37,118,36,28,31,133,39,05,15,253,*62
$BDGSV,4,4,13,20,12,226,25*5A
$GNRMC,100500.000,A,3018.4751,N,12004.6495,E,0.05,347.32,270326,,,D*73
$GNVTG,347.32,T,,M,0.05,N,0.09,K,D*2B
$GNGGA,100501.000,3018.4751,N,12004.6495,E,2,20,0.72,17.4,M,7.0,M,,*72
$GNGLL,3018.4751,N,12004.6495,E,100501.000,A,D*43
$GPGSA,A,3,21,11,05,06,13,15,25,20,195,194,12,,1.05,0.72,0.77*02
$BDGSA,A,3,08,01,30,04,27,28,13,03,02,,,,1.05,0.72,0.77*10
$GPGSV,5,1,17,195,67,081,34,21,63,354,39,11,63,051,33,05,53,296,43*4F
$GPGSV,5,2,17,20,41,194,44,13,40,181,44,06,31,098,19,194,24,172,33*4E
$GPGSV,5,3,17,29,23,317,,15,19,212,38,30,15,106,,19,13,155,18*72
$GPGSV,5,4,17,12,12,234,41,40,12,255,30,07,09,072,,25,07,271,29*7C
$GPGSV,5,5,17,09,04,037,*46
$BDGSV,4,1,13,27,75,122,41,10,64,235,,07,62,208,41,08,58,292,38*60
$BDGSV,4,2,13,03,54,199,38,13,50,277,40,01,47,137,37,30,44,318,41*6A
$BDGSV,4,3,13,02,37,234,34,04,37,118,36,28,31,133,39,05,15,253,*62
$BDGSV,4,4,13,20,12,226,25*5A
$GNRMC,100501.000,A,3018.4751,N,12004.6495,E,0.04,347.32,270326,,,D*73
$GNVTG,347.32,T,,M,0.04,N,0.07,K,D*24
$GNGGA,100502.000,3018.4751,N,12004.6495,E,2,21,0.70,17.4,M,7.0,M,,*72
$GNGLL,3018.4751,N,12004.6495,E,100502.000,A,D*40
$GPGSA,A,3,21,11,05,06,13,15,25,20,195,194,12,,1.04,0.70,0.76*00
$BDGSA,A,3,20,08,01,30,04,27,28,13,03,02,,,1.04,0.70,0.76*10
$GPGSV,5,1,17,195,67,081,34,21,63,354,40,11,63,051,32,05,53,296,43*40
$GPGSV,5,2,17,20,41,194,44,13,40,181,44,06,31,098,19,194,24,172,33*4E
$GPGSV,5,3,17,29,23,317,,15,19,212,38,30,15,106,,19,13,155,18*72
$GPGSV,5,4,17,12,12,234,40,40,12,255,30,07,09,072,,25,07,271,30*75
$GPGSV,5,5,17,09,04,037,*46
$BDGSV,4,1,13,27,75,122,41,10,64,235,,07,62,208,41,08,58,292,38*60
$BDGSV,4,2,13,03,54,199,38,13,50,277,40,01,47,137,37,30,44,318,41*6A
$BDGSV,4,3,13,02,37,234,34,04,37,118,36,28,31,133,39,05,15,253,*62
$BDGSV,4,4,13,20,12,226,36*58
$GNRMC,100502.000,A,3018.4751,N,12004.6495,E,0.04,347.32,270326,,,D*70
$GNVTG,347.32,T,,M,0.04,N,0.08,K,D*2B
$GNGGA,100503.000,3018.4751,N,12004.6495,E,2,22,0.69,17.4,M,7.0,M,,*78
$GNGLL,3018.4751,N,12004.6495,E,100503.000,A,D*41
$GPGSA,A,3,21,11,05,06,13,15,19,25,20,195,194,12,1.02,0.69,0.75*05
$BDGSA,A,3,20,08,01,30,04,27,28,13,03,02,,,1.02,0.69,0.75*1D
$GPGSV,5,1,17,195,67,081,34,21,63,354,40,11,63,051,32,05,53,296,43*40
$GPGSV,5,2,17,20,41,194,44,13,40,181,44,06,31,098,21,194,24,172,33*45
$GPGSV,5,3,17,29,23,317,,15,20,212,38,30,15,106,,19,13,155,17*77
$GPGSV,5,4,17,12,12,234,39,40,12,255,28,07,09,072,,25,07,271,31*73
$GPGSV,5,5,17,09,04,037,*46
$BDGSV,4,1,13,27,75,122,41,10,64,235,,07,62,208,41,08,58,292,38*60
$BDGSV,4,2,13,03,54,199,38,13,50,277,39,01,47,137,37,30,44,318,42*67
$BDGSV,4,3,13,02,37,234,34,04,37,118,35,28,31,133,39,05,15,253,*61
$BDGSV,4,4,13,20,12,226,36*58
$GNRMC,100503.000,A,3018.4751,N,12004.6495,E,0.02,347.32,270326,,,D*77
$GNVTG,347.32,T,,M,0.02,N,0.04,K,D*21
$GNGGA,100504.000,3018.4751,N,12004.6495,E,2,22,0.69,17.4,M,7.0,M,,*7F
$GNGLL,3018.4751,N,12004.6495,E,100504.000,A,D*46
$GPGSA,A,3,21,11,05,06,13,15,19,25,20,195,194,12,1.02,0.69,0.75*05
$BDGSA,A,3,20,08,01,30,04,27,28,13,03,02,,,1.02,0.69,0.75*1D
$GPGSV,5,1,17,195,67,081,34,21,63,354,40,11,63,051,33,05,53,296,43*41
$GPGSV,5,2,17,20,41,194,44,13,40,181,43,06,31,098,32,194,24,172,33*40
$GPGSV,5,3,17,29,23,317,,15,20,212,38,30,15,106,,19,13,155,17*77
$GPGSV,5,4,17,12,12,234,38,40,12,255,29,07,09,072,,25,07,271,30*72
$GPGSV,5,5,17,09,04,037,*46
$BDGSV,4,1,13,27,75,122,41,10,64,235,,07,62,208,41,08,58,292,38*60
$BDGSV,4,2,13,03,54,199,38,13,50,277,40,01,47,137,38,30,44,318,43*67
$BDGSV,4,3,13,02,37,234,32,04,37,118,34,28,31,133,40,05,15,253,*68
$BDGSV,4,4,13,20,12,226,35*5B
$GNRMC,100504.000,A,3018.4751,N,12004.6495,E,0.04,347.32,270326,,,D*76
$GNVTG,347.32,T,,M,0.04,N,0.07,K,D*24
$GNGGA,100505.000,3018.4751,N,12004.6495,E,2,21,0.70,17.4,M,7.0,M,,*75
$GNGLL,3018.4751,N,12004.6495,E,100505.000,A,D*47
$GPGSA,A,3,21,11,05,06,13,15,19,25,20,195,194,12,1.03,0.70,0.75*0C
$BDGSA,A,3,08,01,30,04,27,28,13,03,02,,,,1.03,0.70,0.75*16
$GPGSV,5,1,17,195,67,081,35,21,63,354,40,11,63,051,33,05,53,296,43*40
$GPGSV,5,2,17,20,41,194,44,13,40,181,43,06,31,098,32,194,24,172,32*41
$GPGSV,5,3,17,29,23,317,,15,20,212,27,30,15,106,,19,13,155,17*79
$GPGSV,5,4,17,12,12,234,38,40,12,255,28,07,09,072,,25,07,271,29*7B
$GPGSV,5,5,17,09,04,037,*46
$BDGSV,4,1,13,27,75,122,41,10,64,235,,07,62,208,40,08,58,292,38*61
$BDGSV,4,2,13,03,54,199,38,13,50,277,40,01,47,137,38,30,44,318,43*67
$BDGSV,4,3,13,02,37,234,32,04,37,118,34,28,31,133,40,05,15,253,*68
$BDGSV,4,4,13,20,12,226,29*56
$GNRMC,100505.000,A,3018.4751,N,12004.6495,E,0.02,347.32,270326,,,D*71
$GNVTG,347.32,T,,M,0.02,N,0.04,K,D*21
$GNGGA,100506.000,3018.4751,N,12004.6495,E,2,22,0.69,17.4,M,7.0,M,,*7D
$GNGLL,3018.4751,N,12004.6495,E,100506.000,A,D*44
$GPGSA,A,3,21,11,05,06,13,15,19,25,20,195,194,12,1.02,0.69,0.75*05
$BDGSA,A,3,20,08,01,30,04,27,28,13,03,02,,,1.02,0.69,0.75*1D
$GPGSV,5,1,17,195,67,081,35,21,63,354,40,11,63,051,33,05,53,296,43*40
$GPGSV,5,2,17,20,41,194,43,13,40,181,43,06,31,098,31,194,24,172,33*44
$GPGSV,5,3,17,29,23,317,,15,20,212,34,30,15,106,,19,13,155,17*7B
$GPGSV,5,4,17,12,12,234,39,40,12,255,28,07,09,072,,25,07,271,29*7A
$GPGSV,5,5,17,09,04,037,*46
$BDGSV,4,1,13,27,75,122,41,10,64,235,,07,62,208,39,08,58,292,38*6F
$BDGSV,4,2,13,03,54,199,37,13,50,277,40,01,47,137,38,30,44,318,43*68
$BDGSV,4,3,13,02,37,234,32,04,37,118,34,28,31,133,40,05,15,253,*68
$BDGSV,4,4,13,20,12,226,31*5F
$GNRMC,100506.000,A,3018.4751,N,12004.6495,E,0.01,347.32,270326,,,D*71
$GNVTG,347.32,T,,M,0.01,N,0.01,K,D*27
$GNGGA,100507.000,3018.4751,N,12004.6495,E,2,22,0.69,17.4,M,7.0,M,,*7C
$GNGLL,3018.4751,N,12004.6495,E,100507.000,A,D*45
$GPGSA,A,3,21,11,05,06,13,15,19,25,20,195,194,12,1.02,0.69,0.75*05
$BDGSA,A,3,20,08,01,30,04,27,28,13,03,02,,,1.02,0.69,0.75*1D
$GPGSV,5,1,17,195,67,081,35,21,63,354,40,11,63,051,33,05,53,296,43*40
$GPGSV,5,2,17,20,41,194,42,13,40,181,42,06,31,098,31,194,24,172,34*43
$GPGSV,5,3,17,29,23,317,,15,20,212,33,30,15,106,,19,12,155,17*7D
$GPGSV,5,4,17,12,12,234,39,40,12,255,28,07,09,072,,25,07,271,29*7A
$GPGSV,5,5,17,09,04,037,*46
$BDGSV,4,1,13,27,75,122,41,10,64,235,,07,62,208,39,08,58,292,38*6F
$BDGSV,4,2,13,03,54,199,37,13,50,277,40,01,47,137,38,30,44,318,43*68
$BDGSV,4,3,13,02,37,234,33,04,37,118,34,28,31,133,40,05,15,253,*69
$BDGSV,4,4,13,20,12,226,38*56
$GNRMC,100507.000,A,3018.4751,N,12004.6495,E,0.03,347.32,270326,,,D*72
$GNVTG,347.32,T,,M,0.03,N,0.06,K,D*22
$GNGGA,100508.000,3018.4751,N,12004.6495,E,2,22,0.69,17.4,M,7.0,M,,*73
$GNGLL,3018.4751,N,12004.6495,E,100508.000,A,D*4A
$GPGSA,A,3,21,11,05,06,13,15,19,25,20,195,194,12,1.02,0.69,0.75*05
$BDGSA,A,3,20,08,01,30,04,27,28,13,03,02,,,1.02,0.69,0.75*1D
$GPGSV,5,1,17,195,67,081,34,21,63,354,40,11,63,051,33,05,53,296,43*41
$GPGSV,5,2,17,20,42,195,41,13,40,181,42,06,31,098,33,194,24,172,34*40
$GPGSV,5,3,17,29,23,317,,15,20,212,34,30,15,106,,19,12,155,18*75
$GPGSV,5,4,17,12,12,234,38,40,12,255,28,07,09,072,,25,07,271,29*7B
$GPGSV,5,5,17,09,04,037,*46
$BDGSV,4,1,13,27,75,122,41,10,64,235,,07,62,208,39,08,58,292,38*6F
$BDGSV,4,2,13,03,54,199,36,13,50,277,40,01,47,137,38,30,44,318,43*69
$BDGSV,4,3,13,02,37,234,34,04,37,118,33,28,31,133,40,05,15,253,*69
$BDGSV,4,4,13,20,12,226,37*59
$GNRMC,100508.000,A,3018.4751,N,12004.6495,E,0.02,347.32,270326,,,D*7C
$GNVTG,347.32,T,,M,0.02,N,0.04,K,D*21
$GNGGA,100509.000,3018.4751,N,12004.6495,E,2,22,0.69,17.3,M,7.0,M,,*75
$GNGLL,3018.4751,N,12004.6495,E,100509.000,A,D*4B
$GPGSA,A,3,21,11,05,06,13,15,19,25,20,195,194,12,1.02,0.69,0.75*05
$BDGSA,A,3,20,08,01,30,04,27,28,13,03,02,,,1.02,0.69,0.75*1D
$GPGSV,5,1,17,195,67,081,34,21,63,356,40,11,63,051,32,05,53,296,43*42
$GPGSV,5,2,17,20,42,195,41,13,40,181,43,06,31,098,34,194,24,172,35*47
$GPGSV,5,3,17,29,23,317,,15,20,212,35,30,15,106,,19,12,155,18*74
$GPGSV,5,4,17,12,12,234,38,40,12,255,29,07,09,072,,25,07,271,29*7A
$GPGSV,5,5,17,09,04,037,*46
$BDGSV,4,1,13,27,75,122,41,10,64,235,,07,62,208,39,08,58,292,38*6F
$BDGSV,4,2,13,03,54,199,35,13,50,277,40,01,47,137,38,30,44,318,43*6A
$BDGSV,4,3,13,02,37,234,33,04,37,118,33,28,31,133,41,05,15,253,*6F
$BDGSV,4,4,13,20,12,226,36*58
$GNRMC,100509.000,A,3018.4751,N,12004.6495,E,0.01,347.32,270326,,,D*7E
$GNVTG,347.32,T,,M,0.01,N,0.02,K,D*24
$GNGGA,100510.000,3018.4752,N,12004.6495,E,2,22,0.69,17.3,M,7.0,M,,*7E
$GNGLL,3018.4752,N,12004.6495,E,100510.000,A,D*40
$GPGSA,A,3,21,11,05,06,13,15,19,25,20,195,194,12,1.02,0.69,0.75*05
$BDGSA,A,3,20,08,01,30,04,27,28,13,03,02,,,1.02,0.69,0.75*1D
$GPGSV,5,1,17,195,67,081,33,21,63,356,40,11,63,051,31,05,53,296,30*42
$GPGSV,5,2,17,20,42,195,42,13,40,181,43,06,31,098,34,194,24,172,35*44
$GPGSV,5,3,17,29,23,317,,15,20,212,36,30,15,106,,19,12,155,18*77
$GPGSV,5,4,17,12,12,234,39,40,12,255,28,07,09,072,,25,07,271,28*7B
$GPGSV,5,5,17,09,04,037,*46
$BDGSV,4,1,13,27,75,122,41,10,64,235,,07,62,208,39,08,58,292,30*67
$BDGSV,4,2,13,03,54,199,37,13,50,277,26,01,47,137,38,30,44,318,42*69
$BDGSV,4,3,13,02,37,234,31,04,37,118,33,28,31,133,41,05,15,253,*6D
$BDGSV,4,4,13,20,12,226,28*57
$GNRMC,100510.000,A,3018.4752,N,12004.6495,E,0.02,347.32,270326,,,D*76
$GNVTG,347.32,T,,M,0.02,N,0.05,K,D*20
$GNGGA,100511.000,3018.4752,N,12004.6495,E,2,22,0.69,17.3,M,7.0,M,,*7F
$GNGLL,3018.4752,N,12004.6495,E,100511.000,A,D*41
$GPGSA,A,3,21,11,05,06,13,15,19,25,20,195,194,12,1.02,0.69,0.75*05
$BDGSA,A,3,20,08,01,30,04,27,28,13,03,02,,,1.02,0.69,0.75*1D
$GPGSV,5,1,17,195,67,081,33,21,63,356,39,11,63,051,32,05,53,296,43*4B
$GPGSV,5,2,17,20,42,195,43,13,40,181,42,06,31,098,35,194,24,172,35*45
$GPGSV,5,3,17,29,23,317,,15,20,212,36,30,15,106,,19,12,155,17*78
$GPGSV,5,4,17,12,12,234,39,40,12,255,29,07,09,072,,25,07,271,28*7A
$GPGSV,5,5,17,09,04,037,*46
$BDGSV,4,1,13,27,75,122,40,10,64,235,,07,62,208,39,08,58,292,38*6E
$BDGSV,4,2,13,03,54,199,38,13,50,277,40,01,47,137,38,30,44,318,43*67
$BDGSV,4,3,13,02,37,234,32,04,37,118,33,28,31,133,41,05,15,253,*6E
$BDGSV,4,4,13,20,12,226,29*56
$GNRMC,100511.000,A,3018.4752,N,12004.6495,E,0.05,347.32,270326,,,D*70
$GNVTG,347.32,T,,M,0.05,N,0.09,K,D*2B
$GNGGA,100512.000,3018.4752,N,12004.6495,E,2,22,0.69,17.3,M,7.0,M,,*7C
$GNGLL,3018.4752,N,12004.6495,E,100512.000,A,D*42
$GPGSA,A,3,21,11,05,06,13,15,19,25,20,195,194,12,1.02,0.69,0.75*05
$BDGSA,A,3,20,08,01,30,04,27,28,13,03,02,,,1.02,0.69,0.75*1D
$GPGSV,5,1,17,195,67,081,32,21,63,356,39,11,63,051,32,05,53,296,43*4A
$GPGSV,5,2,17,20,42,195,43,13,40,181,42,06,31,098,35,194,24,172,36*46
$GPGSV,5,3,17,29,23,317,,15,20,212,36,30,15,106,,19,12,155,18*77
$GPGSV,5,4,17,12,12,234,39,40,12,255,29,07,09,072,,25,07,271,28*7A
$GPGSV,5,5,17,09,04,037,*46
$BDGSV,4,1,13,27,75,122,40,10,64,235,,07,62,208,39,08,58,292,38*6E
$BDGSV,4,2,13,03,54,199,38,13,50,277,40,01,47,137,38,30,44,318,43*67
$BDGSV,4,3,13,02,37,234,32,04,37,118,32,28,31,133,41,05,15,253,*6F
$BDGSV,4,4,13,20,12,226,29*56
$GNRMC,100512.000,A,3018.4752,N,12004.6495,E,0.07,347.32,270326,,,D*71
$GNVTG,347.32,T,,M,0.07,N,0.13,K,D*22
$GNGGA,100513.000,3018.4752,N,12004.6495,E,2,22,0.69,17.3,M,7.0,M,,*7D
$GNGLL,3018.4752,N,12004.6495,E,100513.000,A,D*43
$GPGSA,A,3,21,11,05,06,13,15,19,25,20,195,194,12,1.02,0.69,0.75*05
$BDGSA,A,3,20,08,01,30,04,27,28,13,03,02,,,1.02,0.69,0.75*1D
$GPGSV,5,1,17,195,67,081,32,21,63,356,39,11,63,051,31,05,53,296,43*49
$GPGSV,5,2,17,20,42,195,43,13,40,181,42,06,31,098,35,194,24,172,35*45
$GPGSV,5,3,17,29,23,317,,15,20,212,36,30,15,106,,19,12,155,16*79
$GPGSV,5,4,17,12,12,234,39,40,12,255,28,07,09,072,,25,07,270,28*7A
$GPGSV,5,5,17,09,04,037,*46
$BDGSV,4,1,13,27,75,122,40,10,64,235,,07,62,208,39,08,58,292,38*6E
$BDGSV,4,2,13,03,54,199,38,13,50,277,40,01,47,137,38,30,44,318,43*67
$BDGSV,4,3,13,02,37,234,32,04,37,118,32,28,31,133,41,05,15,253,*6F
$BDGSV,4,4,13,20,12,226,29*56
$GNRMC,100513.000,A,3018.4752,N,12004.6495,E,0.03,347.32,270326,,,D*74
$GNVTG,347.32,T,,M,0.03,N,0.05,K,D*21
$GNGGA,100514.000,3018.4752,N,12004.6495,E,2,22,0.69,17.3,M,7.0,M,,*7A
$GNGLL,3018.4752,N,12004.6495,E,100514.000,A,D*44
$GPGSA,A,3,21,11,05,06,13,15,19,25,20,195,194,12,1.02,0.69,0.75*05
$BDGSA,A,3,20,08,01,30,04,27,28,13,03,02,,,1.02,0.69,0.75*1D
$GPGSV,5,1,17,195,67,081,32,21,63,356,38,11,63,051,31,05,53,296,42*49
$GPGSV,5,2,17,20,42,195,42,13,40,181,42,06,31,098,35,194,24,172,34*45
$GPGSV,5,3,17,29,23,317,,15,20,212,36,30,15,106,,19,12,155,16*79
$GPGSV,5,4,17,12,12,234,40,40,12,255,28,07,09,072,,25,07,270,27*7B
$GPGSV,5,5,17,09,04,037,*46
$BDGSV,4,1,13,27,75,122,40,10,64,235,,07,62,208,39,08,58,292,38*6E
$BDGSV,4,2,13,03,54,199,38,13,50,277,40,01,47,137,39,30,44,318,42*67
$BDGSV,4,3,13,02,37,234,32,04,37,118,33,28,31,133,41,05,15,253,*6E
$BDGSV,4,4,13,20,12,226,29*56
$GNRMC,100514.000,A,3018.4752,N,12004.6495,E,0.12,347.32,270326,,,D*73
$GNVTG,347.32,T,,M,0.12,N,0.22,K,D*24
$GNGGA,100515.000,3018.4752,N,12004.6495,E,2,22,0.70,17.2,M,7.0,M,,*72
$GNGLL,3018.4752,N,12004.6495,E,100515.000,A,D*45
$GPGSA,A,3,21,11,05,06,13,15,25,20,195,194,12,,1.02,0.70,0.74*04
$BDGSA,A,3,20,08,01,30,04,27,07,28,13,03,02,,1.02,0.70,0.74*13
$GPGSV,5,1,17,195,67,081,32,21,63,356,36,11,63,051,32,05,53,296,42*44
$GPGSV,5,2,17,20,42,195,42,13,40,181,42,06,31,098,36,194,24,172,33*41
$GPGSV,5,3,17,29,23,317,,15,20,212,35,30,15,106,,19,12,155,13*7F
$GPGSV,5,4,17,12,12,234,39,40,12,255,28,07,09,072,,25,07,270,27*75
$GPGSV,5,5,17,09,04,037,*46
$BDGSV,4,1,13,27,75,122,40,10,64,235,,07,62,208,39,08,58,292,37*61
$BDGSV,4,2,13,03,54,199,38,13,50,277,40,01,47,137,39,30,44,318,40*65
$BDGSV,4,3,13,02,37,234,33,04,37,118,33,28,31,133,41,05,15,253,*6F
$BDGSV,4,4,13,20,12,226,29*56
$GNRMC,100515.000,A,3018.4752,N,12004.6495,E,0.06,347.32,270326,,,D*77
$GNVTG,347.32,T,,M,0.06,N,0.12,K,D*22
$GNGGA,100516.000,3018.4752,N,12004.6495,E,2,22,0.69,17.2,M,7.0,M,,*79
$GNGLL,3018.4752,N,12004.6495,E,100516.000,A,D*46
$GPGSA,A,3,21,11,05,06,13,15,19,25,20,195,194,12,1.02,0.69,0.75*05
$BDGSA,A,3,20,08,01,30,04,27,28,13,03,02,,,1.02,0.69,0.75*1D
$GPGSV,5,1,17,195,67,081,33,21,63,356,38,11,63,051,32,05,53,296,41*48
$GPGSV,5,2,17,20,42,195,42,13,40,181,42,06,31,098,36,194,24,172,32*40
$GPGSV,5,3,17,29,23,317,,15,20,212,35,30,15,106,,19,12,155,13*7F
$GPGSV,5,4,17,12,12,234,39,40,12,255,29,07,09,072,,25,07,270,27*74
$GPGSV,5,5,17,09,04,037,*46
$BDGSV,4,1,13,27,75,122,40,10,64,235,,07,62,208,39,08,58,292,36*60
$BDGSV,4,2,13,03,54,199,38,13,50,277,41,01,47,137,39,30,44,318,38*6B
$BDGSV,4,3,13,02,37,234,33,04,37,118,33,28,31,133,41,05,15,253,*6F
$BDGSV,4,4,13,20,12,226,29*56
$GNRMC,100516.000,A,3018.4752,N,12004.6495,E,0.05,347.32,270326,,,D*77
$GNVTG,347.32,T,,M,0.05,N,0.10,K,D*23
$GNGGA,100517.000,3018.4752,N,12004.6495,E,2,22,0.69,17.2,M,7.0,M,,*78
$GNGLL,3018.4752,N,12004.6495,E,100517.000,A,D*47
$GPGSA,A,3,21,11,05,06,13,15,19,25,20,195,194,12,1.02,0.69,0.75*05
$BDGSA,A,3,20,08,01,30,04,27,28,13,03,02,,,1.02,0.69,0.75*1D
$GPGSV,5,1,17,195,67,081,34,21,63,356,38,11,63,051,32,05,53,296,42*4C
$GPGSV,5,2,17,20,42,195,43,13,40,181,41,06,31,098,35,194,24,172,32*41
$GPGSV,5,3,17,29,23,316,,15,20,212,36,30,15,106,,19,12,155,12*7C
$GPGSV,5,4,17,12,12,234,39,40,12,255,29,07,09,072,,25,07,270,27*74
$GPGSV,5,5,17,09,04,037,*46
$BDGSV,4,1,13,27,75,122,40,10,64,235,,07,62,208,39,08,58,292,36*60
$BDGSV,4,2,13,03,54,199,38,13,50,277,40,01,47,137,39,30,44,318,40*65
$BDGSV,4,3,13,02,37,234,34,04,37,118,33,28,31,133,41,05,15,253,*68
$BDGSV,4,4,13,20,12,226,31*5F
$GNRMC,100517.000,A,3018.4752,N,12004.6495,E,0.07,347.32,270326,,,D*74
$GNVTG,347.32,T,,M,0.07,N,0.13,K,D*22
$GNGGA,100518.000,3018.4752,N,12004.6495,E,2,22,0.69,17.2,M,7.0,M,,*77
$GNGLL,3018.4752,N,12004.6495,E,100518.000,A,D*48
$GPGSA,A,3,21,11,05,06,13,15,19,25,20,195,194,12,1.02,0.69,0.75*05
$BDGSA,A,3,20,08,01,30,04,27,28,13,03,02,,,1.02,0.69,0.75*1D
$GPGSV,5,1,17,195,67,081,34,21,63,356,39,11,63,051,32,05,53,296,43*4C
$GPGSV,5,2,17,20,42,195,41,13,40,181,41,06,31,098,34,194,24,172,32*42
$GPGSV,5,3,17,29,23,316,,15,20,212,36,30,15,105,,19,12,155,15*78
$GPGSV,5,4,17,12,12,234,39,40,12,255,29,07,09,072,,25,07,270,26*75
$GPGSV,5,5,17,09,04,037,*46
$BDGSV,4,1,13,27,75,122,39,10,64,235,,07,62,208,40,08,58,292,36*60
$BDGSV,4,2,13,03,54,199,38,13,50,277,40,01,47,137,39,30,44,318,41*64
$BDGSV,4,3,13,02,37,234,34,04,37,118,32,28,31,133,40,05,15,253,*68
$BDGSV,4,4,13,20,12,226,32*5C
$GNRMC,100518.000,A,3018.4752,N,12004.6495,E,0.10,347.32,270326,,,D*7D
$GNVTG,347.32,T,,M,0.10,N,0.18,K,D*2F
$GNGGA,100519.000,3018.4752,N,12004.6494,E,2,22,0.69,17.2,M,7.0,M,,*77
$GNGLL,3018.4752,N,12004.6494,E,100519.000,A,D*48
$GPGSA,A,3,21,11,05,06,13,15,19,25,20,195,194,12,1.02,0.69,0.75*05
$BDGSA,A,3,20,08,01,30,04,27,28,13,03,02,,,1.02,0.69,0.75*1D
$GPGSV,5,1,17,195,67,081,34,21,63,356,40,11,63,051,32,05,53,296,43*42
$GPGSV,5,2,17,20,42,195,40,13,40,181,41,06,31,098,34,194,24,172,33*42
$GPGSV,5,3,17,29,23,316,,15,20,212,29,30,15,105,,19,12,155,18*7B
$GPGSV,5,4,17,12,12,234,37,40,12,255,30,07,09,072,,25,07,270,26*73
$GPGSV,5,5,17,09,04,037,*46
$BDGSV,4,1,13,27,75,122,39,10,64,235,,07,62,208,40,08,58,292,37*61
$BDGSV,4,2,13,03,54,199,37,13,50,277,40,01,47,137,39,30,44,318,42*68
$BDGSV,4,3,13,02,37,234,34,04,37,118,31,28,31,133,41,05,15,253,*6A
$BDGSV,4,4,13,20,12,226,34*5A
$GNRMC,100519.000,A,3018.4752,N,12004.6494,E,0.04,347.32,270326,,,D*78
$GNVTG,347.32,T,,M,0.04,N,0.08,K,D*2B
$GNGGA,100520.000,3018.4753,N,12004.6495,E,2,22,0.69,17.2,M,7.0,M,,*7D
$GNGLL,3018.4753,N,12004.6495,E,100520.000,A,D*42
$GPGSA,A,3,21,11,05,06,13,15,19,25,20,195,194,12,1.02,0.69,0.75*05
$BDGSA,A,3,20,08,01,30,04,27,28,13,03,02,,,1.02,0.69,0.75*1D
$GPGSV,5,1,17,195,67,081,33,21,63,356,40,11,63,051,32,05,53,296,43*45
$GPGSV,5,2,17,20,42,195,40,13,40,181,40,06,31,098,35,194,24,172,34*45
$GPGSV,5,3,17,29,23,316,,15,20,212,31,30,15,105,,19,12,155,19*73
$GPGSV,5,4,17,12,12,234,36,40,12,255,31,07,09,072,,25,07,270,27*72
$GPGSV,5,5,17,09,04,037,*46
$BDGSV,4,1,13,27,75,122,39,10,64,235,,07,62,208,39,08,58,292,37*6F
$BDGSV,4,2,13,03,54,199,36,13,50,277,40,01,47,137,39,30,44,318,43*68
$BDGSV,4,3,13,02,37,234,34,04,37,118,30,28,31,133,41,05,15,253,*6B
$BDGSV,4,4,13,20,12,226,35*5B
$GNRMC,100520.000,A,3018.4753,N,12004.6495,E,0.01,347.32,270326,,,D*77
$GNVTG,347.32,T,,M,0.01,N,0.02,K,D*24
$GNGGA,100521.000,3018.4753,N,12004.6495,E,2,22,0.69,17.2,M,7.0,M,,*7C
$GNGLL,3018.4753,N,12004.6495,E,100521.000,A,D*43
$GPGSA,A,3,21,11,05,06,13,15,19,25,20,195,194,12,1.02,0.69,0.75*05
$BDGSA,A,3,20,08,01,30,04,27,28,13,03,02,,,1.02,0.69,0.75*1D
$GPGSV,5,1,17,195,67,081,33,21,63,356,40,11,63,051,32,05,53,296,43*45
$GPGSV,5,2,17,20,42,195,38,13,40,181,39,06,31,098,36,194,24,172,36*45
$GPGSV,5,3,17,29,23,316,,15,20,212,33,30,15,105,,19,12,155,20*7B
$GPGSV,5,4,17,12,12,234,37,40,12,255,30,07,09,072,,25,07,270,26*73
$GPGSV,5,5,17,09,04,037,*46
$BDGSV,4,1,13,27,75,122,39,10,64,235,,07,62,208,38,08,58,292,38*61
$BDGSV,4,2,13,03,54,199,36,13,50,277,40,01,47,137,39,30,44,318,43*68
$BDGSV,4,3,13,02,37,234,34,04,37,118,30,28,31,133,41,05,15,253,*6B
$BDGSV,4,4,13,20,12,226,36*58
$GNRMC,100521.000,A,3018.4753,N,12004.6495,E,0.02,347.32,270326,,,D*75
$GNVTG,347.32,T,,M,0.02,N,0.04,K,D*21
$GNGGA,100522.000,3018.4753,N,12004.6495,E,2,22,0.69,17.2,M,7.0,M,,*7F
$GNGLL,3018.4753,N,12004.6495,E,100522.000,A,D*40
$GPGSA,A,3,21,11,05,06,13,15,19,25,20,195,194,12,1.02,0.69,0.75*05
$BDGSA,A,3,20,08,01,30,04,27,28,13,03,02,,,1.02,0.69,0.75*1D
$GPGSV,5,1,17,195,67,081,33,21,63,356,40,11,63,051,32,05,53,296,43*45
$GPGSV,5,2,17,20,42,195,38,13,40,181,40,06,31,098,35,194,23,172,37*4E
$GPGSV,5,3,17,29,23,316,,15,20,212,34,30,15,105,,19,12,155,19*76
$GPGSV,5,4,17,12,12,234,38,40,12,255,30,07,09,072,,25,07,270,25*7F
$GPGSV,5,5,17,09,04,037,*46
$BDGSV,4,1,13,27,75,122,40,10,64,235,,07,62,208,36,08,58,292,38*61
$BDGSV,4,2,13,03,54,199,34,13,50,277,40,01,47,137,39,30,44,318,43*6A
$BDGSV,4,3,13,02,37,234,25,04,37,118,30,28,31,133,41,05,15,253,*6B
$BDGSV,4,4,13,20,12,226,28*57
$GNRMC,100522.000,A,3018.4753,N,12004.6495,E,0.04,347.32,270326,,,D*70
$GNVTG,347.32,T,,M,0.04,N,0.08,K,D*2B
$GNGGA,100523.000,3018.4753,N,12004.6495,E,2,22,0.69,17.2,M,7.0,M,,*7E
$GNGLL,3018.4753,N,12004.6495,E,100523.000,A,D*41
$GPGSA,A,3,21,11,05,06,13,15,19,25,20,195,194,12,1.02,0.69,0.75*05
$BDGSA,A,3,20,08,01,30,04,27,28,13,03,02,,,1.02,0.69,0.75*1D
$GPGSV,5,1,17,195,67,082,33,21,63,356,41,11,63,051,32,05,53,296,44*40
$GPGSV,5,2,17,20,42,195,39,13,40,181,40,06,31,098,35,194,23,172,37*4F
$GPGSV,5,3,17,29,23,316,,15,20,212,33,30,15,105,,19,12,155,19*71
$GPGSV,5,4,17,12,12,234,38,40,12,255,30,07,09,072,,25,07,270,26*7C
$GPGSV,5,5,17,09,04,037,*46
$BDGSV,4,1,13,27,75,122,40,10,64,235,,07,62,208,34,08,58,292,38*63
$BDGSV,4,2,13,03,54,199,34,13,50,277,40,01,47,137,38,30,44,318,44*6C
$BDGSV,4,3,13,02,37,234,26,04,37,118,30,28,31,133,41,05,15,253,*68
$BDGSV,4,4,13,20,12,226,27*58
$GNRMC,100523.000,A,3018.4753,N,12004.6495,E,0.03,347.32,270326,,,D*76
$GNVTG,347.32,T,,M,0.03,N,0.05,K,D*21
$GNGGA,100524.000,3018.4753,N,12004.6495,E,2,22,0.69,17.2,M,7.0,M,,*79
$GNGLL,3018.4753,N,12004.6495,E,100524.000,A,D*46
$GPGSA,A,3,21,11,05,06,13,15,19,25,20,195,194,12,1.02,0.69,0.75*05
$BDGSA,A,3,20,08,01,30,04,27,28,13,03,02,,,1.02,0.69,0.75*1D
$GPGSV,5,1,17,195,67,082,34,21,63,356,42,11,63,051,33,05,53,296,45*44
$GPGSV,5,2,17,20,42,195,41,13,40,181,39,06,31,098,34,194,23,172,37*4F
$GPGSV,5,3,17,29,23,316,,15,20,212,32,30,15,105,,19,12,155,19*70
$GPGSV,5,4,17,12,12,234,38,40,12,255,30,07,09,072,,25,07,270,28*72
$GPGSV,5,5,17,09,04,037,*46
$BDGSV,4,1,13,27,75,122,40,10,64,235,,07,62,208,33,08,58,292,39*65
$BDGSV,4,2,13,03,54,199,34,13,50,277,40,01,47,137,37,30,44,318,43*64
$BDGSV,4,3,13,02,37,234,26,04,37,118,30,28,31,133,41,05,15,253,*68
$BDGSV,4,4,13,20,12,226,20*5F
$GNRMC,100524.000,A,3018.4753,N,12004.6495,E,0.05,347.32,270326,,,D*77
$GNVTG,347.32,T,,M,0.05,N,0.10,K,D*23
$GNGGA,100525.000,3018.4753,N,12004.6495,E,2,22,0.69,17.1,M,7.0,M,,*7B
$GNGLL,3018.4753,N,12004.6495,E,100525.000,A,D*47
$GPGSA,A,3,21,11,05,06,13,15,19,25,20,195,194,12,1.02,0.69,0.75*05
$BDGSA,A,3,20,08,01,30,04,27,28,13,03,02,,,1.02,0.69,0.75*1D
$GPGSV,5,1,17,195,67,082,35,21,63,356,40,11,63,051,34,05,53,296,45*40
$GPGSV,5,2,17,20,42,195,41,13,40,181,39,06,31,098,34,194,23,172,38*40
$GPGSV,5,3,17,29,23,316,,15,20,212,32,30,15,105,,19,12,155,19*70
$GPGSV,5,4,17,12,12,234,39,40,12,255,31,07,09,072,,25,07,270,29*73
$GPGSV,5,5,17,09,04,037,*46
$BDGSV,4,1,13,27,75,122,41,10,64,235,,07,62,208,32,08,58,292,39*65
$BDGSV,4,2,13,03,54,199,27,13,50,277,40,01,47,137,37,30,44,318,41*64
$BDGSV,4,3,13,02,37,234,27,04,37,118,30,28,31,133,41,05,15,253,*69
$BDGSV,4,4,13,20,12,226,36*58
$GNRMC,100525.000,A,3018.4753,N,12004.6495,E,0.04,347.32,270326,,,D*77
$GNVTG,347.32,T,,M,0.04,N,0.08,K,D*2B
$GNGGA,100526.000,3018.4753,N,12004.6495,E,2,22,0.69,17.1,M,7.0,M,,*78
$GNGLL,3018.4753,N,12004.6495,E,100526.000,A,D*44
$GPGSA,A,3,21,11,05,06,13,15,19,25,20,195,194,12,1.02,0.69,0.75*05
$BDGSA,A,3,20,08,01,30,04,27,28,13,03,02,,,1.02,0.69,0.75*1D
$GPGSV,5,1,17,195,67,082,37,21,63,356,40,11,63,051,36,05,53,296,34*46
$GPGSV,5,2,17,20,42,195,40,13,40,181,39,06,31,098,34,194,23,172,38*41
$GPGSV,5,3,17,29,23,316,,15,20,212,34,30,15,105,,19,12,155,18*77
$GPGSV,5,4,17,12,12,234,40,40,12,255,32,07,09,072,,25,07,270,22*75
$GPGSV,5,5,17,09,04,037,*46
$BDGSV,4,1,13,27,75,122,41,10,64,235,,07,62,208,31,08,58,292,29*67
$BDGSV,4,2,13,03,54,199,35,13,50,277,29,01,47,137,37,30,44,318,39*67
$BDGSV,4,3,13,02,37,234,29,04,37,118,30,28,31,133,40,05,15,253,*66
$BDGSV,4,4,13,20,12,226,37*59
$GNRMC,100526.000,A,3018.4753,N,12004.6495,E,0.03,347.32,270326,,,D*73
$GNVTG,347.32,T,,M,0.03,N,0.05,K,D*21
$GNGGA,100527.000,3018.4753,N,12004.6495,E,2,22,0.69,17.1,M,7.0,M,,*79
$GNGLL,3018.4753,N,12004.6495,E,100527.000,A,D*45
$GPGSA,A,3,21,11,05,06,13,15,19,25,20,195,194,12,1.02,0.69,0.75*05
$BDGSA,A,3,20,08,01,30,04,27,28,13,03,02,,,1.02,0.69,0.75*1D
$GPGSV,5,1,17,195,67,082,38,21,63,356,41,11,63,051,38,05,53,296,34*46
$GPGSV,5,2,17,20,42,195,40,13,40,181,40,06,31,098,34,194,23,172,38*4F
$GPGSV,5,3,17,29,23,316,,15,20,212,35,30,15,105,,19,12,155,16*78
$GPGSV,5,4,17,12,12,234,41,40,12,255,32,07,09,072,,25,07,270,30*77
$GPGSV,5,5,17,09,04,037,*46
$BDGSV,4,1,13,27,75,122,42,10,64,235,,07,62,208,32,08,58,292,28*66
$BDGSV,4,2,13,03,54,199,34,13,50,277,29,01,47,137,37,30,44,318,39*66
$BDGSV,4,3,13,02,37,234,30,04,37,118,29,28,31,133,40,05,15,253,*66
$BDGSV,4,4,13,20,12,226,39*57
$GNRMC,100527.000,A,3018.4753,N,12004.6495,E,0.04,347.32,270326,,,D*75
$GNVTG,347.32,T,,M,0.04,N,0.08,K,D*2B
$GNGGA,100528.000,3018.4753,N,12004.6495,E,2,21,0.70,17.1,M,7.0,M,,*7D
$GNGLL,3018.4753,N,12004.6495,E,100528.000,A,D*4A
$GPGSA,A,3,21,11,05,06,13,15,19,25,20,195,194,12,1.03,0.70,0.75*0C
$BDGSA,A,3,08,01,30,04,27,28,13,03,02,,,,1.03,0.70,0.75*16
$GPGSV,5,1,17,195,67,082,38,21,63,356,40,11,63,051,39,05,53,296,32*40
$GPGSV,5,2,17,20,42,195,40,13,40,181,41,06,31,098,32,194,23,172,39*49
$GPGSV,5,3,17,29,23,316,,15,20,212,33,30,15,105,,19,12,155,15*7D
$GPGSV,5,4,17,12,12,234,41,40,12,255,31,07,09,072,,25,07,270,31*75
$GPGSV,5,5,17,09,04,037,*46
$BDGSV,4,1,13,27,75,122,41,10,64,235,,07,62,208,31,08,58,292,30*6F
$BDGSV,4,2,13,03,54,199,34,13,50,277,28,01,47,137,37,30,44,318,40*69
$BDGSV,4,3,13,02,37,234,29,04,37,118,30,28,31,133,33,05,15,253,*62
$BDGSV,4,4,13,20,12,226,25*5A
$GNRMC,100528.000,A,3018.4753,N,12004.6495,E,0.10,347.32,270326,,,D*7F
$GNVTG,347.32,T,,M,0.10,N,0.18,K,D*2F
$GNGGA,100529.000,3018.4753,N,12004.6495,E,2,22,0.69,17.1,M,7.0,M,,*77
$GNGLL,3018.4753,N,12004.6495,E,100529.000,A,D*4B
$GPGSA,A,3,21,11,05,06,13,15,19,25,20,195,194,12,1.02,0.69,0.75*05
$BDGSA,A,3,20,08,01,30,04,27,28,13,03,02,,,1.02,0.69,0.75*1D
$GPGSV,5,1,17,195,67,082,38,21,63,356,41,11,63,051,39,05,53,296,30*43
$GPGSV,5,2,17,20,42,195,41,13,40,181,42,06,31,098,31,194,23,172,40*46
$GPGSV,5,3,17,29,23,316,,15,20,212,32,30,15,105,,19,12,155,16*7F
$GPGSV,5,4,17,12,12,234,41,40,12,255,31,07,09,072,,25,07,270,32*76
$GPGSV,5,5,17,09,04,037,*46
$BDGSV,4,1,13,27,75,122,42,10,64,235,,07,62,208,32,08,58,292,31*6E
$BDGSV,4,2,13,03,54,199,35,13,50,277,20,01,47,137,37,30,44,318,40*60
$BDGSV,4,3,13,02,37,234,28,04,37,118,38,28,31,133,33,05,15,253,*6B
$BDGSV,4,4,13,20,12,226,31*5F
$GNRMC,100529.000,A,3018.4753,N,12004.6495,E,0.04,347.32,270326,,,D*7B
$GNVTG,347.32,T,,M,0.04,N,0.07,K,D*24
$GNGGA,100530.000,3018.4753,N,12004.6495,E,2,22,0.69,17.1,M,7.0,M,,*7F
$GNGLL,3018.4753,N,12004.6495,E,100530.000,A,D*43
$GPGSA,A,3,21,11,05,06,13,15,19,25,20,195,194,12,1.02,0.69,0.75*05
$BDGSA,A,3,20,08,01,30,04,27,28,13,03,02,,,1.02,0.69,0.75*1D
$GPGSV,5,1,17,195,67,082,38,21,63,356,40,11,63,051,38,05,53,296,29*4B
$GPGSV,5,2,17,20,42,195,41,13,40,181,43,06,31,098,30,194,23,172,40*46
$GPGSV,5,3,17,29,23,316,,15,20,212,40,30,15,105,,19,12,155,17*7B
$GPGSV,5,4,17,12,12,234,28,40,12,255,31,07,09,072,,25,07,270,33*78
$GPGSV,5,5,17,09,04,037,*46
$BDGSV,4,1,13,27,75,122,43,10,64,235,,07,62,208,31,08,58,292,31*6C
$BDGSV,4,2,13,03,54,199,35,13,50,277,28,01,47,137,36,30,44,318,40*69
$BDGSV,4,3,13,02,37,234,27,04,37,118,37,28,31,133,33,05,15,253,*6B
$BDGSV,4,4,13,20,12,226,38*56
$GNRMC,100530.000,A,3018.4753,N,12004.6495,E,0.10,347.32,270326,,,D*76
$GNVTG,347.32,T,,M,0.10,N,0.18,K,D*2F
$GNGGA,100531.000,3018.4753,N,12004.6495,E,2,22,0.69,17.1,M,7.0,M,,*7E
$GNGLL,3018.4753,N,12004.6495,E,100531.000,A,D*42
$GPGSA,A,3,21,11,05,06,13,15,19,25,20,195,194,12,1.02,0.69,0.75*05
$BDGSA,A,3,20,08,01,30,04,27,28,13,03,02,,,1.02,0.69,0.75*1D
$GPGSV,5,1,17,195,67,082,38,21,63,356,39,11,63,051,37,05,53,296,30*42
$GPGSV,5,2,17,20,42,195,41,13,40,181,44,06,31,098,30,194,23,172,40*41
$GPGSV,5,3,17,29,23,316,,15,20,212,40,30,15,105,,19,12,155,17*7B
$GPGSV,5,4,17,12,12,234,27,40,12,255,32,07,09,072,,25,07,270,34*73
$GPGSV,5,5,17,09,04,037,*46
$BDGSV,4,1,13,27,75,122,43,10,64,235,,07,62,208,31,08,58,292,31*6C
$BDGSV,4,2,13,03,54,199,35,13,50,277,33,01,47,137,36,30,44,318,40*63
$BDGSV,4,3,13,02,37,234,26,04,37,118,36,28,31,133,33,05,15,253,*6B
$BDGSV,4,4,13,20,12,226,38*56
$GNRMC,100531.000,A,3018.4753,N,12004.6495,E,0.03,347.32,270326,,,D*75
$GNVTG,347.32,T,,M,0.03,N,0.06,K,D*22
$GNGGA,100532.000,3018.4753,N,12004.6495,E,2,22,0.69,17.1,M,7.0,M,,*7D
$GNGLL,3018.4753,N,12004.6495,E,100532.000,A,D*41
$GPGSA,A,3,21,11,05,06,13,15,19,25,20,195,194,12,1.02,0.69,0.75*05
$BDGSA,A,3,20,08,01,30,04,27,28,13,03,02,,,1.02,0.69,0.75*1D
$GPGSV,5,1,17,195,67,082,38,21,63,356,22,11,63,051,36,05,53,296,37*4E
$GPGSV,5,2,17,20,42,195,40,13,40,181,45,06,31,098,31,194,23,172,41*41
$GPGSV,5,3,17,29,23,316,,15,20,212,39,30,15,105,,19,12,155,18*7A
$GPGSV,5,4,17,12,12,234,42,40,12,255,31,07,09,072,,25,07,270,32*75
$GPGSV,5,5,17,09,04,037,*46
$BDGSV,4,1,13,27,75,122,41,10,64,235,,07,62,208,31,08,58,292,24*6A
$BDGSV,4,2,13,03,54,199,36,13,50,277,33,01,47,137,37,30,44,318,39*6F
$BDGSV,4,3,13,02,37,234,27,04,37,118,36,28,31,133,34,05,15,253,*6D
$BDGSV,4,4,13,20,12,226,38*56
$GNRMC,100532.000,A,3018.4753,N,12004.6495,E,0.13,347.32,270326,,,D*77
$GNVTG,347.32,T,,M,0.13,N,0.23,K,D*24
$GNGGA,100533.000,3018.4753,N,12004.6496,E,2,22,0.69,17.1,M,7.0,M,,*7F
$GNGLL,3018.4753,N,12004.6496,E,100533.000,A,D*43
$GPGSA,A,3,21,11,05,06,13,15,19,25,20,195,194,12,1.02,0.69,0.75*05
$BDGSA,A,3,20,08,01,30,04,27,28,13,03,02,,,1.02,0.69,0.75*1D
$GPGSV,5,1,17,195,67,082,39,21,63,356,35,11,63,051,37,05,53,296,23*4D
$GPGSV,5,2,17,20,42,195,40,13,40,181,45,06,31,098,31,194,23,172,41*41
$GPGSV,5,3,17,29,23,316,,15,20,212,40,30,15,105,,19,12,155,18*74
$GPGSV,5,4,17,12,12,234,29,40,12,255,33,07,09,072,,25,07,270,33*7B
$GPGSV,5,5,17,09,04,037,*46
$BDGSV,4,1,13,27,75,122,42,10,64,235,,07,62,208,33,08,58,292,25*6A
$BDGSV,4,2,13,03,54,199,36,13,50,277,34,01,47,137,37,30,44,318,40*66
$BDGSV,4,3,13,02,37,234,26,04,37,118,34,28,31,133,34,05,15,253,*6E
$BDGSV,4,4,13,20,12,226,38*56
$GNRMC,100533.000,A,3018.4753,N,12004.6496,E,0.14,347.32,270326,,,D*72
$GNVTG,347.32,T,,M,0.14,N,0.26,K,D*26
$GNGGA,100534.000,3018.4754,N,12004.6496,E,2,22,0.69,17.1,M,7.0,M,,*7F
$GNGLL,3018.4754,N,12004.6496,E,100534.000,A,D*43
$GPGSA,A,3,21,11,05,06,13,15,19,25,20,195,194,12,1.02,0.69,0.75*05
$BDGSA,A,3,20,08,01,30,04,27,28,13,03,02,,,1.02,0.69,0.75*1D
$GPGSV,5,1,17,195,67,082,40,21,63,356,34,11,63,051,38,05,53,296,30*4F
$GPGSV,5,2,17,20,42,195,40,13,40,181,45,06,31,098,30,194,23,172,41*40
$GPGSV,5,3,17,29,23,316,,15,20,212,40,30,15,105,,19,12,155,18*74
$GPGSV,5,4,17,12,12,234,29,40,12,255,32,07,09,072,,25,07,270,35*7C
$GPGSV,5,5,17,09,04,037,*46
$BDGSV,4,1,13,27,75,122,42,10,64,235,,07,62,208,32,08,58,292,26*68
$BDGSV,4,2,13,03,54,199,36,13,50,277,31,01,47,137,37,30,44,318,42*61
$BDGSV,4,3,13,02,37,234,26,04,37,118,33,28,31,133,34,05,15,253,*69
$BDGSV,4,4,13,20,12,226,38*56
$GNRMC,100534.000,A,3018.4754,N,12004.6496,E,0.10,347.32,270326,,,D*76
$GNVTG,347.32,T,,M,0.10,N,0.19,K,D*2E
$GNGGA,100535.000,3018.4754,N,12004.6495,E,2,22,0.69,17.1,M,7.0,M,,*7D
$GNGLL,3018.4754,N,12004.6495,E,100535.000,A,D*41
$GPGSA,A,3,21,11,05,06,13,15,19,25,20,195,194,12,1.02,0.69,0.75*05
$BDGSA,A,3,20,08,01,30,04,27,28,13,03,02,,,1.02,0.69,0.75*1D
$GPGSV,5,1,17,195,67,082,40,21,63,356,34,11,63,051,39,05,53,296,37*49
$GPGSV,5,2,17,20,42,195,40,13,40,181,46,06,31,098,30,194,23,172,41*43
$GPGSV,5,3,17,29,23,316,,15,20,212,38,30,15,105,,19,12,155,17*74
$GPGSV,5,4,17,12,12,234,30,40,12,255,33,07,09,072,,25,07,270,35*75
$GPGSV,5,5,17,09,04,037,*46
$BDGSV,4,1,13,27,75,122,42,10,64,235,,07,62,208,32,08,58,292,26*68
$BDGSV,4,2,13,03,54,199,35,13,50,277,32,01,47,137,38,30,44,318,43*6F
$BDGSV,4,3,13,02,37,234,27,04,37,118,34,28,31,133,34,05,15,253,*6F
$BDGSV,4,4,13,20,12,226,31*5F
$GNRMC,100535.000,A,3018.4754,N,12004.6495,E,0.07,347.32,270326,,,D*72
$GNVTG,347.32,T,,M,0.07,N,0.12,K,D*23
$GNGGA,100536.000,3018.4754,N,12004.6495,E,2,22,0.69,17.1,M,7.0,M,,*7E
$GNGLL,3018.4754,N,12004.6495,E,100536.000,A,D*42
$GPGSA,A,3,21,11,05,06,13,15,19,25,20,195,194,12,1.02,0.69,0.75*05
$BDGSA,A,3,20,08,01,30,04,27,28,13,03,02,,,1.02,0.69,0.75*1D
$GPGSV,5,1,17,195,67,082,40,21,63,356,34,11,63,051,39,05,53,296,37*49
$GPGSV,5,2,17,20,42,195,40,13,40,181,47,06,31,098,31,194,23,172,40*42
$GPGSV,5,3,17,29,23,316,,15,20,212,37,30,15,105,,19,12,155,17*7B
$GPGSV,5,4,17,12,12,234,40,40,12,255,32,07,09,072,,25,07,270,36*70
$GPGSV,5,5,17,09,04,037,*46
$BDGSV,4,1,13,27,75,122,42,10,64,235,,07,62,208,31,08,58,292,27*6A
$BDGSV,4,2,13,03,54,199,35,13,50,277,31,01,47,137,38,30,44,318,43*6C
$BDGSV,4,3,13,02,37,234,29,04,37,118,34,28,31,133,34,05,15,253,*61
$BDGSV,4,4,13,20,12,226,31*5F
$GNRMC,100536.000,A,3018.4754,N,12004.6495,E,0.11,347.32,270326,,,D*76
$GNVTG,347.32,T,,M,0.11,N,0.21,K,D*24
$GNGGA,100537.000,3018.4754,N,12004.6495,E,2,22,0.69,17.1,M,7.0,M,,*7F
$GNGLL,3018.4754,N,12004.6495,E,100537.000,A,D*43
$GPGSA,A,3,21,11,05,06,13,15,19,25,20,195,194,12,1.02,0.69,0.75*05
$BDGSA,A,3,20,08,01,30,04,27,28,13,03,02,,,1.02,0.69,0.75*1D
$GPGSV,5,1,17,195,67,082,40,21,63,356,36,11,63,051,40,05,53,296,36*44
$GPGSV,5,2,17,20,42,195,40,13,40,181,47,06,31,098,30,194,23,172,39*4D
$GPGSV,5,3,17,29,23,316,,15,20,212,36,30,15,105,,19,12,155,17*7A
$GPGSV,5,4,17,12,12,234,40,40,12,255,31,07,09,072,,25,07,270,37*72
$GPGSV,5,5,17,09,04,037,*46
$BDGSV,4,1,13,27,75,122,43,10,64,235,,07,62,208,30,08,58,292,27*6A
$BDGSV,4,2,13,03,54,199,35,13,50,277,22,01,47,137,37,30,44,318,43*61
$BDGSV,4,3,13,02,37,234,29,04,37,118,34,28,31,133,34,05,15,253,*61
$BDGSV,4,4,13,20,12,226,32*5C
$GNRMC,100537.000,A,3018.4754,N,12004.6495,E,0.08,347.32,270326,,,D*7F
$GNVTG,347.32,T,,M,0.08,N,0.15,K,D*2B
$GNGGA,100538.000,3018.4754,N,12004.6495,E,2,22,0.69,17.1,M,7.0,M,,*70
$GNGLL,3018.4754,N,12004.6495,E,100538.000,A,D*4C
$GPGSA,A,3,21,11,05,06,13,15,19,25,20,195,194,12,1.02,0.69,0.75*05
$BDGSA,A,3,20,08,01,30,04,27,28,13,03,02,,,1.02,0.69,0.75*1D
$GPGSV,5,1,17,195,67,082,40,21,63,356,37,11,63,051,40,05,53,296,35*46
$GPGSV,5,2,17,20,42,195,40,13,40,181,47,06,31,098,30,194,23,172,39*4D
$GPGSV,5,3,17,29,23,316,,15,20,212,37,30,15,105,,19,12,155,16*7A
$GPGSV,5,4,17,12,12,234,40,40,12,255,31,07,09,072,,25,07,270,38*7D
$GPGSV,5,5,17,09,04,037,*46
$BDGSV,4,1,13,27,75,122,43,10,64,235,,07,62,208,31,08,58,292,27*6B
$BDGSV,4,2,13,03,54,199,36,13,50,277,21,01,47,137,36,30,44,318,42*61
$BDGSV,4,3,13,02,37,234,29,04,37,118,35,28,31,133,34,05,15,253,*60
$BDGSV,4,4,13,20,12,226,33*5D
$GNRMC,100538.000,A,3018.4754,N,12004.6495,E,0.04,347.32,270326,,,D*7C
$GNVTG,347.32,T,,M,0.04,N,0.07,K,D*24
$GNGGA,100539.000,3018.4754,N,12004.6495,E,2,22,0.70,17.0,M,7.0,M,,*78
$GNGLL,3018.4754,N,12004.6495,E,100539.000,A,D*4D
$GPGSA,A,3,21,11,05,06,13,15,25,20,195,194,12,,1.02,0.70,0.74*04
$BDGSA,A,3,20,08,01,30,04,27,07,28,13,03,02,,1.02,0.70,0.74*13
$GPGSV,5,1,17,195,67,082,40,21,63,356,38,11,63,051,40,05,53,296,36*4A
$GPGSV,5,2,17,20,42,195,40,13,40,181,47,06,31,098,30,194,23,172,38*4C
$GPGSV,5,3,17,29,23,316,,15,20,212,37,30,15,105,,19,12,155,*7D
$GPGSV,5,4,17,12,12,234,32,40,12,255,30,07,09,072,,25,07,270,38*79
$GPGSV,5,5,17,09,04,037,*46
$BDGSV,4,1,13,27,75,122,43,10,64,235,,07,62,208,31,08,58,292,27*6B
$BDGSV,4,2,13,03,54,199,36,13,50,277,20,01,47,137,36,30,44,318,42*60
$BDGSV,4,3,13,02,37,234,29,04,37,118,35,28,31,133,34,05,15,253,*60
$BDGSV,4,4,13,20,12,226,33*5D
$GNRMC,100539.000,A,3018.4754,N,12004.6495,E,0.02,347.32,270326,,,D*7B
$GNVTG,347.32,T,,M,0.02,N,0.03,K,D*26
$GNGGA,100540.000,3018.4754,N,12004.6496,E,2,22,0.70,16.9,M,7.0,M,,*7D
$GNGLL,3018.4754,N,12004.6496,E,100540.000,A,D*40
$GPGSA,A,3,21,11,05,06,13,15,25,20,195,194,12,,1.02,0.70,0.74*04
$BDGSA,A,3,20,08,01,30,04,27,07,28,13,03,02,,1.02,0.70,0.74*13
$GPGSV,5,1,17,195,67,082,40,21,63,356,38,11,63,051,40,05,53,296,36*4A
$GPGSV,5,2,17,20,42,195,41,13,40,181,46,06,31,098,29,194,23,172,37*4B
$GPGSV,5,3,17,29,23,316,,15,20,212,30,30,15,105,,19,12,155,*7A
$GPGSV,5,4,17,12,12,234,33,40,12,255,31,07,09,072,,25,07,270,38*79
$GPGSV,5,5,17,09,04,037,*46
$BDGSV,4,1,13,27,75,122,43,10,64,235,,07,62,208,31,08,58,292,27*6B
$BDGSV,4,2,13,03,54,199,36,13,50,277,22,01,47,137,35,30,44,318,42*61
$BDGSV,4,3,13,02,37,234,30,04,37,118,35,28,31,133,34,05,15,253,*68
$BDGSV,4,4,13,20,12,226,33*5D
$GNRMC,100540.000,A,3018.4754,N,12004.6496,E,0.05,347.32,270326,,,D*71
$GNVTG,347.32,T,,M,0.05,N,0.10,K,D*23
$GNGGA,100541.000,3018.4754,N,12004.6495,E,2,22,0.70,17.0,M,7.0,M,,*77
$GNGLL,3018.4754,N,12004.6495,E,100541.000,A,D*42
$GPGSA,A,3,21,11,05,06,13,15,25,20,195,194,12,,1.02,0.70,0.74*04
$BDGSA,A,3,20,08,01,30,04,27,07,28,13,03,02,,1.02,0.70,0.74*13
$GPGSV,5,1,17,195,67,082,40,21,63,356,38,11,63,051,40,05,53,296,35*49
$GPGSV,5,2,17,20,42,195,40,13,40,181,45,06,31,098,29,194,23,172,37*49
$GPGSV,5,3,17,29,23,316,,15,20,212,37,30,15,105,,19,12,155,*7D
$GPGSV,5,4,17,12,12,234,34,40,12,255,32,07,09,072,,25,07,270,38*7D
$GPGSV,5,5,17,09,04,037,*46
$BDGSV,4,1,13,27,75,122,43,10,64,235,,07,62,208,32,08,58,292,27*68
$BDGSV,4,2,13,03,54,199,36,13,50,277,24,01,47,137,36,30,44,318,42*64
$BDGSV,4,3,13,02,37,234,29,04,37,118,35,28,31,133,33,05,15,253,*67
$BDGSV,4,4,13,20,12,226,33*5D
$GNRMC,100541.000,A,3018.4754,N,12004.6495,E,0.04,347.32,270326,,,D*72
$GNVTG,347.32,T,,M,0.04,N,0.07,K,D*24
$GNGGA,100542.000,3018.4754,N,12004.6496,E,2,22,0.70,16.9,M,7.0,M,,*7F
$GNGLL,3018.4754,N,12004.6496,E,100542.000,A,D*42
$GPGSA,A,3,21,11,05,06,13,15,25,20,195,194,12,,1.02,0.70,0.74*04
$BDGSA,A,3,20,08,01,30,04,27,07,28,13,03,02,,1.02,0.70,0.74*13
$GPGSV,5,1,17,195,67,082,40,21,63,356,38,11,63,051,40,05,53,296,35*49
$GPGSV,5,2,17,20,42,195,40,13,40,181,44,06,31,098,28,194,23,172,37*49
$GPGSV,5,3,17,29,23,316,,15,20,212,37,30,15,105,,19,12,155,*7D
$GPGSV,5,4,17,12,12,234,35,40,12,255,34,07,09,072,,25,07,270,38*7A
$GPGSV,5,5,17,09,04,037,*46
$BDGSV,4,1,13,27,75,122,43,10,64,235,,07,62,208,31,08,58,292,28*64
$BDGSV,4,2,13,03,54,199,36,13,50,277,24,01,47,137,36,30,44,318,42*64
$BDGSV,4,3,13,02,37,234,27,04,37,118,35,28,31,133,32,05,15,253,*68
$BDGSV,4,4,13,20,12,226,34*5A
$GNRMC,100542.000,A,3018.4754,N,12004.6496,E,0.04,347.32,270326,,,D*72
$GNVTG,347.32,T,,M,0.04,N,0.07,K,D*24
$GNGGA,100543.000,3018.4754,N,12004.6496,E,2,22,0.70,16.9,M,7.0,M,,*7E
$GNGLL,3018.4754,N,12004.6496,E,100543.000,A,D*43
$GPGSA,A,3,21,11,05,06,13,15,25,20,195,194,12,,1.02,0.70,0.74*04
$BDGSA,A,3,20,08,01,30,04,27,07,28,13,03,02,,1.02,0.70,0.74*13
$GPGSV,5,1,17,195,67,082,40,21,63,356,38,11,63,051,40,05,53,296,35*49
$GPGSV,5,2,17,20,42,195,41,13,40,181,43,06,31,098,29,194,23,172,36*4F
$GPGSV,5,3,17,29,23,316,,15,20,212,38,30,15,105,,19,12,155,*72
$GPGSV,5,4,17,12,12,234,35,40,12,255,35,07,09,072,,25,07,270,38*7B
$GPGSV,5,5,17,09,04,037,*46
$BDGSV,4,1,13,27,75,122,43,10,64,235,,07,62,208,29,08,58,292,28*6D
$BDGSV,4,2,13,03,54,199,35,13,50,277,22,01,47,137,36,30,44,318,42*61
$BDGSV,4,3,13,02,37,234,27,04,37,118,35,28,31,133,33,05,15,253,*69
$BDGSV,4,4,13,20,12,226,35*5B
$GNRMC,100543.000,A,3018.4754,N,12004.6496,E,0.02,347.32,270326,,,D*75
$GNVTG,347.32,T,,M,0.02,N,0.04,K,D*21
$GNGGA,100544.000,3018.4754,N,12004.6496,E,2,22,0.70,16.8,M,7.0,M,,*78
$GNGLL,3018.4754,N,12004.6496,E,100544.000,A,D*44
$GPGSA,A,3,21,11,05,06,13,15,25,20,195,194,12,,1.02,0.70,0.74*04
$BDGSA,A,3,20,08,01,30,04,27,07,28,13,03,02,,1.02,0.70,0.74*13
$GPGSV,5,1,17,195,67,082,40,21,63,356,38,11,63,051,41,05,53,296,26*4A
$GPGSV,5,2,17,20,42,195,41,13,40,181,43,06,31,098,29,194,23,172,37*4E
$GPGSV,5,3,17,29,23,316,,15,20,212,39,30,15,105,,19,12,155,*73
$GPGSV,5,4,17,12,12,234,28,40,12,255,35,07,09,072,,25,07,270,37*78
$GPGSV,5,5,17,09,04,037,*46
$BDGSV,4,1,13,27,75,122,43,10,64,235,,07,62,208,29,08,58,292,29*6C
$BDGSV,4,2,13,03,54,199,36,13,50,277,23,01,47,137,37,30,44,318,42*62
$BDGSV,4,3,13,02,37,234,28,04,37,118,35,28,31,133,33,05,15,253,*66
$BDGSV,4,4,13,20,12,226,36*58
$GNRMC,100544.000,A,3018.4754,N,12004.6496,E,0.07,347.32,270326,,,D*77
$GNVTG,347.32,T,,M,0.07,N,0.13,K,D*22
$GNGGA,100545.000,3018.4754,N,12004.6496,E,2,22,0.70,16.9,M,7.0,M,,*78
$GNGLL,3018.4754,N,12004.6496,E,100545.000,A,D*45
$GPGSA,A,3,21,11,05,06,13,15,25,20,195,194,12,,1.02,0.70,0.74*04
$BDGSA,A,3,20,08,01,30,04,27,07,28,13,03,02,,1.02,0.70,0.74*13
$GPGSV,5,1,17,195,67,082,40,21,63,356,38,11,63,051,42,05,53,296,37*49
$GPGSV,5,2,17,20,42,195,41,13,40,181,43,06,31,098,28,194,23,172,37*4F
$GPGSV,5,3,17,29,23,316,,15,20,212,39,30,15,105,,19,12,155,*73
$GPGSV,5,4,17,12,12,234,28,40,12,255,35,07,09,072,,25,07,270,37*78
$GPGSV,5,5,17,09,04,037,*46
$BDGSV,4,1,13,27,75,122,43,10,64,235,,07,62,208,29,08,58,292,30*64
$BDGSV,4,2,13,03,54,199,36,13,50,277,24,01,47,137,37,30,44,318,42*65
$BDGSV,4,3,13,02,37,234,28,04,37,118,35,28,31,133,34,05,15,253,*61
$BDGSV,4,4,13,20,12,226,36*58
$GNRMC,100545.000,A,3018.4754,N,12004.6496,E,0.02,347.32,270326,,,D*73
$GNVTG,347.32,T,,M,0.02,N,0.04,K,D*21
$GNGGA,100546.000,3018.4754,N,12004.6496,E,2,22,0.70,16.9,M,7.0,M,,*7B
$GNGLL,3018.4754,N,12004.6496,E,100546.000,A,D*46
$GPGSA,A,3,21,11,05,06,13,15,25,20,195,194,12,,1.02,0.70,0.74*04
$BDGSA,A,3,20,08,01,30,04,27,07,28,13,03,02,,1.02,0.70,0.74*13
$GPGSV,5,1,17,195,67,082,40,21,63,356,38,11,63,051,42,05,53,296,37*49
$GPGSV,5,2,17,20,42,195,41,13,40,181,44,06,31,098,28,194,23,172,37*48
$GPGSV,5,3,17,29,23,316,,15,20,212,37,30,15,105,,19,12,155,*7D
$GPGSV,5,4,17,12,12,234,28,40,12,255,35,07,09,072,,25,07,270,37*78
$GPGSV,5,5,17,09,04,037,*46
$BDGSV,4,1,13,27,75,122,43,10,64,235,,07,62,208,30,08,58,292,28*65
$BDGSV,4,2,13,03,54,199,37,13,50,277,22,01,47,137,36,30,44,318,42*63
$BDGSV,4,3,13,02,37,234,28,04,37,118,35,28,31,133,33,05,15,253,*66
$BDGSV,4,4,13,20,12,226,37*59
$GNRMC,100546.000,A,3018.4754,N,12004.6496,E,0.07,347.32,270326,,,D*75
$GNVTG,347.32,T,,M,0.07,N,0.13,K,D*22
$GNGGA,100547.000,3018.4754,N,12004.6496,E,2,22,0.70,16.8,M,7.0,M,,*7B
$GNGLL,3018.4754,N,12004.6496,E,100547.000,A,D*47
$GPGSA,A,3,21,11,05,06,13,15,25,20,195,194,12,,1.02,0.70,0.74*04
$BDGSA,A,3,20,08,01,30,04,27,07,28,13,03,02,,1.02,0.70,0.74*13
$GPGSV,5,1,17,195,67,082,40,21,63,356,38,11,63,051,33,05,53,296,37*4F
$GPGSV,5,2,17,20,42,195,42,13,40,181,44,06,31,098,29,194,23,172,37*4A
$GPGSV,5,3,17,29,23,316,,15,20,212,37,30,15,105,,19,12,155,*7D
$GPGSV,5,4,17,12,12,234,30,40,12,255,34,07,09,072,,25,07,270,38*7F
$GPGSV,5,5,17,09,04,037,*46
$BDGSV,4,1,13,27,75,122,43,10,64,235,,07,62,208,31,08,58,292,29*65
$BDGSV,4,2,13,03,54,199,37,13,50,277,30,01,47,137,36,30,44,318,41*63
$BDGSV,4,3,13,02,37,234,28,04,37,118,35,28,31,133,33,05,15,253,*66
$BDGSV,4,4,13,20,12,226,37*59
$GNRMC,100547.000,A,3018.4754,N,12004.6496,E,0.02,347.32,270326,,,D*71
$GNVTG,347.32,T,,M,0.02,N,0.03,K,D*26
$GNGGA,100548.000,3018.4754,N,12004.6496,E,2,22,0.70,16.8,M,7.0,M,,*74
$GNGLL,3018.4754,N,12004.6496,E,100548.000,A,D*48
$GPGSA,A,3,21,11,05,06,13,15,25,20,195,194,12,,1.02,0.70,0.74*04
$BDGSA,A,3,20,08,01,30,04,27,07,28,13,03,02,,1.02,0.70,0.74*13
$GPGSV,5,1,17,195,67,082,40,21,63,356,38,11,63,051,35,05,53,296,37*49
$GPGSV,5,2,17,20,42,195,42,13,40,181,45,06,31,098,29,194,23,172,37*4B
$GPGSV,5,3,17,29,23,316,,15,20,212,38,30,15,105,,19,12,155,*72
$GPGSV,5,4,17,12,12,234,31,40,12,255,34,07,09,072,,25,07,270,37*71
$GPGSV,5,5,17,09,04,037,*46
$BDGSV,4,1,13,27,75,122,43,10,64,235,,07,62,208,32,08,58,292,28*67
$BDGSV,4,2,13,03,54,199,37,13,50,277,30,01,47,137,35,30,44,318,41*60
$BDGSV,4,3,13,02,37,234,28,04,37,118,36,28,31,133,32,05,15,253,*64
$BDGSV,4,4,13,20,12,226,37*59
$GNRMC,100548.000,A,3018.4754,N,12004.6496,E,0.08,347.32,270326,,,D*74
$GNVTG,347.32,T,,M,0.08,N,0.15,K,D*2B
$GNGGA,100549.000,3018.4754,N,12004.6496,E,2,22,0.70,16.8,M,7.0,M,,*75
$GNGLL,3018.4754,N,12004.6496,E,100549.000,A,D*49
$GPGSA,A,3,21,11,05,06,13,15,25,20,195,194,12,,1.02,0.70,0.74*04
$BDGSA,A,3,20,08,01,30,04,27,07,28,13,03,02,,1.02,0.70,0.74*13
$GPGSV,5,1,17,195,67,082,40,21,63,356,37,11,63,051,43,05,53,296,37*47
$GPGSV,5,2,17,20,42,195,42,13,40,181,46,06,31,098,29,194,23,172,37*48
$GPGSV,5,3,17,29,23,316,,15,20,212,38,30,15,105,,19,12,155,*72
$GPGSV,5,4,17,12,12,234,30,40,12,255,33,07,09,072,,25,07,270,39*79
$GPGSV,5,5,17,09,04,037,*46
$BDGSV,4,1,13,27,75,122,43,10,64,235,,07,62,208,32,08,58,292,28*67
$BDGSV,4,2,13,03,54,199,37,13,50,277,21,01,47,137,35,30,44,318,42*63
$BDGSV,4,3,13,02,37,234,28,04,37,118,36,28,31,133,32,05,15,253,*64
$BDGSV,4,4,13,20,12,226,36*58
$GNRMC,100549.000,A,3018.4754,N,12004.6496,E,0.06,347.32,270326,,,D*7B
$GNVTG,347.32,T,,M,0.06,N,0.12,K,D*22
$GNGGA,100550.000,3018.4754,N,12004.6496,E,2,22,0.70,16.8,M,7.0,M,,*7D
$GNGLL,3018.4754,N,12004.6496,E,100550.000,A,D*41
$GPGSA,A,3,21,11,05,06,13,15,25,20,195,194,12,,1.02,0.70,0.74*04
$BDGSA,A,3,20,08,01,30,04,27,07,28,13,03,02,,1.02,0.70,0.74*13
$GPGSV,5,1,17,195,67,082,40,21,63,356,36,11,63,051,43,05,53,296,37*46
$GPGSV,5,2,17,20,42,195,42,13,40,181,46,06,31,098,29,194,23,172,38*47
$GPGSV,5,3,17,29,23,316,,15,20,212,38,30,15,105,,19,12,155,*72
$GPGSV,5,4,17,12,12,234,32,40,12,255,31,07,09,072,,25,07,270,39*79
$GPGSV,5,5,17,09,04,037,*46
$BDGSV,4,1,13,27,75,122,43,10,64,235,,07,62,208,32,08,58,292,28*67
$BDGSV,4,2,13,03,54,199,37,13,50,277,22,01,47,137,36,30,44,318,42*63
$BDGSV,4,3,13,02,37,234,28,04,37,118,36,28,31,133,31,05,15,253,*67
$BDGSV,4,4,13,20,12,226,36*58
$GNRMC,100550.000,A,3018.4754,N,12004.6496,E,0.02,347.32,270326,,,D*77
$GNVTG,347.32,T,,M,0.02,N,0.03,K,D*26
$GNGGA,100551.000,3018.4754,N,12004.6496,E,2,22,0.70,16.8,M,7.0,M,,*7C
$GNGLL,3018.4754,N,12004.6496,E,100551.000,A,D*40
$GPGSA,A,3,21,11,05,06,13,15,25,20,195,194,12,,1.02,0.70,0.74*04
$BDGSA,A,3,20,08,01,30,04,27,07,28,13,03,02,,1.02,0.70,0.74*13
$GPGSV,5,1,17,195,67,082,39,21,63,356,36,11,63,051,43,05,53,296,29*47
$GPGSV,5,2,17,20,42,195,42,13,40,181,46,06,31,098,27,194,23,172,38*49
$GPGSV,5,3,17,29,23,316,,15,20,212,38,30,15,105,,19,12,155,*72
$GPGSV,5,4,17,12,12,234,32,40,12,255,31,07,09,072,,25,07,270,38*78
$GPGSV,5,5,17,09,04,037,*46
$BDGSV,4,1,13,27,75,122,43,10,64,235,,07,62,208,31,08,58,292,29*65
$BDGSV,4,2,13,03,54,199,37,13,50,277,22,01,47,137,36,30,44,318,41*60
$BDGSV,4,3,13,02,37,234,29,04,37,118,36,28,31,133,32,05,15,253,*65
$BDGSV,4,4,13,20,12,226,36*58
$GNRMC,100551.000,A,3018.4754,N,12004.6496,E,0.04,347.32,270326,,,D*70
$GNVTG,347.32,T,,M,0.04,N,0.08,K,D*2B
$GNGGA,100552.000,3018.4754,N,12004.6496,E,2,21,0.71,16.8,M,7.0,M,,*7D
$GNGLL,3018.4754,N,12004.6496,E,100552.000,A,D*43
$GPGSA,A,3,21,11,05,06,13,15,25,20,195,194,12,,1.03,0.71,0.75*05
$BDGSA,A,3,20,08,01,30,04,27,07,28,03,02,,,1.03,0.71,0.75*10
$GPGSV,5,1,17,195,67,082,39,21,63,356,37,11,63,051,43,05,53,296,40*49
$GPGSV,5,2,17,20,42,195,42,13,40,181,46,06,31,098,28,194,23,172,38*46
$GPGSV,5,3,17,29,23,316,,15,20,212,38,30,15,105,,19,12,155,*72
$GPGSV,5,4,17,12,12,234,39,40,12,255,31,07,09,072,,25,07,270,39*72
$GPGSV,5,5,17,09,04,037,*46
$BDGSV,4,1,13,27,75,122,43,10,64,235,,07,62,208,33,08,58,292,36*69
$BDGSV,4,2,13,03,54,199,23,13,50,277,30,01,47,137,37,30,44,318,41*67
$BDGSV,4,3,13,02,37,234,31,04,37,118,36,28,31,133,32,05,15,253,*6C
$BDGSV,4,4,13,20,12,226,35*5B
$GNRMC,100552.000,A,3018.4754,N,12004.6496,E,0.04,347.32,270326,,,D*73
$GNVTG,347.32,T,,M,0.04,N,0.07,K,D*24
$GNGGA,100553.000,3018.4754,N,12004.6496,E,2,22,0.70,16.9,M,7.0,M,,*7F
$GNGLL,3018.4754,N,12004.6496,E,100553.000,A,D*42
$GPGSA,A,3,21,11,05,06,13,15,25,20,195,194,12,,1.02,0.70,0.74*04
$BDGSA,A,3,20,08,01,30,04,27,07,28,13,03,02,,1.02,0.70,0.74*13
$GPGSV,5,1,17,195,67,082,39,21,63,356,37,11,63,051,42,05,53,296,40*48
$GPGSV,5,2,17,20,42,195,41,13,40,181,46,06,31,098,29,194,23,172,38*44
$GPGSV,5,3,17,29,23,316,,15,20,212,38,30,15,105,,19,12,155,*72
$GPGSV,5,4,17,12,12,234,38,40,12,255,31,07,09,072,,25,07,270,38*72
$GPGSV,5,5,17,09,04,037,*46
$BDGSV,4,1,13,27,75,122,43,10,64,235,,07,62,208,34,08,58,292,35*6D
$BDGSV,4,2,13,03,54,199,31,13,50,277,22,01,47,137,38,30,44,318,42*6B
$BDGSV,4,3,13,02,37,234,33,04,37,118,36,28,31,133,32,05,15,253,*6E
$BDGSV,4,4,13,20,12,226,36*58
$GNRMC,100553.000,A,3018.4754,N,12004.6496,E,0.03,347.32,270326,,,D*75
$GNVTG,347.32,T,,M,0.03,N,0.05,K,D*21
$GNGGA,100554.000,3018.4754,N,12004.6496,E,2,22,0.70,16.8,M,7.0,M,,*79
$GNGLL,3018.4754,N,12004.6496,E,100554.000,A,D*45
$GPGSA,A,3,21,11,05,06,13,15,25,20,195,194,12,,1.02,0.70,0.74*04
$BDGSA,A,3,20,08,01,30,04,27,07,28,13,03,02,,1.02,0.70,0.74*13
$GPGSV,5,1,17,195,67,082,39,21,63,356,37,11,63,051,35,05,53,296,41*49
$GPGSV,5,2,17,20,42,195,40,13,40,181,46,06,31,098,29,194,23,172,39*44
$GPGSV,5,3,17,29,23,316,,15,20,212,38,30,15,105,,19,12,155,*72
$GPGSV,5,4,17,12,12,234,38,40,12,255,31,07,09,072,,25,07,270,38*72
$GPGSV,5,5,17,09,04,037,*46
$BDGSV,4,1,13,27,75,122,43,10,64,235,,07,62,208,35,08,58,292,33*6A
$BDGSV,4,2,13,03,54,199,32,13,50,277,27,01,47,137,38,30,44,318,43*6C
$BDGSV,4,3,13,02,37,234,32,04,37,118,36,28,31,133,33,05,15,253,*6E
$BDGSV,4,4,13,20,12,226,36*58
$GNRMC,100554.000,A,3018.4754,N,12004.6496,E,0.05,347.32,270326,,,D*74
$GNVTG,347.32,T,,M,0.05,N,0.09,K,D*2B
$GNGGA,100555.000,3018.4754,N,12004.6496,E,2,22,0.70,16.8,M,7.0,M,,*78
$GNGLL,3018.4754,N,12004.6496,E,100555.000,A,D*44
$GPGSA,A,3,21,11,05,06,13,15,25,20,195,194,12,,1.02,0.70,0.74*04
$BDGSA,A,3,20,08,01,30,04,27,07,28,13,03,02,,1.02,0.70,0.74*13
$GPGSV,5,1,17,195,67,082,39,21,63,356,38,11,63,051,36,05,53,296,39*4A
$GPGSV,5,2,17,20,42,195,40,13,40,181,46,06,31,098,29,194,23,172,40*4A
$GPGSV,5,3,17,29,23,316,,15,20,212,38,30,15,105,,19,12,155,*72
$GPGSV,5,4,17,12,12,234,38,40,12,255,30,07,09,072,,25,07,270,38*73
$GPGSV,5,5,17,09,04,037,*46
$BDGSV,4,1,13,27,75,122,43,10,64,235,,07,62,208,35,08,58,292,25*6D
$BDGSV,4,2,13,03,54,199,30,13,50,277,29,01,47,137,37,30,44,318,43*6F
$BDGSV,4,3,13,02,37,234,31,04,37,118,36,28,31,133,34,05,15,253,*6A
$BDGSV,4,4,13,20,12,226,38*56
$GNRMC,100555.000,A,3018.4754,N,12004.6496,E,0.09,347.32,270326,,,D*79
$GNVTG,347.32,T,,M,0.09,N,0.17,K,D*28
$GNGGA,100556.000,3018.4755,N,12004.6496,E,2,22,0.70,16.8,M,7.0,M,,*7A
$GNGLL,3018.4755,N,12004.6496,E,100556.000,A,D*46
$GPGSA,A,3,21,11,05,06,13,15,25,20,195,194,12,,1.02,0.70,0.74*04
$BDGSA,A,3,20,08,01,30,04,27,07,28,13,03,02,,1.02,0.70,0.74*13
$GPGSV,5,1,17,195,67,082,39,21,63,356,37,11,63,051,36,05,53,296,39*45
$GPGSV,5,2,17,20,42,195,41,13,40,181,46,06,31,098,29,194,23,172,41*4A
$GPGSV,5,3,17,29,23,316,,15,20,212,38,30,15,105,,19,12,155,*72
$GPGSV,5,4,17,12,12,234,37,40,12,255,23,07,09,072,,25,07,270,39*7F
$GPGSV,5,5,17,09,04,037,*46
$BDGSV,4,1,13,27,75,122,43,10,64,235,,07,62,208,34,08,58,292,26*6F
$BDGSV,4,2,13,03,54,199,38,13,50,277,19,01,47,137,37,30,44,318,43*64
$BDGSV,4,3,13,02,37,234,31,04,37,118,36,28,31,133,33,05,15,253,*6D
$BDGSV,4,4,13,20,12,226,38*56
$GNRMC,100556.000,A,3018.4755,N,12004.6496,E,0.07,347.32,270326,,,D*75
$GNVTG,347.32,T,,M,0.07,N,0.12,K,D*23
$GNGGA,100557.000,3018.4755,N,12004.6496,E,2,22,0.70,16.8,M,7.0,M,,*7B
$GNGLL,3018.4755,N,12004.6496,E,100557.000,A,D*47
$GPGSA,A,3,21,11,05,06,13,15,25,20,195,194,12,,1.02,0.70,0.74*04
$BDGSA,A,3,20,08,01,30,04,27,07,28,13,03,02,,1.02,0.70,0.74*13
$GPGSV,5,1,17,195,67,082,39,21,63,356,37,11,63,051,36,05,53,296,39*45
$GPGSV,5,2,17,20,42,195,41,13,40,181,46,06,31,098,29,194,23,172,41*4A
$GPGSV,5,3,17,29,23,316,,15,20,212,38,30,15,105,,19,12,155,*72
$GPGSV,5,4,17,12,12,234,25,40,12,255,24,07,09,072,,25,07,270,39*7B
$GPGSV,5,5,17,09,04,037,*46
$BDGSV,4,1,13,27,75,122,43,10,64,235,,07,62,208,34,08,58,292,27*6E
$BDGSV,4,2,13,03,54,199,37,13,50,277,18,01,47,137,37,30,44,318,43*6A
$BDGSV,4,3,13,02,37,234,31,04,37,118,35,28,31,133,33,05,15,253,*6E
$BDGSV,4,4,13,20,12,226,38*56
$GNRMC,100557.000,A,3018.4755,N,12004.6496,E,0.02,347.32,270326,,,D*71
$GNVTG,347.32,T,,M,0.02,N,0.04,K,D*21
$GNGGA,100558.000,3018.4755,N,12004.6496,E,2,22,0.70,16.8,M,7.0,M,,*74
$GNGLL,3018.4755,N,12004.6496,E,100558.000,A,D*48
$GPGSA,A,3,21,11,05,06,13,15,25,20,195,194,12,,1.02,0.70,0.74*04
$BDGSA,A,3,20,08,01,30,04,27,07,28,13,03,02,,1.02,0.70,0.74*13
$GPGSV,5,1,17,195,67,082,39,21,63,356,36,11,63,051,37,05,53,296,39*45
$GPGSV,5,2,17,20,42,195,41,13,40,181,46,06,31,098,28,194,23,172,41*4B
$GPGSV,5,3,17,29,23,316,,15,20,212,38,30,15,105,,19,12,155,*72
$GPGSV,5,4,17,12,12,234,23,40,12,255,24,07,09,072,,25,07,270,40*73
$GPGSV,5,5,17,09,04,037,*46
$BDGSV,4,1,13,27,75,122,43,10,64,235,,07,62,208,34,08,58,292,28*61
$BDGSV,4,2,13,03,54,199,36,13,50,277,22,01,47,137,37,30,44,318,43*62
$BDGSV,4,3,13,02,37,234,31,04,37,118,34,28,31,133,33,05,15,253,*6F
$BDGSV,4,4,13,20,12,226,38*56
$GNRMC,100558.000,A,3018.4755,N,12004.6496,E,0.04,347.32,270326,,,D*78
$GNVTG,347.32,T,,M,0.04,N,0.06,K,D*25
$GNGGA,100559.000,3018.4755,N,12004.6496,E,2,22,0.70,16.9,M,7.0,M,,*74
$GNGLL,3018.4755,N,12004.6496,E,100559.000,A,D*49
$GPGSA,A,3,21,11,05,06,13,15,25,20,195,194,12,,1.02,0.70,0.74*04
$BDGSA,A,3,20,08,01,30,04,27,07,28,13,03,02,,1.02,0.70,0.74*13
$GPGSV,5,1,17,195,67,082,39,21,63,356,29,11,63,051,37,05,53,296,39*4B
$GPGSV,5,2,17,20,42,195,41,13,40,181,46,06,31,098,28,194,23,172,41*4B
$GPGSV,5,3,17,29,23,316,,15,20,212,38,30,15,105,,19,12,155,*72
$GPGSV,5,4,17,12,12,234,21,40,12,255,24,07,09,072,,25,07,270,41*70
$GPGSV,5,5,17,09,04,037,*46
$BDGSV,4,1,13,27,75,122,43,10,64,235,,07,62,208,34,08,58,292,28*61
$BDGSV,4,2,13,03,54,199,35,13,50,277,23,01,47,137,38,30,44,318,42*6E
$BDGSV,4,3,13,02,37,234,31,04,37,118,34,28,31,133,33,05,15,253,*6F
$BDGSV,4,4,13,20,12,226,38*56
$GNRMC,100559.000,A,3018.4755,N,12004.6496,E,0.01,347.32,270326,,,D*7C
$GNVTG,347.32,T,,M,0.01,N,0.02,K,D*24
$GNGGA,100600.000,3018.4755,N,12004.6496,E,2,22,0.70,16.9,M,7.0,M,,*7B
$GNGLL,3018.4755,N,12004.6496,E,100600.000,A,D*46
$GPGSA,A,3,21,11,05,06,13,15,25,20,195,194,12,,1.02,0.70,0.74*04
$BDGSA,A,3,20,08,01,30,04,27,07,28,13,03,02,,1.02,0.70,0.74*13
$GPGSV,5,1,17,195,67,082,39,21,63,356,38,11,63,051,36,05,53,296,38*4B
$GPGSV,5,2,17,20,42,195,41,13,40,181,46,06,31,098,27,194,23,172,41*44
$GPGSV,5,3,17,29,23,316,,15,20,212,38,30,15,105,,19,12,155,*72
$GPGSV,5,4,17,12,12,234,20,40,12,255,24,07,09,072,,25,07,270,41*71
$GPGSV,5,5,17,09,04,037,*46
$BDGSV,4,1,13,27,75,122,43,10,64,235,,07,62,208,35,08,58,292,29*61
$BDGSV,4,2,13,03,54,199,35,13,50,277,19,01,47,137,38,30,44,318,42*67
$BDGSV,4,3,13,02,37,234,30,04,37,118,34,28,31,133,33,05,15,253,*6E
$BDGSV,4,4,13,20,12,226,38*56
$GNRMC,100600.000,A,3018.4755,N,12004.6496,E,0.05,347.32,270326,,,D*77
$GNVTG,347.32,T,,M,0.05,N,0.10,K,D*23
$GNGGA,100601.000,3018.4755,N,12004.6496,E,2,22,0.70,16.9,M,7.0,M,,*7A
$GNGLL,3018.4755,N,12004.6496,E,100601.000,A,D*47
$GPGSA,A,3,21,11,05,06,13,15,25,20,195,194,12,,1.02,0.70,0.74*04
$BDGSA,A,3,20,08,01,30,04,27,07,28,13,03,02,,1.02,0.70,0.74*13
$GPGSV,5,1,17,195,67,082,38,21,63,356,38,11,63,051,35,05,53,296,38*49
$GPGSV,5,2,17,20,42,195,41,13,40,181,47,06,31,098,27,194,23,172,41*45
$GPGSV,5,3,17,29,23,316,,15,20,212,39,30,15,105,,19,12,155,*73
$GPGSV,5,4,17,12,12,234,22,40,12,255,25,07,09,072,,25,07,270,41*72
$GPGSV,5,5,17,09,04,037,*46
$BDGSV,4,1,13,27,75,122,43,10,64,235,,07,62,208,36,08,58,292,30*6A
$BDGSV,4,2,13,03,54,199,36,13,50,277,18,01,47,137,38,30,44,318,42*65
$BDGSV,4,3,13,02,37,234,30,04,37,118,34,28,31,133,34,05,15,253,*69
$BDGSV,4,4,13,20,12,226,37*59
$GNRMC,100601.000,A,3018.4755,N,12004.6496,E,0.04,347.32,270326,,,D*77
$GNVTG,347.32,T,,M,0.04,N,0.08,K,D*2B
$GNGGA,100602.000,3018.4755,N,12004.6496,E,2,22,0.70,16.9,M,7.0,M,,*79
$GNGLL,3018.4755,N,12004.6496,E,100602.000,A,D*44
$GPGSA,A,3,21,11,05,06,13,15,25,20,195,194,12,,1.02,0.70,0.74*04
$BDGSA,A,3,20,08,01,30,04,27,07,28,13,03,02,,1.02,0.70,0.74*13
$GPGSV,5,1,17,195,67,082,38,21,63,356,38,11,63,051,34,05,53,296,37*47
$GPGSV,5,2,17,20,42,195,41,13,40,181,47,06,31,098,27,194,23,172,41*45
$GPGSV,5,3,17,29,23,316,,15,20,212,40,30,15,105,,19,12,155,*7D
$GPGSV,5,4,17,12,12,234,24,40,12,255,26,07,09,072,,25,07,270,41*77
$GPGSV,5,5,17,09,04,037,*46
$BDGSV,4,1,13,27,75,122,43,10,64,235,,07,62,208,36,08,58,292,30*6A
$BDGSV,4,2,13,03,54,199,37,13,50,277,17,01,47,137,38,30,44,318,42*6B
$BDGSV,4,3,13,02,37,234,31,04,37,118,35,28,31,133,34,05,15,253,*69
$BDGSV,4,4,13,20,12,226,36*58
$GNRMC,100602.000,A,3018.4755,N,12004.6496,E,0.04,347.32,270326,,,D*74
$GNVTG,347.32,T,,M,0.04,N,0.07,K,D*24
$GNGGA,100603.000,3018.4755,N,12004.6496,E,2,22,0.70,16.9,M,7.0,M,,*78
$GNGLL,3018.4755,N,12004.6496,E,100603.000,A,D*45
$GPGSA,A,3,21,11,05,06,13,15,25,20,195,194,12,,1.02,0.70,0.74*04
$BDGSA,A,3,20,08,01,30,04,27,07,28,13,03,02,,1.02,0.70,0.74*13
$GPGSV,5,1,17,195,67,082,38,21,63,356,38,11,63,051,34,05,53,296,37*47
$GPGSV,5,2,17,20,42,195,41,13,40,181,47,06,31,098,28,194,23,172,41*4A
